<?xml version="1.0" encoding="UTF-8"?>
<!-- KML Regionator 303:340M -->
<kml xmlns="http://earth.google.com/kml/2.1">
<Document>
<name>102 020321</name>
<Region>
<Lod>
<minLodPixels>256</minLodPixels>
<maxLodPixels>-1</maxLodPixels>
</Lod>
<LatLonAltBox>
<north>46.7578125</north>
<south>46.58203125</south>
<east>6.6796875</east>
<west>6.50390625</west>
</LatLonAltBox>
</Region>
<NetworkLink>
<name>0203210</name>
<Region>
<Lod>
<minLodPixels>256</minLodPixels>
<maxLodPixels>-1</maxLodPixels>
</Lod>
<LatLonAltBox>
<north>46.7578125</north>
<south>46.669921875</south>
<east>6.591796875</east>
<west>6.50390625</west>
</LatLonAltBox>
</Region>
<Link>
<href>103.kml</href>
<viewRefreshMode>onRegion</viewRefreshMode>
<viewFormat/>
</Link>
</NetworkLink>
<NetworkLink>
<name>0203211</name>
<Region>
<Lod>
<minLodPixels>256</minLodPixels>
<maxLodPixels>-1</maxLodPixels>
</Lod>
<LatLonAltBox>
<north>46.7578125</north>
<south>46.669921875</south>
<east>6.6796875</east>
<west>6.591796875</west>
</LatLonAltBox>
</Region>
<Link>
<href>107.kml</href>
<viewRefreshMode>onRegion</viewRefreshMode>
<viewFormat/>
</Link>
</NetworkLink>
<NetworkLink>
<name>0203212</name>
<Region>
<Lod>
<minLodPixels>256</minLodPixels>
<maxLodPixels>-1</maxLodPixels>
</Lod>
<LatLonAltBox>
<north>46.669921875</north>
<south>46.58203125</south>
<east>6.591796875</east>
<west>6.50390625</west>
</LatLonAltBox>
</Region>
<Link>
<href>112.kml</href>
<viewRefreshMode>onRegion</viewRefreshMode>
<viewFormat/>
</Link>
</NetworkLink>
<NetworkLink>
<name>0203213</name>
<Region>
<Lod>
<minLodPixels>256</minLodPixels>
<maxLodPixels>-1</maxLodPixels>
</Lod>
<LatLonAltBox>
<north>46.669921875</north>
<south>46.58203125</south>
<east>6.6796875</east>
<west>6.591796875</west>
</LatLonAltBox>
</Region>
<Link>
<href>117.kml</href>
<viewRefreshMode>onRegion</viewRefreshMode>
<viewFormat/>
</Link>
</NetworkLink>
<Placemark id="pm6787">
<name><![CDATA[Cossonay-Gare]]></name>
<description><![CDATA[241 connections
]]></description>
<Point>
<coordinates>6.522990,46.605800</coordinates>
</Point>
</Placemark>
<Placemark id="pm4359">
<name><![CDATA[Orbe, poste]]></name>
<description><![CDATA[218 connections
]]></description>
<Point>
<coordinates>6.543760,46.731700</coordinates>
</Point>
</Placemark>
<Placemark id="pm2526">
<name><![CDATA[Cossonay]]></name>
<description><![CDATA[216 connections
]]></description>
<Point>
<coordinates>6.523680,46.606000</coordinates>
</Point>
</Placemark>
<Placemark id="pm7811">
<name><![CDATA[Chavornay]]></name>
<description><![CDATA[199 connections
]]></description>
<Point>
<coordinates>6.568160,46.710100</coordinates>
</Point>
</Placemark>
<Placemark id="pm3347">
<name><![CDATA[Cossonay-Ville]]></name>
<description><![CDATA[178 connections
]]></description>
<Point>
<coordinates>6.509900,46.612000</coordinates>
</Point>
</Placemark>
<Placemark id="pm8229">
<name><![CDATA[Cheseaux]]></name>
<description><![CDATA[163 connections
]]></description>
<Point>
<coordinates>6.605990,46.584400</coordinates>
</Point>
</Placemark>
<Placemark id="pm9707">
<name><![CDATA[Orbe, Hôpital]]></name>
<description><![CDATA[160 connections
]]></description>
<Point>
<coordinates>6.531640,46.728900</coordinates>
</Point>
</Placemark>
<Placemark id="pm2704">
<name><![CDATA[Echallens]]></name>
<description><![CDATA[148 connections
]]></description>
<Point>
<coordinates>6.633630,46.639200</coordinates>
</Point>
</Placemark>
<Placemark id="pm15014">
<name><![CDATA[Assens]]></name>
<description><![CDATA[148 connections
]]></description>
<Point>
<coordinates>6.620460,46.613300</coordinates>
</Point>
</Placemark>
<Placemark id="pm3705">
<name><![CDATA[Etagnières]]></name>
<description><![CDATA[148 connections
]]></description>
<Point>
<coordinates>6.613250,46.600100</coordinates>
</Point>
</Placemark>
<Placemark id="pm5099">
<name><![CDATA[Les Ripes]]></name>
<description><![CDATA[148 connections
]]></description>
<Point>
<coordinates>6.608830,46.593200</coordinates>
</Point>
</Placemark>
<Placemark id="pm4137">
<name><![CDATA[Les Granges (Orbe)]]></name>
<description><![CDATA[126 connections
]]></description>
<Point>
<coordinates>6.541680,46.720900</coordinates>
</Point>
</Placemark>
<Placemark id="pm14742">
<name><![CDATA[St-Eloi]]></name>
<description><![CDATA[126 connections
]]></description>
<Point>
<coordinates>6.532570,46.720300</coordinates>
</Point>
</Placemark>
<Placemark id="pm5828">
<name><![CDATA[Orbe, Montchoisi]]></name>
<description><![CDATA[125 connections
]]></description>
<Point>
<coordinates>6.530020,46.731800</coordinates>
</Point>
</Placemark>
<Placemark id="pm5644">
<name><![CDATA[Sugnens]]></name>
<description><![CDATA[122 connections
]]></description>
<Point>
<coordinates>6.665790,46.655000</coordinates>
</Point>
</Placemark>
<Placemark id="pm7701">
<name><![CDATA[Sur Roche]]></name>
<description><![CDATA[114 connections
]]></description>
<Point>
<coordinates>6.638890,46.640400</coordinates>
</Point>
</Placemark>
</Document>
</kml>
