<?xml version="1.0" encoding="UTF-8"?>
<!-- KML Regionator 303:340M -->
<kml xmlns="http://earth.google.com/kml/2.1">
<Document>
<name>1037 0300021</name>
<Region>
<Lod>
<minLodPixels>256</minLodPixels>
<maxLodPixels>-1</maxLodPixels>
</Lod>
<LatLonAltBox>
<north>47.63671875</north>
<south>47.548828125</south>
<east>8.61328125</east>
<west>8.525390625</west>
</LatLonAltBox>
</Region>
<NetworkLink>
<name>03000211</name>
<Region>
<Lod>
<minLodPixels>256</minLodPixels>
<maxLodPixels>-1</maxLodPixels>
</Lod>
<LatLonAltBox>
<north>47.63671875</north>
<south>47.5927734375</south>
<east>8.61328125</east>
<west>8.5693359375</west>
</LatLonAltBox>
</Region>
<Link>
<href>1038.kml</href>
<viewRefreshMode>onRegion</viewRefreshMode>
<viewFormat/>
</Link>
</NetworkLink>
<NetworkLink>
<name>03000212</name>
<Region>
<Lod>
<minLodPixels>256</minLodPixels>
<maxLodPixels>-1</maxLodPixels>
</Lod>
<LatLonAltBox>
<north>47.5927734375</north>
<south>47.548828125</south>
<east>8.5693359375</east>
<west>8.525390625</west>
</LatLonAltBox>
</Region>
<Link>
<href>1039.kml</href>
<viewRefreshMode>onRegion</viewRefreshMode>
<viewFormat/>
</Link>
</NetworkLink>
<NetworkLink>
<name>03000213</name>
<Region>
<Lod>
<minLodPixels>256</minLodPixels>
<maxLodPixels>-1</maxLodPixels>
</Lod>
<LatLonAltBox>
<north>47.5927734375</north>
<south>47.548828125</south>
<east>8.61328125</east>
<west>8.5693359375</west>
</LatLonAltBox>
</Region>
<Link>
<href>1040.kml</href>
<viewRefreshMode>onRegion</viewRefreshMode>
<viewFormat/>
</Link>
</NetworkLink>
<Placemark id="pm7477">
<name><![CDATA[Rafz, Bahnhof]]></name>
<description><![CDATA[193 connections
]]></description>
<Point>
<coordinates>8.543520,47.604000</coordinates>
</Point>
</Placemark>
<Placemark id="pm13960">
<name><![CDATA[Rafz]]></name>
<description><![CDATA[181 connections
]]></description>
<Point>
<coordinates>8.543420,47.603800</coordinates>
</Point>
</Placemark>
<Placemark id="pm11906">
<name><![CDATA[Buchberg, Kirche]]></name>
<description><![CDATA[172 connections
]]></description>
<Point>
<coordinates>8.566010,47.574500</coordinates>
</Point>
</Placemark>
<Placemark id="pm10999">
<name><![CDATA[Rüdlingen, Spitzrüti]]></name>
<description><![CDATA[172 connections
]]></description>
<Point>
<coordinates>8.565750,47.590100</coordinates>
</Point>
</Placemark>
<Placemark id="pm1214">
<name><![CDATA[Steinenkreuz]]></name>
<description><![CDATA[172 connections
]]></description>
<Point>
<coordinates>8.563010,47.581400</coordinates>
</Point>
</Placemark>
<Placemark id="pm6580">
<name><![CDATA[Lottstetten, Dietenbergstrasse]]></name>
<description><![CDATA[160 connections
]]></description>
<Point>
<coordinates>8.569840,47.625900</coordinates>
</Point>
</Placemark>
<Placemark id="pm3174">
<name><![CDATA[Flaach, Altersheim]]></name>
<description><![CDATA[149 connections
]]></description>
<Point>
<coordinates>8.601400,47.572400</coordinates>
</Point>
</Placemark>
<Placemark id="pm11146">
<name><![CDATA[Rheinau, Psychiatriezentrum]]></name>
<description><![CDATA[98 connections
]]></description>
<Point>
<coordinates>8.606900,47.635900</coordinates>
</Point>
</Placemark>
<Placemark id="pm10725">
<name><![CDATA[Rafz, Post]]></name>
<description><![CDATA[97 connections
]]></description>
<Point>
<coordinates>8.539880,47.611300</coordinates>
</Point>
</Placemark>
<Placemark id="pm11923">
<name><![CDATA[Gräslikon]]></name>
<description><![CDATA[94 connections
]]></description>
<Point>
<coordinates>8.605360,47.557300</coordinates>
</Point>
</Placemark>
<Placemark id="pm15094">
<name><![CDATA[Berg a. Irchel]]></name>
<description><![CDATA[94 connections
]]></description>
<Point>
<coordinates>8.598110,47.569600</coordinates>
</Point>
</Placemark>
<Placemark id="pm15135">
<name><![CDATA[Rüdlingen, Brückenwaage]]></name>
<description><![CDATA[86 connections
]]></description>
<Point>
<coordinates>8.571320,47.580600</coordinates>
</Point>
</Placemark>
<Placemark id="pm4844">
<name><![CDATA[Rüdlingen, Heimstätte]]></name>
<description><![CDATA[86 connections
]]></description>
<Point>
<coordinates>8.567310,47.587800</coordinates>
</Point>
</Placemark>
<Placemark id="pm1143">
<name><![CDATA[Buchberg, Engel]]></name>
<description><![CDATA[86 connections
]]></description>
<Point>
<coordinates>8.562690,47.572500</coordinates>
</Point>
</Placemark>
<Placemark id="pm13100">
<name><![CDATA[Rüdlingen, Gemeindehaus]]></name>
<description><![CDATA[84 connections
]]></description>
<Point>
<coordinates>8.572250,47.578800</coordinates>
</Point>
</Placemark>
<Placemark id="pm12862">
<name><![CDATA[Lottstetten]]></name>
<description><![CDATA[84 connections
]]></description>
<Point>
<coordinates>8.566800,47.625800</coordinates>
</Point>
</Placemark>
</Document>
</kml>
