<?xml version="1.0" encoding="UTF-8"?>
<!-- KML Regionator 303:340M -->
<kml xmlns="http://earth.google.com/kml/2.1">
<Document>
<name>1120 03002011</name>
<Region>
<Lod>
<minLodPixels>256</minLodPixels>
<maxLodPixels>-1</maxLodPixels>
</Lod>
<LatLonAltBox>
<north>47.4609375</north>
<south>47.4169921875</south>
<east>8.61328125</east>
<west>8.5693359375</west>
</LatLonAltBox>
</Region>
<Placemark id="pm8153">
<name><![CDATA[Kloten, Mühle]]></name>
<description><![CDATA[4 connections
]]></description>
<Point>
<coordinates>8.591920,47.450100</coordinates>
</Point>
</Placemark>
<Placemark id="pm14827">
<name><![CDATA[Kloten, Säntisstrasse]]></name>
<description><![CDATA[4 connections
]]></description>
<Point>
<coordinates>8.591030,47.451600</coordinates>
</Point>
</Placemark>
<Placemark id="pm161">
<name><![CDATA[Kloten, Kirchgasse]]></name>
<description><![CDATA[4 connections
]]></description>
<Point>
<coordinates>8.584350,47.452900</coordinates>
</Point>
</Placemark>
<Placemark id="pm8400">
<name><![CDATA[Kloten, Bahnhof]]></name>
<description><![CDATA[4 connections
]]></description>
<Point>
<coordinates>8.583670,47.448500</coordinates>
</Point>
</Placemark>
<Placemark id="pm9388">
<name><![CDATA[Kloten, Hohrainli]]></name>
<description><![CDATA[4 connections
]]></description>
<Point>
<coordinates>8.581660,47.459600</coordinates>
</Point>
</Placemark>
<Placemark id="pm6404">
<name><![CDATA[Kloten, Bramen]]></name>
<description><![CDATA[4 connections
]]></description>
<Point>
<coordinates>8.578870,47.444400</coordinates>
</Point>
</Placemark>
</Document>
</kml>
