<?xml version="1.0" encoding="UTF-8"?>
<!-- KML Regionator 303:340M -->
<kml xmlns="http://earth.google.com/kml/2.1">
<Document>
<name>1179 03002222</name>
<Region>
<Lod>
<minLodPixels>256</minLodPixels>
<maxLodPixels>-1</maxLodPixels>
</Lod>
<LatLonAltBox>
<north>47.1533203125</north>
<south>47.109375</south>
<east>8.4814453125</east>
<west>8.4375</west>
</LatLonAltBox>
</Region>
<Placemark id="pm4435">
<name><![CDATA[Rotkreuz, Ibikon]]></name>
<description><![CDATA[256 connections
]]></description>
<Point>
<coordinates>8.439090,47.133800</coordinates>
</Point>
</Placemark>
<Placemark id="pm5063">
<name><![CDATA[Risch, Dorf]]></name>
<description><![CDATA[234 connections
]]></description>
<Point>
<coordinates>8.465470,47.134500</coordinates>
</Point>
</Placemark>
<Placemark id="pm11627">
<name><![CDATA[Buonas, Neuhofstrasse]]></name>
<description><![CDATA[234 connections
]]></description>
<Point>
<coordinates>8.455010,47.139100</coordinates>
</Point>
</Placemark>
<Placemark id="pm8848">
<name><![CDATA[Risch]]></name>
<description><![CDATA[14 connections
]]></description>
<Point>
<coordinates>8.467980,47.133800</coordinates>
</Point>
</Placemark>
<Placemark id="pm8605">
<name><![CDATA[Buonas]]></name>
<description><![CDATA[10 connections
]]></description>
<Point>
<coordinates>8.458530,47.142200</coordinates>
</Point>
</Placemark>
</Document>
</kml>
