<?xml version="1.0" encoding="UTF-8"?>
<!-- KML Regionator 303:340M -->
<kml xmlns="http://earth.google.com/kml/2.1">
<Document>
<name>1181 0300223</name>
<Region>
<Lod>
<minLodPixels>256</minLodPixels>
<maxLodPixels>-1</maxLodPixels>
</Lod>
<LatLonAltBox>
<north>47.197265625</north>
<south>47.109375</south>
<east>8.61328125</east>
<west>8.525390625</west>
</LatLonAltBox>
</Region>
<Placemark id="pm4226">
<name><![CDATA[Menzingen, Kreuzegg]]></name>
<description><![CDATA[230 connections
]]></description>
<Point>
<coordinates>8.603380,47.171900</coordinates>
</Point>
</Placemark>
<Placemark id="pm14652">
<name><![CDATA[Baar, Hof Himmelrich]]></name>
<description><![CDATA[224 connections
]]></description>
<Point>
<coordinates>8.536490,47.190500</coordinates>
</Point>
</Placemark>
<Placemark id="pm10883">
<name><![CDATA[Zugerberg]]></name>
<description><![CDATA[209 connections
]]></description>
<Point>
<coordinates>8.532830,47.144100</coordinates>
</Point>
</Placemark>
<Placemark id="pm5001">
<name><![CDATA[Zug, Obersack]]></name>
<description><![CDATA[194 connections
]]></description>
<Point>
<coordinates>8.528370,47.167700</coordinates>
</Point>
</Placemark>
<Placemark id="pm7215">
<name><![CDATA[Inwil bei Baar, Kirche]]></name>
<description><![CDATA[158 connections
]]></description>
<Point>
<coordinates>8.534980,47.181500</coordinates>
</Point>
</Placemark>
<Placemark id="pm14022">
<name><![CDATA[Baar, Arbach]]></name>
<description><![CDATA[142 connections
]]></description>
<Point>
<coordinates>8.529590,47.175800</coordinates>
</Point>
</Placemark>
<Placemark id="pm1247">
<name><![CDATA[Menzingen, Harget]]></name>
<description><![CDATA[20 connections
]]></description>
<Point>
<coordinates>8.611340,47.174000</coordinates>
</Point>
</Placemark>
<Placemark id="pm4572">
<name><![CDATA[Menzingen, Brettigen]]></name>
<description><![CDATA[20 connections
]]></description>
<Point>
<coordinates>8.602210,47.178600</coordinates>
</Point>
</Placemark>
<Placemark id="pm10547">
<name><![CDATA[Menzingen, Stalden]]></name>
<description><![CDATA[20 connections
]]></description>
<Point>
<coordinates>8.595680,47.181600</coordinates>
</Point>
</Placemark>
<Placemark id="pm9514">
<name><![CDATA[Oberägeri AeS]]></name>
<description><![CDATA[13 connections
]]></description>
<Point>
<coordinates>8.608150,47.133600</coordinates>
</Point>
</Placemark>
<Placemark id="pm5165">
<name><![CDATA[Unterägeri AeS]]></name>
<description><![CDATA[12 connections
]]></description>
<Point>
<coordinates>8.589150,47.138100</coordinates>
</Point>
</Placemark>
</Document>
</kml>
