<?xml version="1.0" encoding="UTF-8"?>
<!-- KML Regionator 303:340M -->
<kml xmlns="http://earth.google.com/kml/2.1">
<Document>
<name>1221 0300300</name>
<Region>
<Lod>
<minLodPixels>256</minLodPixels>
<maxLodPixels>-1</maxLodPixels>
</Lod>
<LatLonAltBox>
<north>47.4609375</north>
<south>47.373046875</south>
<east>8.876953125</east>
<west>8.7890625</west>
</LatLonAltBox>
</Region>
<NetworkLink>
<name>03003000</name>
<Region>
<Lod>
<minLodPixels>256</minLodPixels>
<maxLodPixels>-1</maxLodPixels>
</Lod>
<LatLonAltBox>
<north>47.4609375</north>
<south>47.4169921875</south>
<east>8.8330078125</east>
<west>8.7890625</west>
</LatLonAltBox>
</Region>
<Link>
<href>1222.kml</href>
<viewRefreshMode>onRegion</viewRefreshMode>
<viewFormat/>
</Link>
</NetworkLink>
<NetworkLink>
<name>03003001</name>
<Region>
<Lod>
<minLodPixels>256</minLodPixels>
<maxLodPixels>-1</maxLodPixels>
</Lod>
<LatLonAltBox>
<north>47.4609375</north>
<south>47.4169921875</south>
<east>8.876953125</east>
<west>8.8330078125</west>
</LatLonAltBox>
</Region>
<Link>
<href>1223.kml</href>
<viewRefreshMode>onRegion</viewRefreshMode>
<viewFormat/>
</Link>
</NetworkLink>
<NetworkLink>
<name>03003002</name>
<Region>
<Lod>
<minLodPixels>256</minLodPixels>
<maxLodPixels>-1</maxLodPixels>
</Lod>
<LatLonAltBox>
<north>47.4169921875</north>
<south>47.373046875</south>
<east>8.8330078125</east>
<west>8.7890625</west>
</LatLonAltBox>
</Region>
<Link>
<href>1224.kml</href>
<viewRefreshMode>onRegion</viewRefreshMode>
<viewFormat/>
</Link>
</NetworkLink>
<NetworkLink>
<name>03003003</name>
<Region>
<Lod>
<minLodPixels>256</minLodPixels>
<maxLodPixels>-1</maxLodPixels>
</Lod>
<LatLonAltBox>
<north>47.4169921875</north>
<south>47.373046875</south>
<east>8.876953125</east>
<west>8.8330078125</west>
</LatLonAltBox>
</Region>
<Link>
<href>1225.kml</href>
<viewRefreshMode>onRegion</viewRefreshMode>
<viewFormat/>
</Link>
</NetworkLink>
<Placemark id="pm3234">
<name><![CDATA[Ehrikon]]></name>
<description><![CDATA[152 connections
]]></description>
<Point>
<coordinates>8.809130,47.419300</coordinates>
</Point>
</Placemark>
<Placemark id="pm3008">
<name><![CDATA[Russikon, Madetswil]]></name>
<description><![CDATA[146 connections
]]></description>
<Point>
<coordinates>8.793020,47.410900</coordinates>
</Point>
</Placemark>
<Placemark id="pm11142">
<name><![CDATA[Wildberg, Post]]></name>
<description><![CDATA[144 connections
]]></description>
<Point>
<coordinates>8.816230,47.427900</coordinates>
</Point>
</Placemark>
<Placemark id="pm11766">
<name><![CDATA[Russikon, Abzw. Bläsimühle]]></name>
<description><![CDATA[144 connections
]]></description>
<Point>
<coordinates>8.803590,47.415200</coordinates>
</Point>
</Placemark>
<Placemark id="pm4870">
<name><![CDATA[Turbenthal, Hutzikon]]></name>
<description><![CDATA[134 connections
]]></description>
<Point>
<coordinates>8.843530,47.440300</coordinates>
</Point>
</Placemark>
<Placemark id="pm8866">
<name><![CDATA[Turbenthal, Fridtal]]></name>
<description><![CDATA[128 connections
]]></description>
<Point>
<coordinates>8.837830,47.441200</coordinates>
</Point>
</Placemark>
<Placemark id="pm11107">
<name><![CDATA[Wildberg, Tössegg]]></name>
<description><![CDATA[128 connections
]]></description>
<Point>
<coordinates>8.828120,47.435500</coordinates>
</Point>
</Placemark>
<Placemark id="pm1616">
<name><![CDATA[Turbenthal, Bahnhof]]></name>
<description><![CDATA[95 connections
]]></description>
<Point>
<coordinates>8.843990,47.437500</coordinates>
</Point>
</Placemark>
<Placemark id="pm10751">
<name><![CDATA[Saland, Dillhus]]></name>
<description><![CDATA[78 connections
]]></description>
<Point>
<coordinates>8.860190,47.380000</coordinates>
</Point>
</Placemark>
<Placemark id="pm8953">
<name><![CDATA[Juckern]]></name>
<description><![CDATA[78 connections
]]></description>
<Point>
<coordinates>8.857000,47.386100</coordinates>
</Point>
</Placemark>
<Placemark id="pm5657">
<name><![CDATA[Saland, Post]]></name>
<description><![CDATA[78 connections
]]></description>
<Point>
<coordinates>8.853900,47.390800</coordinates>
</Point>
</Placemark>
<Placemark id="pm14992">
<name><![CDATA[Saland, Laubberg]]></name>
<description><![CDATA[78 connections
]]></description>
<Point>
<coordinates>8.843490,47.384500</coordinates>
</Point>
</Placemark>
<Placemark id="pm13966">
<name><![CDATA[Hittnau, Hasel/Schönau]]></name>
<description><![CDATA[78 connections
]]></description>
<Point>
<coordinates>8.832120,47.379700</coordinates>
</Point>
</Placemark>
<Placemark id="pm15099">
<name><![CDATA[Turbenthal, Kreuzstrasse]]></name>
<description><![CDATA[64 connections
]]></description>
<Point>
<coordinates>8.848550,47.435500</coordinates>
</Point>
</Placemark>
<Placemark id="pm4534">
<name><![CDATA[Pfäffikon ZH, Wallikon]]></name>
<description><![CDATA[64 connections
]]></description>
<Point>
<coordinates>8.802830,47.379300</coordinates>
</Point>
</Placemark>
<Placemark id="pm12112">
<name><![CDATA[Pfäffikon ZH, Humbel]]></name>
<description><![CDATA[64 connections
]]></description>
<Point>
<coordinates>8.800830,47.381800</coordinates>
</Point>
</Placemark>
</Document>
</kml>
