<?xml version="1.0" encoding="UTF-8"?>
<!-- KML Regionator 303:340M -->
<kml xmlns="http://earth.google.com/kml/2.1">
<Document>
<name>124 0203221</name>
<Region>
<Lod>
<minLodPixels>256</minLodPixels>
<maxLodPixels>-1</maxLodPixels>
</Lod>
<LatLonAltBox>
<north>46.58203125</north>
<south>46.494140625</south>
<east>6.50390625</east>
<west>6.416015625</west>
</LatLonAltBox>
</Region>
<NetworkLink>
<name>02032210</name>
<Region>
<Lod>
<minLodPixels>256</minLodPixels>
<maxLodPixels>-1</maxLodPixels>
</Lod>
<LatLonAltBox>
<north>46.58203125</north>
<south>46.5380859375</south>
<east>6.4599609375</east>
<west>6.416015625</west>
</LatLonAltBox>
</Region>
<Link>
<href>125.kml</href>
<viewRefreshMode>onRegion</viewRefreshMode>
<viewFormat/>
</Link>
</NetworkLink>
<NetworkLink>
<name>02032212</name>
<Region>
<Lod>
<minLodPixels>256</minLodPixels>
<maxLodPixels>-1</maxLodPixels>
</Lod>
<LatLonAltBox>
<north>46.5380859375</north>
<south>46.494140625</south>
<east>6.4599609375</east>
<west>6.416015625</west>
</LatLonAltBox>
</Region>
<Link>
<href>126.kml</href>
<viewRefreshMode>onRegion</viewRefreshMode>
<viewFormat/>
</Link>
</NetworkLink>
<NetworkLink>
<name>02032213</name>
<Region>
<Lod>
<minLodPixels>256</minLodPixels>
<maxLodPixels>-1</maxLodPixels>
</Lod>
<LatLonAltBox>
<north>46.5380859375</north>
<south>46.494140625</south>
<east>6.50390625</east>
<west>6.4599609375</west>
</LatLonAltBox>
</Region>
<Link>
<href>127.kml</href>
<viewRefreshMode>onRegion</viewRefreshMode>
<viewFormat/>
</Link>
</NetworkLink>
<Placemark id="pm9726">
<name><![CDATA[La Gottaz]]></name>
<description><![CDATA[84 connections
]]></description>
<Point>
<coordinates>6.484420,46.506400</coordinates>
</Point>
</Placemark>
<Placemark id="pm10231">
<name><![CDATA[Prélionne]]></name>
<description><![CDATA[84 connections
]]></description>
<Point>
<coordinates>6.480330,46.509300</coordinates>
</Point>
</Placemark>
<Placemark id="pm435">
<name><![CDATA[Vufflens-le-Château]]></name>
<description><![CDATA[84 connections
]]></description>
<Point>
<coordinates>6.473070,46.524800</coordinates>
</Point>
</Placemark>
<Placemark id="pm14297">
<name><![CDATA[Chigny]]></name>
<description><![CDATA[84 connections
]]></description>
<Point>
<coordinates>6.472440,46.515700</coordinates>
</Point>
</Placemark>
<Placemark id="pm3546">
<name><![CDATA[Le Marais]]></name>
<description><![CDATA[84 connections
]]></description>
<Point>
<coordinates>6.461110,46.527700</coordinates>
</Point>
</Placemark>
<Placemark id="pm11491">
<name><![CDATA[Morges, Pâquis]]></name>
<description><![CDATA[64 connections
]]></description>
<Point>
<coordinates>6.499490,46.512900</coordinates>
</Point>
</Placemark>
<Placemark id="pm1600">
<name><![CDATA[Echichens, Haute-Pierre]]></name>
<description><![CDATA[60 connections
]]></description>
<Point>
<coordinates>6.492970,46.531800</coordinates>
</Point>
</Placemark>
<Placemark id="pm9011">
<name><![CDATA[Echichens, croisée]]></name>
<description><![CDATA[60 connections
]]></description>
<Point>
<coordinates>6.492120,46.524800</coordinates>
</Point>
</Placemark>
<Placemark id="pm1685">
<name><![CDATA[Morges, La Tour]]></name>
<description><![CDATA[60 connections
]]></description>
<Point>
<coordinates>6.491330,46.513800</coordinates>
</Point>
</Placemark>
<Placemark id="pm11078">
<name><![CDATA[Marcelin (Morges)]]></name>
<description><![CDATA[60 connections
]]></description>
<Point>
<coordinates>6.488330,46.517800</coordinates>
</Point>
</Placemark>
<Placemark id="pm1216">
<name><![CDATA[St-Saphorin-s-Morges, village]]></name>
<description><![CDATA[60 connections
]]></description>
<Point>
<coordinates>6.488160,46.545700</coordinates>
</Point>
</Placemark>
<Placemark id="pm6220">
<name><![CDATA[St-Saphorin-s-Morges, Pavé]]></name>
<description><![CDATA[60 connections
]]></description>
<Point>
<coordinates>6.487250,46.542100</coordinates>
</Point>
</Placemark>
<Placemark id="pm10004">
<name><![CDATA[St-Saphorin-s-Morges, Cornu]]></name>
<description><![CDATA[60 connections
]]></description>
<Point>
<coordinates>6.483900,46.547000</coordinates>
</Point>
</Placemark>
<Placemark id="pm6140">
<name><![CDATA[Colombier VD, En Plan]]></name>
<description><![CDATA[60 connections
]]></description>
<Point>
<coordinates>6.479620,46.549900</coordinates>
</Point>
</Placemark>
<Placemark id="pm11269">
<name><![CDATA[Colombier VD, poste]]></name>
<description><![CDATA[59 connections
]]></description>
<Point>
<coordinates>6.473960,46.556100</coordinates>
</Point>
</Placemark>
<Placemark id="pm4275">
<name><![CDATA[Vullierens, poste]]></name>
<description><![CDATA[55 connections
]]></description>
<Point>
<coordinates>6.481820,46.572600</coordinates>
</Point>
</Placemark>
</Document>
</kml>
