<?xml version="1.0" encoding="UTF-8"?>
<!-- KML Regionator 303:340M -->
<kml xmlns="http://earth.google.com/kml/2.1">
<Document>
<name>1257 030032</name>
<Region>
<Lod>
<minLodPixels>256</minLodPixels>
<maxLodPixels>-1</maxLodPixels>
</Lod>
<LatLonAltBox>
<north>47.28515625</north>
<south>47.109375</south>
<east>8.96484375</east>
<west>8.7890625</west>
</LatLonAltBox>
</Region>
<NetworkLink>
<name>0300320</name>
<Region>
<Lod>
<minLodPixels>256</minLodPixels>
<maxLodPixels>-1</maxLodPixels>
</Lod>
<LatLonAltBox>
<north>47.28515625</north>
<south>47.197265625</south>
<east>8.876953125</east>
<west>8.7890625</west>
</LatLonAltBox>
</Region>
<Link>
<href>1258.kml</href>
<viewRefreshMode>onRegion</viewRefreshMode>
<viewFormat/>
</Link>
</NetworkLink>
<NetworkLink>
<name>0300321</name>
<Region>
<Lod>
<minLodPixels>256</minLodPixels>
<maxLodPixels>-1</maxLodPixels>
</Lod>
<LatLonAltBox>
<north>47.28515625</north>
<south>47.197265625</south>
<east>8.96484375</east>
<west>8.876953125</west>
</LatLonAltBox>
</Region>
<Link>
<href>1265.kml</href>
<viewRefreshMode>onRegion</viewRefreshMode>
<viewFormat/>
</Link>
</NetworkLink>
<NetworkLink>
<name>0300322</name>
<Region>
<Lod>
<minLodPixels>256</minLodPixels>
<maxLodPixels>-1</maxLodPixels>
</Lod>
<LatLonAltBox>
<north>47.197265625</north>
<south>47.109375</south>
<east>8.876953125</east>
<west>8.7890625</west>
</LatLonAltBox>
</Region>
<Link>
<href>1270.kml</href>
<viewRefreshMode>onRegion</viewRefreshMode>
<viewFormat/>
</Link>
</NetworkLink>
<NetworkLink>
<name>0300323</name>
<Region>
<Lod>
<minLodPixels>256</minLodPixels>
<maxLodPixels>-1</maxLodPixels>
</Lod>
<LatLonAltBox>
<north>47.197265625</north>
<south>47.109375</south>
<east>8.96484375</east>
<west>8.876953125</west>
</LatLonAltBox>
</Region>
<Link>
<href>1274.kml</href>
<viewRefreshMode>onRegion</viewRefreshMode>
<viewFormat/>
</Link>
</NetworkLink>
<Placemark id="pm14880">
<name><![CDATA[Pfäffikon SZ, Schweizerhof]]></name>
<description><![CDATA[292 connections
]]></description>
<Point>
<coordinates>8.791470,47.202000</coordinates>
</Point>
</Placemark>
<Placemark id="pm14335">
<name><![CDATA[Bubikon, Dorf]]></name>
<description><![CDATA[288 connections
]]></description>
<Point>
<coordinates>8.818960,47.268400</coordinates>
</Point>
</Placemark>
<Placemark id="pm1414">
<name><![CDATA[Bubikon, Wihalde]]></name>
<description><![CDATA[288 connections
]]></description>
<Point>
<coordinates>8.814800,47.264000</coordinates>
</Point>
</Placemark>
<Placemark id="pm7797">
<name><![CDATA[Wolfhausen, Neugut]]></name>
<description><![CDATA[288 connections
]]></description>
<Point>
<coordinates>8.807750,47.258500</coordinates>
</Point>
</Placemark>
<Placemark id="pm8122">
<name><![CDATA[Wolfhausen, Post]]></name>
<description><![CDATA[288 connections
]]></description>
<Point>
<coordinates>8.801310,47.257200</coordinates>
</Point>
</Placemark>
<Placemark id="pm14265">
<name><![CDATA[Wolfhausen, Hüebli]]></name>
<description><![CDATA[288 connections
]]></description>
<Point>
<coordinates>8.796020,47.254600</coordinates>
</Point>
</Placemark>
<Placemark id="pm8291">
<name><![CDATA[Jona, Kreuz]]></name>
<description><![CDATA[283 connections
]]></description>
<Point>
<coordinates>8.835750,47.229600</coordinates>
</Point>
</Placemark>
<Placemark id="pm1365">
<name><![CDATA[Bubikon, Bahnhof]]></name>
<description><![CDATA[273 connections
]]></description>
<Point>
<coordinates>8.823460,47.270500</coordinates>
</Point>
</Placemark>
<Placemark id="pm2846">
<name><![CDATA[Wagen, alte Post]]></name>
<description><![CDATA[256 connections
]]></description>
<Point>
<coordinates>8.889610,47.231100</coordinates>
</Point>
</Placemark>
<Placemark id="pm11464">
<name><![CDATA[Rapperswil SG, Bahnhof]]></name>
<description><![CDATA[232 connections
]]></description>
<Point>
<coordinates>8.816720,47.225100</coordinates>
</Point>
</Placemark>
<Placemark id="pm9694">
<name><![CDATA[Tann-Dürnten]]></name>
<description><![CDATA[230 connections
]]></description>
<Point>
<coordinates>8.852700,47.268400</coordinates>
</Point>
</Placemark>
<Placemark id="pm9929">
<name><![CDATA[Eschenbach SG, Post]]></name>
<description><![CDATA[222 connections
]]></description>
<Point>
<coordinates>8.921240,47.240600</coordinates>
</Point>
</Placemark>
<Placemark id="pm14864">
<name><![CDATA[Rüti ZH, Würzhalde]]></name>
<description><![CDATA[218 connections
]]></description>
<Point>
<coordinates>8.866760,47.264700</coordinates>
</Point>
</Placemark>
<Placemark id="pm11962">
<name><![CDATA[Rüti ZH, Laufenbach]]></name>
<description><![CDATA[218 connections
]]></description>
<Point>
<coordinates>8.864550,47.261800</coordinates>
</Point>
</Placemark>
<Placemark id="pm6592">
<name><![CDATA[Rüti ZH, Gubel]]></name>
<description><![CDATA[218 connections
]]></description>
<Point>
<coordinates>8.861470,47.260100</coordinates>
</Point>
</Placemark>
<Placemark id="pm13918">
<name><![CDATA[Bubikon]]></name>
<description><![CDATA[212 connections
]]></description>
<Point>
<coordinates>8.822700,47.270800</coordinates>
</Point>
</Placemark>
</Document>
</kml>
