<?xml version="1.0" encoding="UTF-8"?>
<!-- KML Regionator 303:340M -->
<kml xmlns="http://earth.google.com/kml/2.1">
<Document>
<name>1267 03003211</name>
<Region>
<Lod>
<minLodPixels>256</minLodPixels>
<maxLodPixels>-1</maxLodPixels>
</Lod>
<LatLonAltBox>
<north>47.28515625</north>
<south>47.2412109375</south>
<east>8.96484375</east>
<west>8.9208984375</west>
</LatLonAltBox>
</Region>
<Placemark id="pm4251">
<name><![CDATA[Goldingen, Löffel]]></name>
<description><![CDATA[84 connections
]]></description>
<Point>
<coordinates>8.945080,47.266200</coordinates>
</Point>
</Placemark>
<Placemark id="pm7987">
<name><![CDATA[Goldingen, Ennetbach]]></name>
<description><![CDATA[66 connections
]]></description>
<Point>
<coordinates>8.958560,47.252300</coordinates>
</Point>
</Placemark>
<Placemark id="pm12989">
<name><![CDATA[Neuhaus SG, Schwärzi]]></name>
<description><![CDATA[66 connections
]]></description>
<Point>
<coordinates>8.951240,47.250400</coordinates>
</Point>
</Placemark>
<Placemark id="pm1396">
<name><![CDATA[Bürg]]></name>
<description><![CDATA[66 connections
]]></description>
<Point>
<coordinates>8.945240,47.248600</coordinates>
</Point>
</Placemark>
<Placemark id="pm14920">
<name><![CDATA[Eschenbach SG, Oberfeld]]></name>
<description><![CDATA[66 connections
]]></description>
<Point>
<coordinates>8.929910,47.243700</coordinates>
</Point>
</Placemark>
<Placemark id="pm2415">
<name><![CDATA[Eschenbach SG, Bildstöckli]]></name>
<description><![CDATA[66 connections
]]></description>
<Point>
<coordinates>8.924480,47.243200</coordinates>
</Point>
</Placemark>
<Placemark id="pm11608">
<name><![CDATA[Wald ZH, Hittenberg]]></name>
<description><![CDATA[56 connections
]]></description>
<Point>
<coordinates>8.935210,47.277600</coordinates>
</Point>
</Placemark>
<Placemark id="pm6121">
<name><![CDATA[Wald ZH, Abzw. Oberholz]]></name>
<description><![CDATA[56 connections
]]></description>
<Point>
<coordinates>8.932210,47.278700</coordinates>
</Point>
</Placemark>
<Placemark id="pm14264">
<name><![CDATA[Wald ZH, Sonnenberg]]></name>
<description><![CDATA[56 connections
]]></description>
<Point>
<coordinates>8.922270,47.277700</coordinates>
</Point>
</Placemark>
<Placemark id="pm14188">
<name><![CDATA[Faltigberg ZH, Höhenklinik]]></name>
<description><![CDATA[28 connections
]]></description>
<Point>
<coordinates>8.942760,47.276400</coordinates>
</Point>
</Placemark>
<Placemark id="pm10929">
<name><![CDATA[Laupen ZH, Diezikon]]></name>
<description><![CDATA[12 connections
]]></description>
<Point>
<coordinates>8.937670,47.269400</coordinates>
</Point>
</Placemark>
</Document>
</kml>
