<?xml version="1.0" encoding="UTF-8"?>
<!-- KML Regionator 303:340M -->
<kml xmlns="http://earth.google.com/kml/2.1">
<Document>
<name>129 02032220</name>
<Region>
<Lod>
<minLodPixels>256</minLodPixels>
<maxLodPixels>-1</maxLodPixels>
</Lod>
<LatLonAltBox>
<north>46.494140625</north>
<south>46.4501953125</south>
<east>6.3720703125</east>
<west>6.328125</west>
</LatLonAltBox>
</Region>
<Placemark id="pm2650">
<name><![CDATA[Montherod, village]]></name>
<description><![CDATA[52 connections
]]></description>
<Point>
<coordinates>6.365400,46.489900</coordinates>
</Point>
</Placemark>
<Placemark id="pm4241">
<name><![CDATA[Mont-sur-Rolle, Les Granges]]></name>
<description><![CDATA[48 connections
]]></description>
<Point>
<coordinates>6.338160,46.484500</coordinates>
</Point>
</Placemark>
<Placemark id="pm5263">
<name><![CDATA[Rolle, Germagny]]></name>
<description><![CDATA[46 connections
]]></description>
<Point>
<coordinates>6.331450,46.462200</coordinates>
</Point>
</Placemark>
<Placemark id="pm4302">
<name><![CDATA[Mont-sur-Rolle, Sans Souci]]></name>
<description><![CDATA[38 connections
]]></description>
<Point>
<coordinates>6.335950,46.481100</coordinates>
</Point>
</Placemark>
<Placemark id="pm3998">
<name><![CDATA[Mont-sur-Rolle, église]]></name>
<description><![CDATA[38 connections
]]></description>
<Point>
<coordinates>6.335830,46.470800</coordinates>
</Point>
</Placemark>
<Placemark id="pm14564">
<name><![CDATA[Mont-sur-Rolle, La Ferme]]></name>
<description><![CDATA[38 connections
]]></description>
<Point>
<coordinates>6.335100,46.475000</coordinates>
</Point>
</Placemark>
<Placemark id="pm1055">
<name><![CDATA[Mont-sur-Rolle,Maison de Ville]]></name>
<description><![CDATA[38 connections
]]></description>
<Point>
<coordinates>6.333860,46.471900</coordinates>
</Point>
</Placemark>
<Placemark id="pm76">
<name><![CDATA[Mont-sur-Rolle, Mont-dessus]]></name>
<description><![CDATA[38 connections
]]></description>
<Point>
<coordinates>6.330200,46.475400</coordinates>
</Point>
</Placemark>
<Placemark id="pm1659">
<name><![CDATA[Féchy, Cassivettes]]></name>
<description><![CDATA[32 connections
]]></description>
<Point>
<coordinates>6.368090,46.485900</coordinates>
</Point>
</Placemark>
<Placemark id="pm5617">
<name><![CDATA[Bougy-Villars, Dessus]]></name>
<description><![CDATA[32 connections
]]></description>
<Point>
<coordinates>6.359730,46.480200</coordinates>
</Point>
</Placemark>
<Placemark id="pm9759">
<name><![CDATA[Rolle CGN]]></name>
<description><![CDATA[24 connections
]]></description>
<Point>
<coordinates>6.337270,46.455000</coordinates>
</Point>
</Placemark>
<Placemark id="pm8856">
<name><![CDATA[Féchy, village]]></name>
<description><![CDATA[16 connections
]]></description>
<Point>
<coordinates>6.370440,46.481900</coordinates>
</Point>
</Placemark>
<Placemark id="pm12311">
<name><![CDATA[Bougy-Villars, poste]]></name>
<description><![CDATA[16 connections
]]></description>
<Point>
<coordinates>6.354880,46.478800</coordinates>
</Point>
</Placemark>
</Document>
</kml>
