<?xml version="1.0" encoding="UTF-8"?>
<!-- KML Regionator 303:340M -->
<kml xmlns="http://earth.google.com/kml/2.1">
<Document>
<name>1292 030100</name>
<Region>
<Lod>
<minLodPixels>256</minLodPixels>
<maxLodPixels>-1</maxLodPixels>
</Lod>
<LatLonAltBox>
<north>47.8125</north>
<south>47.63671875</south>
<east>9.31640625</east>
<west>9.140625</west>
</LatLonAltBox>
</Region>
<NetworkLink>
<name>0301000</name>
<Region>
<Lod>
<minLodPixels>256</minLodPixels>
<maxLodPixels>-1</maxLodPixels>
</Lod>
<LatLonAltBox>
<north>47.8125</north>
<south>47.724609375</south>
<east>9.228515625</east>
<west>9.140625</west>
</LatLonAltBox>
</Region>
<Link>
<href>1293.kml</href>
<viewRefreshMode>onRegion</viewRefreshMode>
<viewFormat/>
</Link>
</NetworkLink>
<NetworkLink>
<name>0301002</name>
<Region>
<Lod>
<minLodPixels>256</minLodPixels>
<maxLodPixels>-1</maxLodPixels>
</Lod>
<LatLonAltBox>
<north>47.724609375</north>
<south>47.63671875</south>
<east>9.228515625</east>
<west>9.140625</west>
</LatLonAltBox>
</Region>
<Link>
<href>1294.kml</href>
<viewRefreshMode>onRegion</viewRefreshMode>
<viewFormat/>
</Link>
</NetworkLink>
<NetworkLink>
<name>0301003</name>
<Region>
<Lod>
<minLodPixels>256</minLodPixels>
<maxLodPixels>-1</maxLodPixels>
</Lod>
<LatLonAltBox>
<north>47.724609375</north>
<south>47.63671875</south>
<east>9.31640625</east>
<west>9.228515625</west>
</LatLonAltBox>
</Region>
<Link>
<href>1297.kml</href>
<viewRefreshMode>onRegion</viewRefreshMode>
<viewFormat/>
</Link>
</NetworkLink>
<Placemark id="pm14029">
<name><![CDATA[Kreuzlingen, Kolosseumplatz]]></name>
<description><![CDATA[274 connections
]]></description>
<Point>
<coordinates>9.169320,47.640200</coordinates>
</Point>
</Placemark>
<Placemark id="pm11600">
<name><![CDATA[Kreuzlingen, Fliegaufstrasse]]></name>
<description><![CDATA[274 connections
]]></description>
<Point>
<coordinates>9.164780,47.647900</coordinates>
</Point>
</Placemark>
<Placemark id="pm3282">
<name><![CDATA[Kreuzlingen, Sonnenweg]]></name>
<description><![CDATA[220 connections
]]></description>
<Point>
<coordinates>9.175200,47.648900</coordinates>
</Point>
</Placemark>
<Placemark id="pm8213">
<name><![CDATA[Kreuzlingen, Rebstockplatz]]></name>
<description><![CDATA[212 connections
]]></description>
<Point>
<coordinates>9.162920,47.648000</coordinates>
</Point>
</Placemark>
<Placemark id="pm4093">
<name><![CDATA[Kreuzlingen, Hauptzoll]]></name>
<description><![CDATA[190 connections
]]></description>
<Point>
<coordinates>9.177920,47.654900</coordinates>
</Point>
</Placemark>
<Placemark id="pm2941">
<name><![CDATA[Kreuzlingen, Helvetiaplatz]]></name>
<description><![CDATA[190 connections
]]></description>
<Point>
<coordinates>9.174270,47.653300</coordinates>
</Point>
</Placemark>
<Placemark id="pm2970">
<name><![CDATA[Konstanz]]></name>
<description><![CDATA[181 connections
]]></description>
<Point>
<coordinates>9.177000,47.658100</coordinates>
</Point>
</Placemark>
<Placemark id="pm14700">
<name><![CDATA[Bottighofen]]></name>
<description><![CDATA[162 connections
]]></description>
<Point>
<coordinates>9.213070,47.640700</coordinates>
</Point>
</Placemark>
<Placemark id="pm5831">
<name><![CDATA[Kurzrickenbach Seepark]]></name>
<description><![CDATA[162 connections
]]></description>
<Point>
<coordinates>9.196340,47.643100</coordinates>
</Point>
</Placemark>
<Placemark id="pm4385">
<name><![CDATA[Kreuzlingen Hafen]]></name>
<description><![CDATA[162 connections
]]></description>
<Point>
<coordinates>9.181950,47.649200</coordinates>
</Point>
</Placemark>
<Placemark id="pm8608">
<name><![CDATA[Kreuzlingen, MOWAG]]></name>
<description><![CDATA[150 connections
]]></description>
<Point>
<coordinates>9.157350,47.640400</coordinates>
</Point>
</Placemark>
<Placemark id="pm7279">
<name><![CDATA[Tägerwilen, Glaserstrasse]]></name>
<description><![CDATA[150 connections
]]></description>
<Point>
<coordinates>9.141150,47.654100</coordinates>
</Point>
</Placemark>
<Placemark id="pm6187">
<name><![CDATA[Konstanz-Petershausen]]></name>
<description><![CDATA[148 connections
]]></description>
<Point>
<coordinates>9.171110,47.674800</coordinates>
</Point>
</Placemark>
<Placemark id="pm13417">
<name><![CDATA[Wollmatingen]]></name>
<description><![CDATA[148 connections
]]></description>
<Point>
<coordinates>9.146080,47.683300</coordinates>
</Point>
</Placemark>
<Placemark id="pm12515">
<name><![CDATA[Konstanz-Fürstenberg]]></name>
<description><![CDATA[146 connections
]]></description>
<Point>
<coordinates>9.162410,47.677600</coordinates>
</Point>
</Placemark>
<Placemark id="pm14086">
<name><![CDATA[Meersburg (Bodensee)]]></name>
<description><![CDATA[128 connections
]]></description>
<Point>
<coordinates>9.264600,47.694800</coordinates>
</Point>
</Placemark>
</Document>
</kml>
