<?xml version="1.0" encoding="UTF-8"?>
<!-- KML Regionator 303:340M -->
<kml xmlns="http://earth.google.com/kml/2.1">
<Document>
<name>1305 0301021</name>
<Region>
<Lod>
<minLodPixels>256</minLodPixels>
<maxLodPixels>-1</maxLodPixels>
</Lod>
<LatLonAltBox>
<north>47.63671875</north>
<south>47.548828125</south>
<east>9.31640625</east>
<west>9.228515625</west>
</LatLonAltBox>
</Region>
<NetworkLink>
<name>03010210</name>
<Region>
<Lod>
<minLodPixels>256</minLodPixels>
<maxLodPixels>-1</maxLodPixels>
</Lod>
<LatLonAltBox>
<north>47.63671875</north>
<south>47.5927734375</south>
<east>9.2724609375</east>
<west>9.228515625</west>
</LatLonAltBox>
</Region>
<Link>
<href>1306.kml</href>
<viewRefreshMode>onRegion</viewRefreshMode>
<viewFormat/>
</Link>
</NetworkLink>
<NetworkLink>
<name>03010212</name>
<Region>
<Lod>
<minLodPixels>256</minLodPixels>
<maxLodPixels>-1</maxLodPixels>
</Lod>
<LatLonAltBox>
<north>47.5927734375</north>
<south>47.548828125</south>
<east>9.2724609375</east>
<west>9.228515625</west>
</LatLonAltBox>
</Region>
<Link>
<href>1307.kml</href>
<viewRefreshMode>onRegion</viewRefreshMode>
<viewFormat/>
</Link>
</NetworkLink>
<NetworkLink>
<name>03010213</name>
<Region>
<Lod>
<minLodPixels>256</minLodPixels>
<maxLodPixels>-1</maxLodPixels>
</Lod>
<LatLonAltBox>
<north>47.5927734375</north>
<south>47.548828125</south>
<east>9.31640625</east>
<west>9.2724609375</west>
</LatLonAltBox>
</Region>
<Link>
<href>1308.kml</href>
<viewRefreshMode>onRegion</viewRefreshMode>
<viewFormat/>
</Link>
</NetworkLink>
<Placemark id="pm2796">
<name><![CDATA[Altnau, Rössli]]></name>
<description><![CDATA[138 connections
]]></description>
<Point>
<coordinates>9.260760,47.609100</coordinates>
</Point>
</Placemark>
<Placemark id="pm13625">
<name><![CDATA[Landschlacht, Post]]></name>
<description><![CDATA[96 connections
]]></description>
<Point>
<coordinates>9.245420,47.627400</coordinates>
</Point>
</Placemark>
<Placemark id="pm1731">
<name><![CDATA[Landschlacht, Vorderdorf]]></name>
<description><![CDATA[95 connections
]]></description>
<Point>
<coordinates>9.250060,47.626800</coordinates>
</Point>
</Placemark>
<Placemark id="pm4993">
<name><![CDATA[Oberaach]]></name>
<description><![CDATA[88 connections
]]></description>
<Point>
<coordinates>9.267130,47.553800</coordinates>
</Point>
</Placemark>
<Placemark id="pm2417">
<name><![CDATA[Altnau, Kirche]]></name>
<description><![CDATA[74 connections
]]></description>
<Point>
<coordinates>9.257390,47.607800</coordinates>
</Point>
</Placemark>
<Placemark id="pm189">
<name><![CDATA[Altnau, Post]]></name>
<description><![CDATA[70 connections
]]></description>
<Point>
<coordinates>9.258210,47.612300</coordinates>
</Point>
</Placemark>
<Placemark id="pm3416">
<name><![CDATA[Altnau, Unterhof]]></name>
<description><![CDATA[62 connections
]]></description>
<Point>
<coordinates>9.260290,47.615000</coordinates>
</Point>
</Placemark>
<Placemark id="pm14943">
<name><![CDATA[Herrenhof, Dorf]]></name>
<description><![CDATA[52 connections
]]></description>
<Point>
<coordinates>9.245040,47.596800</coordinates>
</Point>
</Placemark>
<Placemark id="pm10179">
<name><![CDATA[Schönenbaumgarten]]></name>
<description><![CDATA[52 connections
]]></description>
<Point>
<coordinates>9.231010,47.614500</coordinates>
</Point>
</Placemark>
<Placemark id="pm9425">
<name><![CDATA[Langrickenbach]]></name>
<description><![CDATA[47 connections
]]></description>
<Point>
<coordinates>9.246940,47.594100</coordinates>
</Point>
</Placemark>
<Placemark id="pm11486">
<name><![CDATA[Zuben, Post]]></name>
<description><![CDATA[47 connections
]]></description>
<Point>
<coordinates>9.236480,47.609100</coordinates>
</Point>
</Placemark>
<Placemark id="pm3867">
<name><![CDATA[Güttingen, Dorf]]></name>
<description><![CDATA[33 connections
]]></description>
<Point>
<coordinates>9.286770,47.603500</coordinates>
</Point>
</Placemark>
<Placemark id="pm14734">
<name><![CDATA[Altnau, Längiacker]]></name>
<description><![CDATA[32 connections
]]></description>
<Point>
<coordinates>9.265070,47.618500</coordinates>
</Point>
</Placemark>
<Placemark id="pm185">
<name><![CDATA[Altnau, Unterdorf]]></name>
<description><![CDATA[30 connections
]]></description>
<Point>
<coordinates>9.264060,47.616100</coordinates>
</Point>
</Placemark>
<Placemark id="pm7346">
<name><![CDATA[Altnau, Seezelgstrasse]]></name>
<description><![CDATA[30 connections
]]></description>
<Point>
<coordinates>9.263950,47.616700</coordinates>
</Point>
</Placemark>
<Placemark id="pm2021">
<name><![CDATA[Geienberg, Abzw. Eggethof]]></name>
<description><![CDATA[30 connections
]]></description>
<Point>
<coordinates>9.245820,47.580600</coordinates>
</Point>
</Placemark>
</Document>
</kml>
