<?xml version="1.0" encoding="UTF-8"?>
<!-- KML Regionator 303:340M -->
<kml xmlns="http://earth.google.com/kml/2.1">
<Document>
<name>1344 03012010</name>
<Region>
<Lod>
<minLodPixels>256</minLodPixels>
<maxLodPixels>-1</maxLodPixels>
</Lod>
<LatLonAltBox>
<north>47.4609375</north>
<south>47.4169921875</south>
<east>9.2724609375</east>
<west>9.228515625</west>
</LatLonAltBox>
</Region>
<Placemark id="pm1919">
<name><![CDATA[Arnegg, Bahnhof]]></name>
<description><![CDATA[80 connections
]]></description>
<Point>
<coordinates>9.252400,47.442400</coordinates>
</Point>
</Placemark>
<Placemark id="pm7654">
<name><![CDATA[Gossau SG, Langfeld]]></name>
<description><![CDATA[68 connections
]]></description>
<Point>
<coordinates>9.242030,47.422100</coordinates>
</Point>
</Placemark>
<Placemark id="pm12591">
<name><![CDATA[Hofegg]]></name>
<description><![CDATA[64 connections
]]></description>
<Point>
<coordinates>9.259870,47.418400</coordinates>
</Point>
</Placemark>
<Placemark id="pm4007">
<name><![CDATA[Arnegg]]></name>
<description><![CDATA[64 connections
]]></description>
<Point>
<coordinates>9.252000,47.442000</coordinates>
</Point>
</Placemark>
<Placemark id="pm4716">
<name><![CDATA[Arnegg, Restaurant Ilge]]></name>
<description><![CDATA[15 connections
]]></description>
<Point>
<coordinates>9.259030,47.442300</coordinates>
</Point>
</Placemark>
</Document>
</kml>
