<?xml version="1.0" encoding="UTF-8"?>
<!-- KML Regionator 303:340M -->
<kml xmlns="http://earth.google.com/kml/2.1">
<Document>
<name>1348 0301202</name>
<Region>
<Lod>
<minLodPixels>256</minLodPixels>
<maxLodPixels>-1</maxLodPixels>
</Lod>
<LatLonAltBox>
<north>47.373046875</north>
<south>47.28515625</south>
<east>9.228515625</east>
<west>9.140625</west>
</LatLonAltBox>
</Region>
<NetworkLink>
<name>03012020</name>
<Region>
<Lod>
<minLodPixels>256</minLodPixels>
<maxLodPixels>-1</maxLodPixels>
</Lod>
<LatLonAltBox>
<north>47.373046875</north>
<south>47.3291015625</south>
<east>9.1845703125</east>
<west>9.140625</west>
</LatLonAltBox>
</Region>
<Link>
<href>1349.kml</href>
<viewRefreshMode>onRegion</viewRefreshMode>
<viewFormat/>
</Link>
</NetworkLink>
<NetworkLink>
<name>03012021</name>
<Region>
<Lod>
<minLodPixels>256</minLodPixels>
<maxLodPixels>-1</maxLodPixels>
</Lod>
<LatLonAltBox>
<north>47.373046875</north>
<south>47.3291015625</south>
<east>9.228515625</east>
<west>9.1845703125</west>
</LatLonAltBox>
</Region>
<Link>
<href>1350.kml</href>
<viewRefreshMode>onRegion</viewRefreshMode>
<viewFormat/>
</Link>
</NetworkLink>
<NetworkLink>
<name>03012022</name>
<Region>
<Lod>
<minLodPixels>256</minLodPixels>
<maxLodPixels>-1</maxLodPixels>
</Lod>
<LatLonAltBox>
<north>47.3291015625</north>
<south>47.28515625</south>
<east>9.1845703125</east>
<west>9.140625</west>
</LatLonAltBox>
</Region>
<Link>
<href>1351.kml</href>
<viewRefreshMode>onRegion</viewRefreshMode>
<viewFormat/>
</Link>
</NetworkLink>
<NetworkLink>
<name>03012023</name>
<Region>
<Lod>
<minLodPixels>256</minLodPixels>
<maxLodPixels>-1</maxLodPixels>
</Lod>
<LatLonAltBox>
<north>47.3291015625</north>
<south>47.28515625</south>
<east>9.228515625</east>
<west>9.1845703125</west>
</LatLonAltBox>
</Region>
<Link>
<href>1352.kml</href>
<viewRefreshMode>onRegion</viewRefreshMode>
<viewFormat/>
</Link>
</NetworkLink>
<Placemark id="pm10228">
<name><![CDATA[Degersheim, Bahnhof]]></name>
<description><![CDATA[135 connections
]]></description>
<Point>
<coordinates>9.201030,47.372800</coordinates>
</Point>
</Placemark>
<Placemark id="pm9556">
<name><![CDATA[Degersheim, Post]]></name>
<description><![CDATA[128 connections
]]></description>
<Point>
<coordinates>9.198040,47.372600</coordinates>
</Point>
</Placemark>
<Placemark id="pm12429">
<name><![CDATA[Schönengrund, Post]]></name>
<description><![CDATA[111 connections
]]></description>
<Point>
<coordinates>9.226720,47.329200</coordinates>
</Point>
</Placemark>
<Placemark id="pm2661">
<name><![CDATA[Mogelsberg]]></name>
<description><![CDATA[106 connections
]]></description>
<Point>
<coordinates>9.142600,47.363800</coordinates>
</Point>
</Placemark>
<Placemark id="pm544">
<name><![CDATA[Schönengrund, Postgarage]]></name>
<description><![CDATA[104 connections
]]></description>
<Point>
<coordinates>9.221380,47.327900</coordinates>
</Point>
</Placemark>
<Placemark id="pm2993">
<name><![CDATA[St. Peterzell, Stafel]]></name>
<description><![CDATA[104 connections
]]></description>
<Point>
<coordinates>9.208690,47.324300</coordinates>
</Point>
</Placemark>
<Placemark id="pm11520">
<name><![CDATA[St. Peterzell, Schönenbühl]]></name>
<description><![CDATA[104 connections
]]></description>
<Point>
<coordinates>9.201280,47.320100</coordinates>
</Point>
</Placemark>
<Placemark id="pm14348">
<name><![CDATA[St. Peterzell, Rüti]]></name>
<description><![CDATA[104 connections
]]></description>
<Point>
<coordinates>9.192990,47.319600</coordinates>
</Point>
</Placemark>
<Placemark id="pm6726">
<name><![CDATA[St. Peterzell, Rössli]]></name>
<description><![CDATA[104 connections
]]></description>
<Point>
<coordinates>9.177720,47.317800</coordinates>
</Point>
</Placemark>
<Placemark id="pm4494">
<name><![CDATA[St. Peterzell, Mühle]]></name>
<description><![CDATA[90 connections
]]></description>
<Point>
<coordinates>9.169620,47.323100</coordinates>
</Point>
</Placemark>
<Placemark id="pm4980">
<name><![CDATA[Brunnadern, Auboden]]></name>
<description><![CDATA[90 connections
]]></description>
<Point>
<coordinates>9.160490,47.327100</coordinates>
</Point>
</Placemark>
<Placemark id="pm7075">
<name><![CDATA[Brunnadern, Furth]]></name>
<description><![CDATA[90 connections
]]></description>
<Point>
<coordinates>9.152190,47.326300</coordinates>
</Point>
</Placemark>
<Placemark id="pm12476">
<name><![CDATA[Brunnadern, Spreitenbach]]></name>
<description><![CDATA[90 connections
]]></description>
<Point>
<coordinates>9.144950,47.327300</coordinates>
</Point>
</Placemark>
<Placemark id="pm4326">
<name><![CDATA[Degersheim, Wolfhag]]></name>
<description><![CDATA[86 connections
]]></description>
<Point>
<coordinates>9.191000,47.369800</coordinates>
</Point>
</Placemark>
<Placemark id="pm5646">
<name><![CDATA[Dicken b Dgh, Freihof]]></name>
<description><![CDATA[86 connections
]]></description>
<Point>
<coordinates>9.190380,47.340800</coordinates>
</Point>
</Placemark>
<Placemark id="pm9438">
<name><![CDATA[Hoffeld, Strickwald]]></name>
<description><![CDATA[86 connections
]]></description>
<Point>
<coordinates>9.187730,47.350900</coordinates>
</Point>
</Placemark>
</Document>
</kml>
