<?xml version="1.0" encoding="UTF-8"?>
<!-- KML Regionator 303:340M -->
<kml xmlns="http://earth.google.com/kml/2.1">
<Document>
<name>1441 0302012</name>
<Region>
<Lod>
<minLodPixels>256</minLodPixels>
<maxLodPixels>-1</maxLodPixels>
</Lod>
<LatLonAltBox>
<north>47.021484375</north>
<south>46.93359375</south>
<east>8.701171875</east>
<west>8.61328125</west>
</LatLonAltBox>
</Region>
<Placemark id="pm10166">
<name><![CDATA[Sisikon SGV]]></name>
<description><![CDATA[46 connections
]]></description>
<Point>
<coordinates>8.619060,46.948100</coordinates>
</Point>
</Placemark>
<Placemark id="pm13389">
<name><![CDATA[Morschach, Talstation]]></name>
<description><![CDATA[38 connections
]]></description>
<Point>
<coordinates>8.636240,46.989800</coordinates>
</Point>
</Placemark>
<Placemark id="pm8715">
<name><![CDATA[Stoos LMS]]></name>
<description><![CDATA[12 connections
]]></description>
<Point>
<coordinates>8.664160,46.982200</coordinates>
</Point>
</Placemark>
<Placemark id="pm1646">
<name><![CDATA[Morschach LMS]]></name>
<description><![CDATA[12 connections
]]></description>
<Point>
<coordinates>8.638380,46.990200</coordinates>
</Point>
</Placemark>
<Placemark id="pm3408">
<name><![CDATA[Riemenstalden, Langrüti]]></name>
<description><![CDATA[8 connections
]]></description>
<Point>
<coordinates>8.655330,46.947300</coordinates>
</Point>
</Placemark>
<Placemark id="pm4464">
<name><![CDATA[Riemenstalden, Hüsern]]></name>
<description><![CDATA[8 connections
]]></description>
<Point>
<coordinates>8.649430,46.948100</coordinates>
</Point>
</Placemark>
<Placemark id="pm11912">
<name><![CDATA[Riemenstalden, Riedberg]]></name>
<description><![CDATA[8 connections
]]></description>
<Point>
<coordinates>8.641570,46.949000</coordinates>
</Point>
</Placemark>
<Placemark id="pm4861">
<name><![CDATA[Sisikon, Binzenegg]]></name>
<description><![CDATA[8 connections
]]></description>
<Point>
<coordinates>8.628190,46.952600</coordinates>
</Point>
</Placemark>
<Placemark id="pm15059">
<name><![CDATA[Riemenstalden, alte Post]]></name>
<description><![CDATA[7 connections
]]></description>
<Point>
<coordinates>8.665170,46.947000</coordinates>
</Point>
</Placemark>
<Placemark id="pm2719">
<name><![CDATA[Sisikon, Bahnhof]]></name>
<description><![CDATA[4 connections
]]></description>
<Point>
<coordinates>8.620880,46.949000</coordinates>
</Point>
</Placemark>
<Placemark id="pm5436">
<name><![CDATA[Riemenstalden, Chäppeliberg]]></name>
<description><![CDATA[3 connections
]]></description>
<Point>
<coordinates>8.687500,46.946800</coordinates>
</Point>
</Placemark>
<Placemark id="pm9974">
<name><![CDATA[Stoos Fronalpstock-Bahn]]></name>
<description><![CDATA[2 connections
]]></description>
<Point>
<coordinates>8.662250,46.976200</coordinates>
</Point>
</Placemark>
<Placemark id="pm11679">
<name><![CDATA[Ibach, Erlen]]></name>
<description><![CDATA[2 connections
]]></description>
<Point>
<coordinates>8.640650,47.010500</coordinates>
</Point>
</Placemark>
<Placemark id="pm7136">
<name><![CDATA[Fronalpstock]]></name>
<description><![CDATA[2 connections
]]></description>
<Point>
<coordinates>8.638180,46.968300</coordinates>
</Point>
</Placemark>
</Document>
</kml>
