<?xml version="1.0" encoding="UTF-8"?>
<!-- KML Regionator 303:340M -->
<kml xmlns="http://earth.google.com/kml/2.1">
<Document>
<name>1443 030202</name>
<Region>
<Lod>
<minLodPixels>256</minLodPixels>
<maxLodPixels>-1</maxLodPixels>
</Lod>
<LatLonAltBox>
<north>46.93359375</north>
<south>46.7578125</south>
<east>8.61328125</east>
<west>8.4375</west>
</LatLonAltBox>
</Region>
<NetworkLink>
<name>0302020</name>
<Region>
<Lod>
<minLodPixels>256</minLodPixels>
<maxLodPixels>-1</maxLodPixels>
</Lod>
<LatLonAltBox>
<north>46.93359375</north>
<south>46.845703125</south>
<east>8.525390625</east>
<west>8.4375</west>
</LatLonAltBox>
</Region>
<Link>
<href>1444.kml</href>
<viewRefreshMode>onRegion</viewRefreshMode>
<viewFormat/>
</Link>
</NetworkLink>
<NetworkLink>
<name>0302021</name>
<Region>
<Lod>
<minLodPixels>256</minLodPixels>
<maxLodPixels>-1</maxLodPixels>
</Lod>
<LatLonAltBox>
<north>46.93359375</north>
<south>46.845703125</south>
<east>8.61328125</east>
<west>8.525390625</west>
</LatLonAltBox>
</Region>
<Link>
<href>1445.kml</href>
<viewRefreshMode>onRegion</viewRefreshMode>
<viewFormat/>
</Link>
</NetworkLink>
<NetworkLink>
<name>0302022</name>
<Region>
<Lod>
<minLodPixels>256</minLodPixels>
<maxLodPixels>-1</maxLodPixels>
</Lod>
<LatLonAltBox>
<north>46.845703125</north>
<south>46.7578125</south>
<east>8.525390625</east>
<west>8.4375</west>
</LatLonAltBox>
</Region>
<Link>
<href>1446.kml</href>
<viewRefreshMode>onRegion</viewRefreshMode>
<viewFormat/>
</Link>
</NetworkLink>
<NetworkLink>
<name>0302023</name>
<Region>
<Lod>
<minLodPixels>256</minLodPixels>
<maxLodPixels>-1</maxLodPixels>
</Lod>
<LatLonAltBox>
<north>46.845703125</north>
<south>46.7578125</south>
<east>8.61328125</east>
<west>8.525390625</west>
</LatLonAltBox>
</Region>
<Link>
<href>1447.kml</href>
<viewRefreshMode>onRegion</viewRefreshMode>
<viewFormat/>
</Link>
</NetworkLink>
<Placemark id="pm7289">
<name><![CDATA[Seedorf UR, Post]]></name>
<description><![CDATA[80 connections
]]></description>
<Point>
<coordinates>8.613160,46.881200</coordinates>
</Point>
</Placemark>
<Placemark id="pm7255">
<name><![CDATA[Isleten-Isenthal]]></name>
<description><![CDATA[72 connections
]]></description>
<Point>
<coordinates>8.595760,46.919900</coordinates>
</Point>
</Placemark>
<Placemark id="pm4214">
<name><![CDATA[Seedorf UR, Schloss A Pro]]></name>
<description><![CDATA[54 connections
]]></description>
<Point>
<coordinates>8.605370,46.884900</coordinates>
</Point>
</Placemark>
<Placemark id="pm9">
<name><![CDATA[Isleten, Seegarten]]></name>
<description><![CDATA[37 connections
]]></description>
<Point>
<coordinates>8.595080,46.909900</coordinates>
</Point>
</Placemark>
<Placemark id="pm11202">
<name><![CDATA[Seedorf UR, Seehof]]></name>
<description><![CDATA[28 connections
]]></description>
<Point>
<coordinates>8.599220,46.889000</coordinates>
</Point>
</Placemark>
<Placemark id="pm8574">
<name><![CDATA[Seedorf UR, Bolzbach]]></name>
<description><![CDATA[28 connections
]]></description>
<Point>
<coordinates>8.593790,46.895800</coordinates>
</Point>
</Placemark>
<Placemark id="pm7325">
<name><![CDATA[Isenthal, Ch채ppeli]]></name>
<description><![CDATA[28 connections
]]></description>
<Point>
<coordinates>8.590950,46.916300</coordinates>
</Point>
</Placemark>
<Placemark id="pm8230">
<name><![CDATA[Isenthal, Heissr체ti]]></name>
<description><![CDATA[28 connections
]]></description>
<Point>
<coordinates>8.574120,46.911900</coordinates>
</Point>
</Placemark>
<Placemark id="pm12677">
<name><![CDATA[Isenthal, Schwybogenbr체cke]]></name>
<description><![CDATA[28 connections
]]></description>
<Point>
<coordinates>8.555730,46.911500</coordinates>
</Point>
</Placemark>
<Placemark id="pm11115">
<name><![CDATA[Isenthal, Post]]></name>
<description><![CDATA[25 connections
]]></description>
<Point>
<coordinates>8.560960,46.910500</coordinates>
</Point>
</Placemark>
<Placemark id="pm8079">
<name><![CDATA[Isenthal, Luss]]></name>
<description><![CDATA[22 connections
]]></description>
<Point>
<coordinates>8.558350,46.911200</coordinates>
</Point>
</Placemark>
<Placemark id="pm13093">
<name><![CDATA[Isenthal, Weid-Furggelen]]></name>
<description><![CDATA[22 connections
]]></description>
<Point>
<coordinates>8.551820,46.912600</coordinates>
</Point>
</Placemark>
<Placemark id="pm6188">
<name><![CDATA[Isenthal, Schwanden]]></name>
<description><![CDATA[22 connections
]]></description>
<Point>
<coordinates>8.542610,46.912000</coordinates>
</Point>
</Placemark>
<Placemark id="pm7645">
<name><![CDATA[Isenthal, Schluchen]]></name>
<description><![CDATA[22 connections
]]></description>
<Point>
<coordinates>8.535040,46.910500</coordinates>
</Point>
</Placemark>
<Placemark id="pm8600">
<name><![CDATA[Isenthal, Chliw채ldli]]></name>
<description><![CDATA[22 connections
]]></description>
<Point>
<coordinates>8.529090,46.908800</coordinates>
</Point>
</Placemark>
<Placemark id="pm368">
<name><![CDATA[Isenthal, Stettli]]></name>
<description><![CDATA[22 connections
]]></description>
<Point>
<coordinates>8.525430,46.906100</coordinates>
</Point>
</Placemark>
</Document>
</kml>
