<?xml version="1.0" encoding="UTF-8"?>
<!-- KML Regionator 303:340M -->
<kml xmlns="http://earth.google.com/kml/2.1">
<Document>
<name>1483 0302231</name>
<Region>
<Lod>
<minLodPixels>256</minLodPixels>
<maxLodPixels>-1</maxLodPixels>
</Lod>
<LatLonAltBox>
<north>46.58203125</north>
<south>46.494140625</south>
<east>8.7890625</east>
<west>8.701171875</west>
</LatLonAltBox>
</Region>
<Placemark id="pm9611">
<name><![CDATA[Catto]]></name>
<description><![CDATA[40 connections
]]></description>
<Point>
<coordinates>8.734940,46.503600</coordinates>
</Point>
</Placemark>
<Placemark id="pm9984">
<name><![CDATA[S. Martino (Quinto)]]></name>
<description><![CDATA[40 connections
]]></description>
<Point>
<coordinates>8.718010,46.503800</coordinates>
</Point>
</Placemark>
<Placemark id="pm11194">
<name><![CDATA[Deggio]]></name>
<description><![CDATA[40 connections
]]></description>
<Point>
<coordinates>8.712400,46.514800</coordinates>
</Point>
</Placemark>
<Placemark id="pm11064">
<name><![CDATA[Lurengo]]></name>
<description><![CDATA[20 connections
]]></description>
<Point>
<coordinates>8.737590,46.505600</coordinates>
</Point>
</Placemark>
<Placemark id="pm2245">
<name><![CDATA[Osco, Ei]]></name>
<description><![CDATA[12 connections
]]></description>
<Point>
<coordinates>8.788530,46.499800</coordinates>
</Point>
</Placemark>
<Placemark id="pm1970">
<name><![CDATA[Osco, Curtin]]></name>
<description><![CDATA[12 connections
]]></description>
<Point>
<coordinates>8.784320,46.498400</coordinates>
</Point>
</Placemark>
<Placemark id="pm907">
<name><![CDATA[Vigera]]></name>
<description><![CDATA[12 connections
]]></description>
<Point>
<coordinates>8.772530,46.495700</coordinates>
</Point>
</Placemark>
</Document>
</kml>
