<?xml version="1.0" encoding="UTF-8"?>
<!-- KML Regionator 303:340M -->
<kml xmlns="http://earth.google.com/kml/2.1">
<Document>
<name>1546 03031020</name>
<Region>
<Lod>
<minLodPixels>256</minLodPixels>
<maxLodPixels>-1</maxLodPixels>
</Lod>
<LatLonAltBox>
<north>47.021484375</north>
<south>46.9775390625</south>
<east>9.5361328125</east>
<west>9.4921875</west>
</LatLonAltBox>
</Region>
<NetworkLink>
<name>030310200</name>
<Region>
<Lod>
<minLodPixels>256</minLodPixels>
<maxLodPixels>-1</maxLodPixels>
</Lod>
<LatLonAltBox>
<north>47.021484375</north>
<south>46.99951171875</south>
<east>9.51416015625</east>
<west>9.4921875</west>
</LatLonAltBox>
</Region>
<Link>
<href>1547.kml</href>
<viewRefreshMode>onRegion</viewRefreshMode>
<viewFormat/>
</Link>
</NetworkLink>
<NetworkLink>
<name>030310202</name>
<Region>
<Lod>
<minLodPixels>256</minLodPixels>
<maxLodPixels>-1</maxLodPixels>
</Lod>
<LatLonAltBox>
<north>46.99951171875</north>
<south>46.9775390625</south>
<east>9.51416015625</east>
<west>9.4921875</west>
</LatLonAltBox>
</Region>
<Link>
<href>1548.kml</href>
<viewRefreshMode>onRegion</viewRefreshMode>
<viewFormat/>
</Link>
</NetworkLink>
<NetworkLink>
<name>030310203</name>
<Region>
<Lod>
<minLodPixels>256</minLodPixels>
<maxLodPixels>-1</maxLodPixels>
</Lod>
<LatLonAltBox>
<north>46.99951171875</north>
<south>46.9775390625</south>
<east>9.5361328125</east>
<west>9.51416015625</west>
</LatLonAltBox>
</Region>
<Link>
<href>1549.kml</href>
<viewRefreshMode>onRegion</viewRefreshMode>
<viewFormat/>
</Link>
</NetworkLink>
<Placemark id="pm14209">
<name><![CDATA[Bad Ragaz, Bahnhof]]></name>
<description><![CDATA[110 connections
]]></description>
<Point>
<coordinates>9.505160,47.010300</coordinates>
</Point>
</Placemark>
<Placemark id="pm11641">
<name><![CDATA[Bad Ragaz, Schulhaus]]></name>
<description><![CDATA[110 connections
]]></description>
<Point>
<coordinates>9.503370,47.006500</coordinates>
</Point>
</Placemark>
<Placemark id="pm2074">
<name><![CDATA[Bad Ragaz, Kurzentrum]]></name>
<description><![CDATA[98 connections
]]></description>
<Point>
<coordinates>9.504440,46.999900</coordinates>
</Point>
</Placemark>
<Placemark id="pm4943">
<name><![CDATA[Mastrils, Rösliplatz]]></name>
<description><![CDATA[94 connections
]]></description>
<Point>
<coordinates>9.534170,46.986800</coordinates>
</Point>
</Placemark>
<Placemark id="pm9171">
<name><![CDATA[Bad Ragaz, Dorfbad]]></name>
<description><![CDATA[82 connections
]]></description>
<Point>
<coordinates>9.504430,46.999700</coordinates>
</Point>
</Placemark>
<Placemark id="pm2168">
<name><![CDATA[Pfäfers, Postplatz]]></name>
<description><![CDATA[79 connections
]]></description>
<Point>
<coordinates>9.501760,46.990100</coordinates>
</Point>
</Placemark>
<Placemark id="pm14017">
<name><![CDATA[Maienfeld, Bahnhof]]></name>
<description><![CDATA[76 connections
]]></description>
<Point>
<coordinates>9.529250,47.003800</coordinates>
</Point>
</Placemark>
<Placemark id="pm12506">
<name><![CDATA[Maienfeld, Altersheim]]></name>
<description><![CDATA[70 connections
]]></description>
<Point>
<coordinates>9.534960,47.006800</coordinates>
</Point>
</Placemark>
<Placemark id="pm11597">
<name><![CDATA[Wartenstein]]></name>
<description><![CDATA[68 connections
]]></description>
<Point>
<coordinates>9.507830,46.994000</coordinates>
</Point>
</Placemark>
<Placemark id="pm702">
<name><![CDATA[Pfäfers, Wiesli]]></name>
<description><![CDATA[68 connections
]]></description>
<Point>
<coordinates>9.505490,46.993200</coordinates>
</Point>
</Placemark>
<Placemark id="pm5681">
<name><![CDATA[Pfäfers, Klinik]]></name>
<description><![CDATA[68 connections
]]></description>
<Point>
<coordinates>9.502140,46.991400</coordinates>
</Point>
</Placemark>
<Placemark id="pm10583">
<name><![CDATA[Mastrils, Piz Alun]]></name>
<description><![CDATA[66 connections
]]></description>
<Point>
<coordinates>9.532930,46.988600</coordinates>
</Point>
</Placemark>
<Placemark id="pm2565">
<name><![CDATA[Mastrils, Feld]]></name>
<description><![CDATA[66 connections
]]></description>
<Point>
<coordinates>9.531650,46.989600</coordinates>
</Point>
</Placemark>
<Placemark id="pm3104">
<name><![CDATA[Maienfeld, Im Loretscher]]></name>
<description><![CDATA[64 connections
]]></description>
<Point>
<coordinates>9.525850,47.009500</coordinates>
</Point>
</Placemark>
<Placemark id="pm12010">
<name><![CDATA[Pfäfers, Grosswies]]></name>
<description><![CDATA[56 connections
]]></description>
<Point>
<coordinates>9.492900,46.982200</coordinates>
</Point>
</Placemark>
<Placemark id="pm13377">
<name><![CDATA[Bad Ragaz, Alpweg]]></name>
<description><![CDATA[54 connections
]]></description>
<Point>
<coordinates>9.501250,47.002700</coordinates>
</Point>
</Placemark>
</Document>
</kml>
