<?xml version="1.0" encoding="UTF-8"?>
<!-- KML Regionator 303:340M -->
<kml xmlns="http://earth.google.com/kml/2.1">
<Document>
<name>1562 0303113</name>
<Region>
<Lod>
<minLodPixels>256</minLodPixels>
<maxLodPixels>-1</maxLodPixels>
</Lod>
<LatLonAltBox>
<north>47.021484375</north>
<south>46.93359375</south>
<east>9.84375</east>
<west>9.755859375</west>
</LatLonAltBox>
</Region>
<Placemark id="pm14567">
<name><![CDATA[Ascharina, Alpbachbrücke]]></name>
<description><![CDATA[36 connections
]]></description>
<Point>
<coordinates>9.809480,46.967500</coordinates>
</Point>
</Placemark>
<Placemark id="pm2674">
<name><![CDATA[Gadenstätt]]></name>
<description><![CDATA[36 connections
]]></description>
<Point>
<coordinates>9.800530,46.950800</coordinates>
</Point>
</Placemark>
<Placemark id="pm3575">
<name><![CDATA[St. Antönien, Post]]></name>
<description><![CDATA[32 connections
]]></description>
<Point>
<coordinates>9.813520,46.969700</coordinates>
</Point>
</Placemark>
<Placemark id="pm2342">
<name><![CDATA[St. Antönien, Meierhof]]></name>
<description><![CDATA[28 connections
]]></description>
<Point>
<coordinates>9.818800,46.970200</coordinates>
</Point>
</Placemark>
<Placemark id="pm14535">
<name><![CDATA[St. Antönien, Rüti]]></name>
<description><![CDATA[14 connections
]]></description>
<Point>
<coordinates>9.829500,46.974300</coordinates>
</Point>
</Placemark>
</Document>
</kml>
