<?xml version="1.0" encoding="UTF-8"?>
<!-- KML Regionator 303:340M -->
<kml xmlns="http://earth.google.com/kml/2.1">
<Document>
<name>1567 0303122</name>
<Region>
<Lod>
<minLodPixels>256</minLodPixels>
<maxLodPixels>-1</maxLodPixels>
</Lod>
<LatLonAltBox>
<north>46.845703125</north>
<south>46.7578125</south>
<east>9.580078125</east>
<west>9.4921875</west>
</LatLonAltBox>
</Region>
<NetworkLink>
<name>03031221</name>
<Region>
<Lod>
<minLodPixels>256</minLodPixels>
<maxLodPixels>-1</maxLodPixels>
</Lod>
<LatLonAltBox>
<north>46.845703125</north>
<south>46.8017578125</south>
<east>9.580078125</east>
<west>9.5361328125</west>
</LatLonAltBox>
</Region>
<Link>
<href>1568.kml</href>
<viewRefreshMode>onRegion</viewRefreshMode>
<viewFormat/>
</Link>
</NetworkLink>
<Placemark id="pm6353">
<name><![CDATA[Malix, Kreuz]]></name>
<description><![CDATA[126 connections
]]></description>
<Point>
<coordinates>9.539440,46.827400</coordinates>
</Point>
</Placemark>
<Placemark id="pm8612">
<name><![CDATA[Chur, Bödeli]]></name>
<description><![CDATA[126 connections
]]></description>
<Point>
<coordinates>9.538180,46.837100</coordinates>
</Point>
</Placemark>
<Placemark id="pm6069">
<name><![CDATA[Churwalden, Lax]]></name>
<description><![CDATA[126 connections
]]></description>
<Point>
<coordinates>9.535510,46.788800</coordinates>
</Point>
</Placemark>
<Placemark id="pm13121">
<name><![CDATA[Malix, Post]]></name>
<description><![CDATA[126 connections
]]></description>
<Point>
<coordinates>9.532730,46.806600</coordinates>
</Point>
</Placemark>
<Placemark id="pm10635">
<name><![CDATA[Malix, Rezia]]></name>
<description><![CDATA[126 connections
]]></description>
<Point>
<coordinates>9.532730,46.806600</coordinates>
</Point>
</Placemark>
<Placemark id="pm2220">
<name><![CDATA[Egga b. Malix]]></name>
<description><![CDATA[126 connections
]]></description>
<Point>
<coordinates>9.531730,46.797700</coordinates>
</Point>
</Placemark>
<Placemark id="pm9962">
<name><![CDATA[Churwalden, Post]]></name>
<description><![CDATA[125 connections
]]></description>
<Point>
<coordinates>9.543510,46.780600</coordinates>
</Point>
</Placemark>
<Placemark id="pm5162">
<name><![CDATA[Parpan, Post]]></name>
<description><![CDATA[124 connections
]]></description>
<Point>
<coordinates>9.557440,46.760100</coordinates>
</Point>
</Placemark>
<Placemark id="pm10623">
<name><![CDATA[Churwalden, Rüti]]></name>
<description><![CDATA[124 connections
]]></description>
<Point>
<coordinates>9.552420,46.774100</coordinates>
</Point>
</Placemark>
<Placemark id="pm7453">
<name><![CDATA[Churwalden, Kloster]]></name>
<description><![CDATA[68 connections
]]></description>
<Point>
<coordinates>9.535980,46.789000</coordinates>
</Point>
</Placemark>
<Placemark id="pm6644">
<name><![CDATA[Churwalden, Funershus]]></name>
<description><![CDATA[58 connections
]]></description>
<Point>
<coordinates>9.537810,46.785600</coordinates>
</Point>
</Placemark>
<Placemark id="pm8323">
<name><![CDATA[Ausserpraden, Hedwig]]></name>
<description><![CDATA[54 connections
]]></description>
<Point>
<coordinates>9.577030,46.824700</coordinates>
</Point>
</Placemark>
<Placemark id="pm8143">
<name><![CDATA[Ausserpraden, Krone]]></name>
<description><![CDATA[54 connections
]]></description>
<Point>
<coordinates>9.573120,46.825500</coordinates>
</Point>
</Placemark>
<Placemark id="pm5934">
<name><![CDATA[Passugg, Schluocht]]></name>
<description><![CDATA[54 connections
]]></description>
<Point>
<coordinates>9.555800,46.826700</coordinates>
</Point>
</Placemark>
<Placemark id="pm11566">
<name><![CDATA[Passugg, Abzw. Grida]]></name>
<description><![CDATA[54 connections
]]></description>
<Point>
<coordinates>9.554490,46.826700</coordinates>
</Point>
</Placemark>
<Placemark id="pm9801">
<name><![CDATA[Passugg, alte Post]]></name>
<description><![CDATA[54 connections
]]></description>
<Point>
<coordinates>9.547090,46.830200</coordinates>
</Point>
</Placemark>
</Document>
</kml>
