<?xml version="1.0" encoding="UTF-8"?>
<!-- KML Regionator 303:340M -->
<kml xmlns="http://earth.google.com/kml/2.1">
<Document>
<name>1607 0303303</name>
<Region>
<Lod>
<minLodPixels>256</minLodPixels>
<maxLodPixels>-1</maxLodPixels>
</Lod>
<LatLonAltBox>
<north>46.669921875</north>
<south>46.58203125</south>
<east>9.66796875</east>
<west>9.580078125</west>
</LatLonAltBox>
</Region>
<Placemark id="pm1472">
<name><![CDATA[Alvaneu Bad, Dorfplatz]]></name>
<description><![CDATA[84 connections
]]></description>
<Point>
<coordinates>9.647830,46.668400</coordinates>
</Point>
</Placemark>
<Placemark id="pm6924">
<name><![CDATA[Riom, posta]]></name>
<description><![CDATA[82 connections
]]></description>
<Point>
<coordinates>9.582210,46.609300</coordinates>
</Point>
</Placemark>
<Placemark id="pm4228">
<name><![CDATA[Surava, Abzw. Bahnhof]]></name>
<description><![CDATA[80 connections
]]></description>
<Point>
<coordinates>9.620860,46.669100</coordinates>
</Point>
</Placemark>
<Placemark id="pm12701">
<name><![CDATA[Surava, Pro Quarta]]></name>
<description><![CDATA[70 connections
]]></description>
<Point>
<coordinates>9.628510,46.664200</coordinates>
</Point>
</Placemark>
<Placemark id="pm13365">
<name><![CDATA[Surava, Dorf]]></name>
<description><![CDATA[70 connections
]]></description>
<Point>
<coordinates>9.609240,46.664600</coordinates>
</Point>
</Placemark>
<Placemark id="pm8831">
<name><![CDATA[Cunter, Dafora]]></name>
<description><![CDATA[70 connections
]]></description>
<Point>
<coordinates>9.592000,46.609200</coordinates>
</Point>
</Placemark>
<Placemark id="pm7474">
<name><![CDATA[Cunter, Burvagn]]></name>
<description><![CDATA[70 connections
]]></description>
<Point>
<coordinates>9.588340,46.623800</coordinates>
</Point>
</Placemark>
<Placemark id="pm7084">
<name><![CDATA[Cunter, Mulegn]]></name>
<description><![CDATA[52 connections
]]></description>
<Point>
<coordinates>9.595450,46.597400</coordinates>
</Point>
</Placemark>
<Placemark id="pm394">
<name><![CDATA[Tinizong, Cadras]]></name>
<description><![CDATA[50 connections
]]></description>
<Point>
<coordinates>9.611620,46.585600</coordinates>
</Point>
</Placemark>
<Placemark id="pm13988">
<name><![CDATA[Brienz/Brinzauls, Belfort]]></name>
<description><![CDATA[48 connections
]]></description>
<Point>
<coordinates>9.614680,46.669700</coordinates>
</Point>
</Placemark>
<Placemark id="pm12028">
<name><![CDATA[Brienz/Brinzauls, posta]]></name>
<description><![CDATA[48 connections
]]></description>
<Point>
<coordinates>9.596020,46.668900</coordinates>
</Point>
</Placemark>
<Placemark id="pm6503">
<name><![CDATA[Alvaneu Bad, Badezentrum]]></name>
<description><![CDATA[35 connections
]]></description>
<Point>
<coordinates>9.650360,46.669600</coordinates>
</Point>
</Placemark>
</Document>
</kml>
