<?xml version="1.0" encoding="UTF-8"?>
<!-- KML Regionator 303:340M -->
<kml xmlns="http://earth.google.com/kml/2.1">
<Document>
<name>1667 0320100</name>
<Region>
<Lod>
<minLodPixels>256</minLodPixels>
<maxLodPixels>-1</maxLodPixels>
</Lod>
<LatLonAltBox>
<north>46.40625</north>
<south>46.318359375</south>
<east>8.876953125</east>
<west>8.7890625</west>
</LatLonAltBox>
</Region>
<Placemark id="pm13641">
<name><![CDATA[Frasco, Torbola]]></name>
<description><![CDATA[42 connections
]]></description>
<Point>
<coordinates>8.805310,46.336100</coordinates>
</Point>
</Placemark>
<Placemark id="pm4951">
<name><![CDATA[Frasco, Paese]]></name>
<description><![CDATA[42 connections
]]></description>
<Point>
<coordinates>8.804380,46.338100</coordinates>
</Point>
</Placemark>
<Placemark id="pm10158">
<name><![CDATA[Frasco, Chiesa]]></name>
<description><![CDATA[42 connections
]]></description>
<Point>
<coordinates>8.803120,46.339500</coordinates>
</Point>
</Placemark>
<Placemark id="pm3284">
<name><![CDATA[Gerra (Verzasca), Croce]]></name>
<description><![CDATA[42 connections
]]></description>
<Point>
<coordinates>8.801530,46.328000</coordinates>
</Point>
</Placemark>
<Placemark id="pm4518">
<name><![CDATA[Frasco, Cantone]]></name>
<description><![CDATA[42 connections
]]></description>
<Point>
<coordinates>8.800590,46.342200</coordinates>
</Point>
</Placemark>
<Placemark id="pm4521">
<name><![CDATA[Gerra (Verzasca), Paese]]></name>
<description><![CDATA[42 connections
]]></description>
<Point>
<coordinates>8.798720,46.319300</coordinates>
</Point>
</Placemark>
<Placemark id="pm5036">
<name><![CDATA[Frasco, Mora di Fuori]]></name>
<description><![CDATA[42 connections
]]></description>
<Point>
<coordinates>8.798690,46.344300</coordinates>
</Point>
</Placemark>
<Placemark id="pm9267">
<name><![CDATA[Frasco, Mora]]></name>
<description><![CDATA[42 connections
]]></description>
<Point>
<coordinates>8.790360,46.348800</coordinates>
</Point>
</Placemark>
</Document>
</kml>
