<?xml version="1.0" encoding="UTF-8"?>
<!-- KML Regionator 303:340M -->
<kml xmlns="http://earth.google.com/kml/2.1">
<Document>
<name>1721 03203001</name>
<Region>
<Lod>
<minLodPixels>256</minLodPixels>
<maxLodPixels>-1</maxLodPixels>
</Lod>
<LatLonAltBox>
<north>46.0546875</north>
<south>46.0107421875</south>
<east>8.876953125</east>
<west>8.8330078125</west>
</LatLonAltBox>
</Region>
<Placemark id="pm4270">
<name><![CDATA[Miglieglia, Posta]]></name>
<description><![CDATA[83 connections
]]></description>
<Point>
<coordinates>8.858410,46.024300</coordinates>
</Point>
</Placemark>
<Placemark id="pm2455">
<name><![CDATA[Aranno, Flora]]></name>
<description><![CDATA[78 connections
]]></description>
<Point>
<coordinates>8.874720,46.016000</coordinates>
</Point>
</Placemark>
<Placemark id="pm9276">
<name><![CDATA[Aranno, Al Tiglio]]></name>
<description><![CDATA[78 connections
]]></description>
<Point>
<coordinates>8.871730,46.020300</coordinates>
</Point>
</Placemark>
<Placemark id="pm9959">
<name><![CDATA[Aranno, Posta]]></name>
<description><![CDATA[78 connections
]]></description>
<Point>
<coordinates>8.870340,46.018700</coordinates>
</Point>
</Placemark>
<Placemark id="pm10027">
<name><![CDATA[Nerocco]]></name>
<description><![CDATA[70 connections
]]></description>
<Point>
<coordinates>8.837470,46.013400</coordinates>
</Point>
</Placemark>
<Placemark id="pm4592">
<name><![CDATA[Bombinasco, Paese]]></name>
<description><![CDATA[70 connections
]]></description>
<Point>
<coordinates>8.833070,46.013400</coordinates>
</Point>
</Placemark>
<Placemark id="pm7518">
<name><![CDATA[Novaggio, Alla Colombina]]></name>
<description><![CDATA[66 connections
]]></description>
<Point>
<coordinates>8.856330,46.013800</coordinates>
</Point>
</Placemark>
<Placemark id="pm12453">
<name><![CDATA[Fescoggia, Paese]]></name>
<description><![CDATA[40 connections
]]></description>
<Point>
<coordinates>8.876750,46.039000</coordinates>
</Point>
</Placemark>
<Placemark id="pm2841">
<name><![CDATA[Breno, alla Bolla]]></name>
<description><![CDATA[40 connections
]]></description>
<Point>
<coordinates>8.871070,46.034300</coordinates>
</Point>
</Placemark>
<Placemark id="pm15">
<name><![CDATA[Miglieglia SMM]]></name>
<description><![CDATA[2 connections
]]></description>
<Point>
<coordinates>8.856240,46.023700</coordinates>
</Point>
</Placemark>
<Placemark id="pm2235">
<name><![CDATA[Monte Lema]]></name>
<description><![CDATA[2 connections
]]></description>
<Point>
<coordinates>8.834860,46.040700</coordinates>
</Point>
</Placemark>
</Document>
</kml>
