<?xml version="1.0" encoding="UTF-8"?>
<!-- KML Regionator 303:340M -->
<kml xmlns="http://earth.google.com/kml/2.1">
<Document>
<name>175 0203321</name>
<Region>
<Lod>
<minLodPixels>256</minLodPixels>
<maxLodPixels>-1</maxLodPixels>
</Lod>
<LatLonAltBox>
<north>46.58203125</north>
<south>46.494140625</south>
<east>6.85546875</east>
<west>6.767578125</west>
</LatLonAltBox>
</Region>
<NetworkLink>
<name>02033210</name>
<Region>
<Lod>
<minLodPixels>256</minLodPixels>
<maxLodPixels>-1</maxLodPixels>
</Lod>
<LatLonAltBox>
<north>46.58203125</north>
<south>46.5380859375</south>
<east>6.8115234375</east>
<west>6.767578125</west>
</LatLonAltBox>
</Region>
<Link>
<href>176.kml</href>
<viewRefreshMode>onRegion</viewRefreshMode>
<viewFormat/>
</Link>
</NetworkLink>
<NetworkLink>
<name>02033211</name>
<Region>
<Lod>
<minLodPixels>256</minLodPixels>
<maxLodPixels>-1</maxLodPixels>
</Lod>
<LatLonAltBox>
<north>46.58203125</north>
<south>46.5380859375</south>
<east>6.85546875</east>
<west>6.8115234375</west>
</LatLonAltBox>
</Region>
<Link>
<href>177.kml</href>
<viewRefreshMode>onRegion</viewRefreshMode>
<viewFormat/>
</Link>
</NetworkLink>
<NetworkLink>
<name>02033212</name>
<Region>
<Lod>
<minLodPixels>256</minLodPixels>
<maxLodPixels>-1</maxLodPixels>
</Lod>
<LatLonAltBox>
<north>46.5380859375</north>
<south>46.494140625</south>
<east>6.8115234375</east>
<west>6.767578125</west>
</LatLonAltBox>
</Region>
<Link>
<href>178.kml</href>
<viewRefreshMode>onRegion</viewRefreshMode>
<viewFormat/>
</Link>
</NetworkLink>
<NetworkLink>
<name>02033213</name>
<Region>
<Lod>
<minLodPixels>256</minLodPixels>
<maxLodPixels>-1</maxLodPixels>
</Lod>
<LatLonAltBox>
<north>46.5380859375</north>
<south>46.494140625</south>
<east>6.85546875</east>
<west>6.8115234375</west>
</LatLonAltBox>
</Region>
<Link>
<href>179.kml</href>
<viewRefreshMode>onRegion</viewRefreshMode>
<viewFormat/>
</Link>
</NetworkLink>
<Placemark id="pm13628">
<name><![CDATA[Palézieux, gare]]></name>
<description><![CDATA[123 connections
]]></description>
<Point>
<coordinates>6.837310,46.542000</coordinates>
</Point>
</Placemark>
<Placemark id="pm13979">
<name><![CDATA[Attalens, village]]></name>
<description><![CDATA[100 connections
]]></description>
<Point>
<coordinates>6.847110,46.509700</coordinates>
</Point>
</Placemark>
<Placemark id="pm3224">
<name><![CDATA[Essertes, Le Pralet]]></name>
<description><![CDATA[98 connections
]]></description>
<Point>
<coordinates>6.781370,46.558800</coordinates>
</Point>
</Placemark>
<Placemark id="pm1208">
<name><![CDATA[Oron-le-Châtel, gare]]></name>
<description><![CDATA[88 connections
]]></description>
<Point>
<coordinates>6.836970,46.572300</coordinates>
</Point>
</Placemark>
<Placemark id="pm5706">
<name><![CDATA[Bossonnens, village]]></name>
<description><![CDATA[76 connections
]]></description>
<Point>
<coordinates>6.848290,46.521400</coordinates>
</Point>
</Placemark>
<Placemark id="pm9359">
<name><![CDATA[Moreillon]]></name>
<description><![CDATA[76 connections
]]></description>
<Point>
<coordinates>6.785640,46.508400</coordinates>
</Point>
</Placemark>
<Placemark id="pm12714">
<name><![CDATA[Bossonnens]]></name>
<description><![CDATA[72 connections
]]></description>
<Point>
<coordinates>6.852910,46.525700</coordinates>
</Point>
</Placemark>
<Placemark id="pm12509">
<name><![CDATA[Granges (Veveyse)]]></name>
<description><![CDATA[72 connections
]]></description>
<Point>
<coordinates>6.842450,46.528600</coordinates>
</Point>
</Placemark>
<Placemark id="pm12226">
<name><![CDATA[Palézieux-Village]]></name>
<description><![CDATA[72 connections
]]></description>
<Point>
<coordinates>6.828340,46.557200</coordinates>
</Point>
</Placemark>
<Placemark id="pm14499">
<name><![CDATA[Châtillens]]></name>
<description><![CDATA[72 connections
]]></description>
<Point>
<coordinates>6.815480,46.570500</coordinates>
</Point>
</Placemark>
<Placemark id="pm7228">
<name><![CDATA[Servion, poste/croisée]]></name>
<description><![CDATA[70 connections
]]></description>
<Point>
<coordinates>6.781530,46.572700</coordinates>
</Point>
</Placemark>
<Placemark id="pm14756">
<name><![CDATA[Oron-la-Ville, Coop]]></name>
<description><![CDATA[52 connections
]]></description>
<Point>
<coordinates>6.820350,46.571100</coordinates>
</Point>
</Placemark>
<Placemark id="pm6071">
<name><![CDATA[Châtillens, gare]]></name>
<description><![CDATA[50 connections
]]></description>
<Point>
<coordinates>6.815470,46.570400</coordinates>
</Point>
</Placemark>
<Placemark id="pm8680">
<name><![CDATA[Chesalles-sur-Oron]]></name>
<description><![CDATA[48 connections
]]></description>
<Point>
<coordinates>6.853230,46.576700</coordinates>
</Point>
</Placemark>
<Placemark id="pm13199">
<name><![CDATA[Oron-le-Châtel, poste]]></name>
<description><![CDATA[48 connections
]]></description>
<Point>
<coordinates>6.839550,46.575300</coordinates>
</Point>
</Placemark>
<Placemark id="pm5937">
<name><![CDATA[Granges (Veveyse), village]]></name>
<description><![CDATA[48 connections
]]></description>
<Point>
<coordinates>6.831270,46.528500</coordinates>
</Point>
</Placemark>
</Document>
</kml>
