<?xml version="1.0" encoding="UTF-8"?>
<!-- KML Regionator 303:340M -->
<kml xmlns="http://earth.google.com/kml/2.1">
<Document>
<name>1789 03211</name>
<Region>
<Lod>
<minLodPixels>256</minLodPixels>
<maxLodPixels>-1</maxLodPixels>
</Lod>
<LatLonAltBox>
<north>46.40625</north>
<south>46.0546875</south>
<east>9.84375</east>
<west>9.4921875</west>
</LatLonAltBox>
</Region>
<NetworkLink>
<name>032110</name>
<Region>
<Lod>
<minLodPixels>256</minLodPixels>
<maxLodPixels>-1</maxLodPixels>
</Lod>
<LatLonAltBox>
<north>46.40625</north>
<south>46.23046875</south>
<east>9.66796875</east>
<west>9.4921875</west>
</LatLonAltBox>
</Region>
<Link>
<href>1790.kml</href>
<viewRefreshMode>onRegion</viewRefreshMode>
<viewFormat/>
</Link>
</NetworkLink>
<NetworkLink>
<name>032111</name>
<Region>
<Lod>
<minLodPixels>256</minLodPixels>
<maxLodPixels>-1</maxLodPixels>
</Lod>
<LatLonAltBox>
<north>46.40625</north>
<south>46.23046875</south>
<east>9.84375</east>
<west>9.66796875</west>
</LatLonAltBox>
</Region>
<Link>
<href>1791.kml</href>
<viewRefreshMode>onRegion</viewRefreshMode>
<viewFormat/>
</Link>
</NetworkLink>
<Placemark id="pm11991">
<name><![CDATA[Promontogno, Posta]]></name>
<description><![CDATA[74 connections
]]></description>
<Point>
<coordinates>9.556560,46.337900</coordinates>
</Point>
</Placemark>
<Placemark id="pm1146">
<name><![CDATA[Promontogno, Ospedale Flin]]></name>
<description><![CDATA[56 connections
]]></description>
<Point>
<coordinates>9.546510,46.336700</coordinates>
</Point>
</Placemark>
<Placemark id="pm10018">
<name><![CDATA[Borgonovo, Posta]]></name>
<description><![CDATA[46 connections
]]></description>
<Point>
<coordinates>9.608220,46.346500</coordinates>
</Point>
</Placemark>
<Placemark id="pm11596">
<name><![CDATA[Stampa, Posta]]></name>
<description><![CDATA[46 connections
]]></description>
<Point>
<coordinates>9.583060,46.344400</coordinates>
</Point>
</Placemark>
<Placemark id="pm2934">
<name><![CDATA[Vicosoprano, Posta]]></name>
<description><![CDATA[45 connections
]]></description>
<Point>
<coordinates>9.621690,46.348700</coordinates>
</Point>
</Placemark>
<Placemark id="pm9036">
<name><![CDATA[Casaccia, Posta]]></name>
<description><![CDATA[44 connections
]]></description>
<Point>
<coordinates>9.667390,46.388700</coordinates>
</Point>
</Placemark>
<Placemark id="pm3281">
<name><![CDATA[Stampa, Val d'Arca]]></name>
<description><![CDATA[42 connections
]]></description>
<Point>
<coordinates>9.588800,46.341800</coordinates>
</Point>
</Placemark>
<Placemark id="pm4860">
<name><![CDATA[Stampa, Palù]]></name>
<description><![CDATA[42 connections
]]></description>
<Point>
<coordinates>9.584090,46.340900</coordinates>
</Point>
</Placemark>
<Placemark id="pm7076">
<name><![CDATA[Castasegna, Farzett]]></name>
<description><![CDATA[42 connections
]]></description>
<Point>
<coordinates>9.536670,46.334200</coordinates>
</Point>
</Placemark>
<Placemark id="pm5112">
<name><![CDATA[Maloja, Cad'Maté]]></name>
<description><![CDATA[40 connections
]]></description>
<Point>
<coordinates>9.696020,46.398600</coordinates>
</Point>
</Placemark>
<Placemark id="pm5928">
<name><![CDATA[Casaccia, Cavril]]></name>
<description><![CDATA[40 connections
]]></description>
<Point>
<coordinates>9.684040,46.398100</coordinates>
</Point>
</Placemark>
<Placemark id="pm3539">
<name><![CDATA[Casaccia, Löbbia]]></name>
<description><![CDATA[40 connections
]]></description>
<Point>
<coordinates>9.661450,46.373800</coordinates>
</Point>
</Placemark>
<Placemark id="pm7758">
<name><![CDATA[Vicosoprano, Zocca]]></name>
<description><![CDATA[40 connections
]]></description>
<Point>
<coordinates>9.657870,46.365800</coordinates>
</Point>
</Placemark>
<Placemark id="pm12252">
<name><![CDATA[Vicosoprano, Nasciarina]]></name>
<description><![CDATA[40 connections
]]></description>
<Point>
<coordinates>9.657090,46.365800</coordinates>
</Point>
</Placemark>
<Placemark id="pm10225">
<name><![CDATA[Pranzaira, Albigna]]></name>
<description><![CDATA[40 connections
]]></description>
<Point>
<coordinates>9.647020,46.358000</coordinates>
</Point>
</Placemark>
<Placemark id="pm11989">
<name><![CDATA[Vicosoprano, Camping]]></name>
<description><![CDATA[40 connections
]]></description>
<Point>
<coordinates>9.633170,46.352800</coordinates>
</Point>
</Placemark>
</Document>
</kml>
