<?xml version="1.0" encoding="UTF-8"?>
<!-- KML Regionator 303:340M -->
<kml xmlns="http://earth.google.com/kml/2.1">
<Document>
<name>363 0211201</name>
<Region>
<Lod>
<minLodPixels>256</minLodPixels>
<maxLodPixels>-1</maxLodPixels>
</Lod>
<LatLonAltBox>
<north>47.4609375</north>
<south>47.373046875</south>
<east>7.91015625</east>
<west>7.822265625</west>
</LatLonAltBox>
</Region>
<NetworkLink>
<name>02112010</name>
<Region>
<Lod>
<minLodPixels>256</minLodPixels>
<maxLodPixels>-1</maxLodPixels>
</Lod>
<LatLonAltBox>
<north>47.4609375</north>
<south>47.4169921875</south>
<east>7.8662109375</east>
<west>7.822265625</west>
</LatLonAltBox>
</Region>
<Link>
<href>364.kml</href>
<viewRefreshMode>onRegion</viewRefreshMode>
<viewFormat/>
</Link>
</NetworkLink>
<NetworkLink>
<name>02112011</name>
<Region>
<Lod>
<minLodPixels>256</minLodPixels>
<maxLodPixels>-1</maxLodPixels>
</Lod>
<LatLonAltBox>
<north>47.4609375</north>
<south>47.4169921875</south>
<east>7.91015625</east>
<west>7.8662109375</west>
</LatLonAltBox>
</Region>
<Link>
<href>365.kml</href>
<viewRefreshMode>onRegion</viewRefreshMode>
<viewFormat/>
</Link>
</NetworkLink>
<NetworkLink>
<name>02112012</name>
<Region>
<Lod>
<minLodPixels>256</minLodPixels>
<maxLodPixels>-1</maxLodPixels>
</Lod>
<LatLonAltBox>
<north>47.4169921875</north>
<south>47.373046875</south>
<east>7.8662109375</east>
<west>7.822265625</west>
</LatLonAltBox>
</Region>
<Link>
<href>366.kml</href>
<viewRefreshMode>onRegion</viewRefreshMode>
<viewFormat/>
</Link>
</NetworkLink>
<NetworkLink>
<name>02112013</name>
<Region>
<Lod>
<minLodPixels>256</minLodPixels>
<maxLodPixels>-1</maxLodPixels>
</Lod>
<LatLonAltBox>
<north>47.4169921875</north>
<south>47.373046875</south>
<east>7.91015625</east>
<west>7.8662109375</west>
</LatLonAltBox>
</Region>
<Link>
<href>367.kml</href>
<viewRefreshMode>onRegion</viewRefreshMode>
<viewFormat/>
</Link>
</NetworkLink>
<Placemark id="pm14933">
<name><![CDATA[Diepflingen, Dorf]]></name>
<description><![CDATA[184 connections
]]></description>
<Point>
<coordinates>7.837710,47.446000</coordinates>
</Point>
</Placemark>
<Placemark id="pm10423">
<name><![CDATA[Läufelfingen]]></name>
<description><![CDATA[160 connections
]]></description>
<Point>
<coordinates>7.856220,47.392100</coordinates>
</Point>
</Placemark>
<Placemark id="pm10901">
<name><![CDATA[Thürnen, Dorf]]></name>
<description><![CDATA[152 connections
]]></description>
<Point>
<coordinates>7.828490,47.455000</coordinates>
</Point>
</Placemark>
<Placemark id="pm12422">
<name><![CDATA[Wenslingen, Post]]></name>
<description><![CDATA[104 connections
]]></description>
<Point>
<coordinates>7.909910,47.439400</coordinates>
</Point>
</Placemark>
<Placemark id="pm9292">
<name><![CDATA[Tecknau]]></name>
<description><![CDATA[104 connections
]]></description>
<Point>
<coordinates>7.887610,47.445800</coordinates>
</Point>
</Placemark>
<Placemark id="pm4069">
<name><![CDATA[Tecknau, Post]]></name>
<description><![CDATA[104 connections
]]></description>
<Point>
<coordinates>7.882170,47.451300</coordinates>
</Point>
</Placemark>
<Placemark id="pm8949">
<name><![CDATA[Gelterkinden, Schwimmbad]]></name>
<description><![CDATA[104 connections
]]></description>
<Point>
<coordinates>7.865660,47.459400</coordinates>
</Point>
</Placemark>
<Placemark id="pm12748">
<name><![CDATA[Wenslingen, Hinterdorf]]></name>
<description><![CDATA[98 connections
]]></description>
<Point>
<coordinates>7.906610,47.441700</coordinates>
</Point>
</Placemark>
<Placemark id="pm8537">
<name><![CDATA[Hauenstein, Löwen]]></name>
<description><![CDATA[98 connections
]]></description>
<Point>
<coordinates>7.871620,47.377500</coordinates>
</Point>
</Placemark>
<Placemark id="pm9872">
<name><![CDATA[Tecknau, Bahnhof]]></name>
<description><![CDATA[92 connections
]]></description>
<Point>
<coordinates>7.887430,47.446300</coordinates>
</Point>
</Placemark>
<Placemark id="pm8217">
<name><![CDATA[Känerkinden, Dorf]]></name>
<description><![CDATA[90 connections
]]></description>
<Point>
<coordinates>7.837450,47.411800</coordinates>
</Point>
</Placemark>
<Placemark id="pm5759">
<name><![CDATA[Zeglingen, Post]]></name>
<description><![CDATA[88 connections
]]></description>
<Point>
<coordinates>7.903430,47.418100</coordinates>
</Point>
</Placemark>
<Placemark id="pm13427">
<name><![CDATA[Zeglingen, Giessenmatt]]></name>
<description><![CDATA[88 connections
]]></description>
<Point>
<coordinates>7.901470,47.421300</coordinates>
</Point>
</Placemark>
<Placemark id="pm7620">
<name><![CDATA[Kilchberg BL, Post]]></name>
<description><![CDATA[88 connections
]]></description>
<Point>
<coordinates>7.898200,47.426900</coordinates>
</Point>
</Placemark>
<Placemark id="pm11140">
<name><![CDATA[Rünenberg, Frohe Aussicht]]></name>
<description><![CDATA[88 connections
]]></description>
<Point>
<coordinates>7.884660,47.431700</coordinates>
</Point>
</Placemark>
<Placemark id="pm6153">
<name><![CDATA[Rünenberg, Post]]></name>
<description><![CDATA[88 connections
]]></description>
<Point>
<coordinates>7.884010,47.433900</coordinates>
</Point>
</Placemark>
</Document>
</kml>
