<?xml version="1.0" encoding="UTF-8"?>
<!-- KML Regionator 303:340M -->
<kml xmlns="http://earth.google.com/kml/2.1">
<Document>
<name>426 021130</name>
<Region>
<Lod>
<minLodPixels>256</minLodPixels>
<maxLodPixels>-1</maxLodPixels>
</Lod>
<LatLonAltBox>
<north>47.4609375</north>
<south>47.28515625</south>
<east>8.26171875</east>
<west>8.0859375</west>
</LatLonAltBox>
</Region>
<NetworkLink>
<name>0211300</name>
<Region>
<Lod>
<minLodPixels>256</minLodPixels>
<maxLodPixels>-1</maxLodPixels>
</Lod>
<LatLonAltBox>
<north>47.4609375</north>
<south>47.373046875</south>
<east>8.173828125</east>
<west>8.0859375</west>
</LatLonAltBox>
</Region>
<Link>
<href>427.kml</href>
<viewRefreshMode>onRegion</viewRefreshMode>
<viewFormat/>
</Link>
</NetworkLink>
<NetworkLink>
<name>0211301</name>
<Region>
<Lod>
<minLodPixels>256</minLodPixels>
<maxLodPixels>-1</maxLodPixels>
</Lod>
<LatLonAltBox>
<north>47.4609375</north>
<south>47.373046875</south>
<east>8.26171875</east>
<west>8.173828125</west>
</LatLonAltBox>
</Region>
<Link>
<href>432.kml</href>
<viewRefreshMode>onRegion</viewRefreshMode>
<viewFormat/>
</Link>
</NetworkLink>
<NetworkLink>
<name>0211302</name>
<Region>
<Lod>
<minLodPixels>256</minLodPixels>
<maxLodPixels>-1</maxLodPixels>
</Lod>
<LatLonAltBox>
<north>47.373046875</north>
<south>47.28515625</south>
<east>8.173828125</east>
<west>8.0859375</west>
</LatLonAltBox>
</Region>
<Link>
<href>437.kml</href>
<viewRefreshMode>onRegion</viewRefreshMode>
<viewFormat/>
</Link>
</NetworkLink>
<NetworkLink>
<name>0211303</name>
<Region>
<Lod>
<minLodPixels>256</minLodPixels>
<maxLodPixels>-1</maxLodPixels>
</Lod>
<LatLonAltBox>
<north>47.373046875</north>
<south>47.28515625</south>
<east>8.26171875</east>
<west>8.173828125</west>
</LatLonAltBox>
</Region>
<Link>
<href>438.kml</href>
<viewRefreshMode>onRegion</viewRefreshMode>
<viewFormat/>
</Link>
</NetworkLink>
<Placemark id="pm5171">
<name><![CDATA[Rupperswil]]></name>
<description><![CDATA[290 connections
]]></description>
<Point>
<coordinates>8.126950,47.403300</coordinates>
</Point>
</Placemark>
<Placemark id="pm7304">
<name><![CDATA[Lenzburg, Hypi]]></name>
<description><![CDATA[260 connections
]]></description>
<Point>
<coordinates>8.177630,47.386800</coordinates>
</Point>
</Placemark>
<Placemark id="pm15100">
<name><![CDATA[Möriken AG, Gemeindehaus]]></name>
<description><![CDATA[258 connections
]]></description>
<Point>
<coordinates>8.182010,47.415500</coordinates>
</Point>
</Placemark>
<Placemark id="pm5278">
<name><![CDATA[Veltheim AG, Post]]></name>
<description><![CDATA[252 connections
]]></description>
<Point>
<coordinates>8.150840,47.438200</coordinates>
</Point>
</Placemark>
<Placemark id="pm1548">
<name><![CDATA[Veltheim AG, Bären]]></name>
<description><![CDATA[252 connections
]]></description>
<Point>
<coordinates>8.147820,47.435800</coordinates>
</Point>
</Placemark>
<Placemark id="pm1851">
<name><![CDATA[Schinznach Dorf, Steinachbr.]]></name>
<description><![CDATA[252 connections
]]></description>
<Point>
<coordinates>8.147660,47.448600</coordinates>
</Point>
</Placemark>
<Placemark id="pm13589">
<name><![CDATA[Niederlenz, Dorfplatz]]></name>
<description><![CDATA[246 connections
]]></description>
<Point>
<coordinates>8.175180,47.401200</coordinates>
</Point>
</Placemark>
<Placemark id="pm3184">
<name><![CDATA[Schinznach Dorf, Oberdorf]]></name>
<description><![CDATA[241 connections
]]></description>
<Point>
<coordinates>8.137670,47.445300</coordinates>
</Point>
</Placemark>
<Placemark id="pm8915">
<name><![CDATA[Hägglingen, Mitteldorf]]></name>
<description><![CDATA[238 connections
]]></description>
<Point>
<coordinates>8.252360,47.380000</coordinates>
</Point>
</Placemark>
<Placemark id="pm3589">
<name><![CDATA[Hägglingen, Dottikerstrasse]]></name>
<description><![CDATA[238 connections
]]></description>
<Point>
<coordinates>8.251130,47.386700</coordinates>
</Point>
</Placemark>
<Placemark id="pm13886">
<name><![CDATA[Hägglingen, Dorfmatten]]></name>
<description><![CDATA[238 connections
]]></description>
<Point>
<coordinates>8.248470,47.385900</coordinates>
</Point>
</Placemark>
<Placemark id="pm4517">
<name><![CDATA[Schafisheim, Gemeindehaus]]></name>
<description><![CDATA[236 connections
]]></description>
<Point>
<coordinates>8.141740,47.377100</coordinates>
</Point>
</Placemark>
<Placemark id="pm8444">
<name><![CDATA[Oberkulm]]></name>
<description><![CDATA[236 connections
]]></description>
<Point>
<coordinates>8.124040,47.299100</coordinates>
</Point>
</Placemark>
<Placemark id="pm13965">
<name><![CDATA[Oberkulm Post]]></name>
<description><![CDATA[236 connections
]]></description>
<Point>
<coordinates>8.119410,47.304100</coordinates>
</Point>
</Placemark>
<Placemark id="pm1997">
<name><![CDATA[Unterkulm]]></name>
<description><![CDATA[236 connections
]]></description>
<Point>
<coordinates>8.115130,47.310100</coordinates>
</Point>
</Placemark>
<Placemark id="pm10220">
<name><![CDATA[Teufenthal AG]]></name>
<description><![CDATA[236 connections
]]></description>
<Point>
<coordinates>8.114470,47.329400</coordinates>
</Point>
</Placemark>
</Document>
</kml>
