<?xml version="1.0" encoding="UTF-8"?>
<!-- KML Regionator 303:340M -->
<kml xmlns="http://earth.google.com/kml/2.1">
<Document>
<name>429 02113001</name>
<Region>
<Lod>
<minLodPixels>256</minLodPixels>
<maxLodPixels>-1</maxLodPixels>
</Lod>
<LatLonAltBox>
<north>47.4609375</north>
<south>47.4169921875</south>
<east>8.173828125</east>
<west>8.1298828125</west>
</LatLonAltBox>
</Region>
<Placemark id="pm6221">
<name><![CDATA[Veltheim AG, Au]]></name>
<description><![CDATA[128 connections
]]></description>
<Point>
<coordinates>8.158880,47.420000</coordinates>
</Point>
</Placemark>
<Placemark id="pm4115">
<name><![CDATA[Veltheim AG, Vorerli]]></name>
<description><![CDATA[128 connections
]]></description>
<Point>
<coordinates>8.152760,47.433700</coordinates>
</Point>
</Placemark>
<Placemark id="pm6460">
<name><![CDATA[Schinznach Bad]]></name>
<description><![CDATA[126 connections
]]></description>
<Point>
<coordinates>8.166930,47.451800</coordinates>
</Point>
</Placemark>
<Placemark id="pm2805">
<name><![CDATA[Holderbank AG]]></name>
<description><![CDATA[126 connections
]]></description>
<Point>
<coordinates>8.166600,47.428600</coordinates>
</Point>
</Placemark>
<Placemark id="pm5641">
<name><![CDATA[Veltheim AG, Skin]]></name>
<description><![CDATA[124 connections
]]></description>
<Point>
<coordinates>8.141900,47.439400</coordinates>
</Point>
</Placemark>
<Placemark id="pm801">
<name><![CDATA[Auenstein, Hausacher]]></name>
<description><![CDATA[116 connections
]]></description>
<Point>
<coordinates>8.140950,47.417400</coordinates>
</Point>
</Placemark>
<Placemark id="pm6036">
<name><![CDATA[Auenstein, Obermatt]]></name>
<description><![CDATA[116 connections
]]></description>
<Point>
<coordinates>8.139320,47.419600</coordinates>
</Point>
</Placemark>
<Placemark id="pm1003">
<name><![CDATA[Auenstein, Eggen]]></name>
<description><![CDATA[116 connections
]]></description>
<Point>
<coordinates>8.135320,47.417600</coordinates>
</Point>
</Placemark>
<Placemark id="pm3927">
<name><![CDATA[Veltheim AG, Kirchgemeindehaus]]></name>
<description><![CDATA[72 connections
]]></description>
<Point>
<coordinates>8.146850,47.437800</coordinates>
</Point>
</Placemark>
</Document>
</kml>
