<?xml version="1.0" encoding="UTF-8"?>
<!-- KML Regionator 303:340M -->
<kml xmlns="http://earth.google.com/kml/2.1">
<Document>
<name>432 0211301</name>
<Region>
<Lod>
<minLodPixels>256</minLodPixels>
<maxLodPixels>-1</maxLodPixels>
</Lod>
<LatLonAltBox>
<north>47.4609375</north>
<south>47.373046875</south>
<east>8.26171875</east>
<west>8.173828125</west>
</LatLonAltBox>
</Region>
<NetworkLink>
<name>02113010</name>
<Region>
<Lod>
<minLodPixels>256</minLodPixels>
<maxLodPixels>-1</maxLodPixels>
</Lod>
<LatLonAltBox>
<north>47.4609375</north>
<south>47.4169921875</south>
<east>8.2177734375</east>
<west>8.173828125</west>
</LatLonAltBox>
</Region>
<Link>
<href>433.kml</href>
<viewRefreshMode>onRegion</viewRefreshMode>
<viewFormat/>
</Link>
</NetworkLink>
<NetworkLink>
<name>02113011</name>
<Region>
<Lod>
<minLodPixels>256</minLodPixels>
<maxLodPixels>-1</maxLodPixels>
</Lod>
<LatLonAltBox>
<north>47.4609375</north>
<south>47.4169921875</south>
<east>8.26171875</east>
<west>8.2177734375</west>
</LatLonAltBox>
</Region>
<Link>
<href>434.kml</href>
<viewRefreshMode>onRegion</viewRefreshMode>
<viewFormat/>
</Link>
</NetworkLink>
<NetworkLink>
<name>02113012</name>
<Region>
<Lod>
<minLodPixels>256</minLodPixels>
<maxLodPixels>-1</maxLodPixels>
</Lod>
<LatLonAltBox>
<north>47.4169921875</north>
<south>47.373046875</south>
<east>8.2177734375</east>
<west>8.173828125</west>
</LatLonAltBox>
</Region>
<Link>
<href>435.kml</href>
<viewRefreshMode>onRegion</viewRefreshMode>
<viewFormat/>
</Link>
</NetworkLink>
<NetworkLink>
<name>02113013</name>
<Region>
<Lod>
<minLodPixels>256</minLodPixels>
<maxLodPixels>-1</maxLodPixels>
</Lod>
<LatLonAltBox>
<north>47.4169921875</north>
<south>47.373046875</south>
<east>8.26171875</east>
<west>8.2177734375</west>
</LatLonAltBox>
</Region>
<Link>
<href>436.kml</href>
<viewRefreshMode>onRegion</viewRefreshMode>
<viewFormat/>
</Link>
</NetworkLink>
<Placemark id="pm13443">
<name><![CDATA[Dottikon, Sternenplatz]]></name>
<description><![CDATA[230 connections
]]></description>
<Point>
<coordinates>8.240500,47.384100</coordinates>
</Point>
</Placemark>
<Placemark id="pm3373">
<name><![CDATA[Othmarsingen]]></name>
<description><![CDATA[222 connections
]]></description>
<Point>
<coordinates>8.214790,47.407400</coordinates>
</Point>
</Placemark>
<Placemark id="pm1181">
<name><![CDATA[Hausen AG, Stollen]]></name>
<description><![CDATA[220 connections
]]></description>
<Point>
<coordinates>8.214070,47.456000</coordinates>
</Point>
</Placemark>
<Placemark id="pm4344">
<name><![CDATA[Hausen AG, Post]]></name>
<description><![CDATA[220 connections
]]></description>
<Point>
<coordinates>8.212780,47.458500</coordinates>
</Point>
</Placemark>
<Placemark id="pm13157">
<name><![CDATA[Lupfig, Bahnhof]]></name>
<description><![CDATA[220 connections
]]></description>
<Point>
<coordinates>8.212560,47.443900</coordinates>
</Point>
</Placemark>
<Placemark id="pm4343">
<name><![CDATA[Birr, Wyden]]></name>
<description><![CDATA[220 connections
]]></description>
<Point>
<coordinates>8.211470,47.437200</coordinates>
</Point>
</Placemark>
<Placemark id="pm10852">
<name><![CDATA[Lupfig, Trotte]]></name>
<description><![CDATA[220 connections
]]></description>
<Point>
<coordinates>8.204900,47.441200</coordinates>
</Point>
</Placemark>
<Placemark id="pm12656">
<name><![CDATA[Birr, Vorderdorf]]></name>
<description><![CDATA[220 connections
]]></description>
<Point>
<coordinates>8.202840,47.436100</coordinates>
</Point>
</Placemark>
<Placemark id="pm13499">
<name><![CDATA[Lupfig, Dorfstrasse]]></name>
<description><![CDATA[220 connections
]]></description>
<Point>
<coordinates>8.201580,47.441000</coordinates>
</Point>
</Placemark>
<Placemark id="pm332">
<name><![CDATA[Lupfig, Frohsinn]]></name>
<description><![CDATA[220 connections
]]></description>
<Point>
<coordinates>8.199230,47.438800</coordinates>
</Point>
</Placemark>
<Placemark id="pm4376">
<name><![CDATA[Dottikon-Dintikon]]></name>
<description><![CDATA[196 connections
]]></description>
<Point>
<coordinates>8.234690,47.373700</coordinates>
</Point>
</Placemark>
<Placemark id="pm8352">
<name><![CDATA[Hendschiken]]></name>
<description><![CDATA[186 connections
]]></description>
<Point>
<coordinates>8.207380,47.389400</coordinates>
</Point>
</Placemark>
<Placemark id="pm12277">
<name><![CDATA[Mägenwil, Dorf]]></name>
<description><![CDATA[168 connections
]]></description>
<Point>
<coordinates>8.235000,47.414700</coordinates>
</Point>
</Placemark>
<Placemark id="pm9557">
<name><![CDATA[Wohlenschwil, Mühlematten]]></name>
<description><![CDATA[162 connections
]]></description>
<Point>
<coordinates>8.260140,47.412800</coordinates>
</Point>
</Placemark>
<Placemark id="pm4025">
<name><![CDATA[Büblikon, Rössli]]></name>
<description><![CDATA[162 connections
]]></description>
<Point>
<coordinates>8.258210,47.416400</coordinates>
</Point>
</Placemark>
<Placemark id="pm9952">
<name><![CDATA[Wohlenschwil, Post]]></name>
<description><![CDATA[162 connections
]]></description>
<Point>
<coordinates>8.256170,47.412800</coordinates>
</Point>
</Placemark>
</Document>
</kml>
