<?xml version="1.0" encoding="UTF-8"?>
<!-- KML Regionator 303:340M -->
<kml xmlns="http://earth.google.com/kml/2.1">
<Document>
<name>53 02030333</name>
<Region>
<Lod>
<minLodPixels>256</minLodPixels>
<maxLodPixels>-1</maxLodPixels>
</Lod>
<LatLonAltBox>
<north>46.8017578125</north>
<south>46.7578125</south>
<east>6.6796875</east>
<west>6.6357421875</west>
</LatLonAltBox>
</Region>
<Placemark id="pm3460">
<name><![CDATA[Cheseaux-Noréaz, CESSNOV]]></name>
<description><![CDATA[20 connections
]]></description>
<Point>
<coordinates>6.668150,46.780300</coordinates>
</Point>
</Placemark>
<Placemark id="pm3839">
<name><![CDATA[Cheseaux-Noréaz, village]]></name>
<description><![CDATA[14 connections
]]></description>
<Point>
<coordinates>6.676800,46.784400</coordinates>
</Point>
</Placemark>
<Placemark id="pm1762">
<name><![CDATA[Cheseaux-Noréaz, Le Pré]]></name>
<description><![CDATA[14 connections
]]></description>
<Point>
<coordinates>6.673350,46.782800</coordinates>
</Point>
</Placemark>
<Placemark id="pm10364">
<name><![CDATA[Yverdon, La Villette]]></name>
<description><![CDATA[14 connections
]]></description>
<Point>
<coordinates>6.657890,46.779100</coordinates>
</Point>
</Placemark>
<Placemark id="pm9940">
<name><![CDATA[Yverdon, CESSNOV]]></name>
<description><![CDATA[9 connections
]]></description>
<Point>
<coordinates>6.666070,46.779400</coordinates>
</Point>
</Placemark>
<Placemark id="pm437">
<name><![CDATA[Yverdon-les-Bains LNM]]></name>
<description><![CDATA[4 connections
]]></description>
<Point>
<coordinates>6.649280,46.786200</coordinates>
</Point>
</Placemark>
</Document>
</kml>
