<?xml version="1.0" encoding="UTF-8"?>
<!-- KML Regionator 303:340M -->
<kml xmlns="http://earth.google.com/kml/2.1">
<Document>
<name>637 02121302</name>
<Region>
<Lod>
<minLodPixels>256</minLodPixels>
<maxLodPixels>-1</maxLodPixels>
</Lod>
<LatLonAltBox>
<north>46.8896484375</north>
<south>46.845703125</south>
<east>7.6025390625</east>
<west>7.55859375</west>
</LatLonAltBox>
</Region>
<NetworkLink>
<name>021213020</name>
<Region>
<Lod>
<minLodPixels>256</minLodPixels>
<maxLodPixels>-1</maxLodPixels>
</Lod>
<LatLonAltBox>
<north>46.8896484375</north>
<south>46.86767578125</south>
<east>7.58056640625</east>
<west>7.55859375</west>
</LatLonAltBox>
</Region>
<Link>
<href>638.kml</href>
<viewRefreshMode>onRegion</viewRefreshMode>
<viewFormat/>
</Link>
</NetworkLink>
<NetworkLink>
<name>021213021</name>
<Region>
<Lod>
<minLodPixels>256</minLodPixels>
<maxLodPixels>-1</maxLodPixels>
</Lod>
<LatLonAltBox>
<north>46.8896484375</north>
<south>46.86767578125</south>
<east>7.6025390625</east>
<west>7.58056640625</west>
</LatLonAltBox>
</Region>
<Link>
<href>639.kml</href>
<viewRefreshMode>onRegion</viewRefreshMode>
<viewFormat/>
</Link>
</NetworkLink>
<NetworkLink>
<name>021213022</name>
<Region>
<Lod>
<minLodPixels>256</minLodPixels>
<maxLodPixels>-1</maxLodPixels>
</Lod>
<LatLonAltBox>
<north>46.86767578125</north>
<south>46.845703125</south>
<east>7.58056640625</east>
<west>7.55859375</west>
</LatLonAltBox>
</Region>
<Link>
<href>640.kml</href>
<viewRefreshMode>onRegion</viewRefreshMode>
<viewFormat/>
</Link>
</NetworkLink>
<Placemark id="pm4458">
<name><![CDATA[Münsingen, Neuhaus]]></name>
<description><![CDATA[90 connections
]]></description>
<Point>
<coordinates>7.565840,46.860200</coordinates>
</Point>
</Placemark>
<Placemark id="pm3341">
<name><![CDATA[Münsingen, Industrie/USM]]></name>
<description><![CDATA[90 connections
]]></description>
<Point>
<coordinates>7.564550,46.866700</coordinates>
</Point>
</Placemark>
<Placemark id="pm1325">
<name><![CDATA[Münsingen, Aeschistrasse]]></name>
<description><![CDATA[90 connections
]]></description>
<Point>
<coordinates>7.561930,46.869200</coordinates>
</Point>
</Placemark>
<Placemark id="pm12349">
<name><![CDATA[Münsingen, Ochsen]]></name>
<description><![CDATA[88 connections
]]></description>
<Point>
<coordinates>7.562860,46.875400</coordinates>
</Point>
</Placemark>
<Placemark id="pm9531">
<name><![CDATA[Münsingen, Schützenhaus]]></name>
<description><![CDATA[80 connections
]]></description>
<Point>
<coordinates>7.568360,46.881700</coordinates>
</Point>
</Placemark>
<Placemark id="pm5625">
<name><![CDATA[Münsingen, Sonnhalde]]></name>
<description><![CDATA[80 connections
]]></description>
<Point>
<coordinates>7.567690,46.879700</coordinates>
</Point>
</Placemark>
<Placemark id="pm911">
<name><![CDATA[Münsingen, Trimsteinstrasse]]></name>
<description><![CDATA[80 connections
]]></description>
<Point>
<coordinates>7.567480,46.883200</coordinates>
</Point>
</Placemark>
<Placemark id="pm2296">
<name><![CDATA[Münsingen, Juraweg]]></name>
<description><![CDATA[80 connections
]]></description>
<Point>
<coordinates>7.567090,46.881400</coordinates>
</Point>
</Placemark>
<Placemark id="pm4352">
<name><![CDATA[Münsingen, Kapellenweg]]></name>
<description><![CDATA[80 connections
]]></description>
<Point>
<coordinates>7.566310,46.878600</coordinates>
</Point>
</Placemark>
<Placemark id="pm15031">
<name><![CDATA[Münsingen, Rosenweg]]></name>
<description><![CDATA[80 connections
]]></description>
<Point>
<coordinates>7.566200,46.876700</coordinates>
</Point>
</Placemark>
<Placemark id="pm10706">
<name><![CDATA[Münsingen, Bärenstutz]]></name>
<description><![CDATA[80 connections
]]></description>
<Point>
<coordinates>7.565050,46.880800</coordinates>
</Point>
</Placemark>
<Placemark id="pm8078">
<name><![CDATA[Münsingen, Bärenmatte]]></name>
<description><![CDATA[80 connections
]]></description>
<Point>
<coordinates>7.562060,46.879100</coordinates>
</Point>
</Placemark>
<Placemark id="pm4538">
<name><![CDATA[Münsingen, Chäsi]]></name>
<description><![CDATA[80 connections
]]></description>
<Point>
<coordinates>7.562010,46.876800</coordinates>
</Point>
</Placemark>
<Placemark id="pm1808">
<name><![CDATA[Münsingen, Friedhof]]></name>
<description><![CDATA[70 connections
]]></description>
<Point>
<coordinates>7.559830,46.881500</coordinates>
</Point>
</Placemark>
<Placemark id="pm7596">
<name><![CDATA[Münsingen, Höheacker]]></name>
<description><![CDATA[68 connections
]]></description>
<Point>
<coordinates>7.571190,46.871500</coordinates>
</Point>
</Placemark>
<Placemark id="pm11949">
<name><![CDATA[Münsingen, Schöneggweg]]></name>
<description><![CDATA[68 connections
]]></description>
<Point>
<coordinates>7.567560,46.875200</coordinates>
</Point>
</Placemark>
</Document>
</kml>
