<?xml version="1.0" encoding="UTF-8"?>
<!-- KML Regionator 303:340M -->
<kml xmlns="http://earth.google.com/kml/2.1">
<Document>
<name>656 0212201</name>
<Region>
<Lod>
<minLodPixels>256</minLodPixels>
<maxLodPixels>-1</maxLodPixels>
</Lod>
<LatLonAltBox>
<north>46.7578125</north>
<south>46.669921875</south>
<east>7.20703125</east>
<west>7.119140625</west>
</LatLonAltBox>
</Region>
<Placemark id="pm8363">
<name><![CDATA[St. Silvester, Abzw.]]></name>
<description><![CDATA[70 connections
]]></description>
<Point>
<coordinates>7.204380,46.749300</coordinates>
</Point>
</Placemark>
<Placemark id="pm782">
<name><![CDATA[Ependes FR, poste]]></name>
<description><![CDATA[44 connections
]]></description>
<Point>
<coordinates>7.145470,46.753700</coordinates>
</Point>
</Placemark>
<Placemark id="pm5990">
<name><![CDATA[Arconciel, poste]]></name>
<description><![CDATA[44 connections
]]></description>
<Point>
<coordinates>7.123270,46.744600</coordinates>
</Point>
</Placemark>
<Placemark id="pm13595">
<name><![CDATA[Treyvaux, village]]></name>
<description><![CDATA[35 connections
]]></description>
<Point>
<coordinates>7.136460,46.726700</coordinates>
</Point>
</Placemark>
<Placemark id="pm13903">
<name><![CDATA[Bonnefontaine, bif.]]></name>
<description><![CDATA[26 connections
]]></description>
<Point>
<coordinates>7.195240,46.745700</coordinates>
</Point>
</Placemark>
<Placemark id="pm8567">
<name><![CDATA[Praroman-Le Mouret, village]]></name>
<description><![CDATA[26 connections
]]></description>
<Point>
<coordinates>7.182150,46.745700</coordinates>
</Point>
</Placemark>
<Placemark id="pm7467">
<name><![CDATA[Bonnefontaine, village]]></name>
<description><![CDATA[13 connections
]]></description>
<Point>
<coordinates>7.199190,46.740300</coordinates>
</Point>
</Placemark>
</Document>
</kml>
