<?xml version="1.0" encoding="UTF-8"?>
<!-- KML Regionator 303:340M -->
<kml xmlns="http://earth.google.com/kml/2.1">
<Document>
<name>662 0212203</name>
<Region>
<Lod>
<minLodPixels>256</minLodPixels>
<maxLodPixels>-1</maxLodPixels>
</Lod>
<LatLonAltBox>
<north>46.669921875</north>
<south>46.58203125</south>
<east>7.20703125</east>
<west>7.119140625</west>
</LatLonAltBox>
</Region>
<Placemark id="pm9217">
<name><![CDATA[Charmey (Gruyère), poste]]></name>
<description><![CDATA[82 connections
]]></description>
<Point>
<coordinates>7.164480,46.617900</coordinates>
</Point>
</Placemark>
<Placemark id="pm5992">
<name><![CDATA[Crésuz, halte]]></name>
<description><![CDATA[82 connections
]]></description>
<Point>
<coordinates>7.141640,46.617000</coordinates>
</Point>
</Placemark>
<Placemark id="pm9247">
<name><![CDATA[Châtel-sur-Montsalvens, Rest.]]></name>
<description><![CDATA[81 connections
]]></description>
<Point>
<coordinates>7.129980,46.614100</coordinates>
</Point>
</Placemark>
<Placemark id="pm8689">
<name><![CDATA[La Valsainte, anc. poste]]></name>
<description><![CDATA[26 connections
]]></description>
<Point>
<coordinates>7.172190,46.642400</coordinates>
</Point>
</Placemark>
<Placemark id="pm334">
<name><![CDATA[Cerniat FR, Les Riaux]]></name>
<description><![CDATA[26 connections
]]></description>
<Point>
<coordinates>7.166630,46.643800</coordinates>
</Point>
</Placemark>
<Placemark id="pm8527">
<name><![CDATA[Cerniat FR, L'Adde]]></name>
<description><![CDATA[26 connections
]]></description>
<Point>
<coordinates>7.165670,46.641500</coordinates>
</Point>
</Placemark>
<Placemark id="pm3106">
<name><![CDATA[Cerniat FR, village]]></name>
<description><![CDATA[26 connections
]]></description>
<Point>
<coordinates>7.158540,46.631200</coordinates>
</Point>
</Placemark>
<Placemark id="pm3552">
<name><![CDATA[La Valsainte, Couvent]]></name>
<description><![CDATA[13 connections
]]></description>
<Point>
<coordinates>7.188160,46.649200</coordinates>
</Point>
</Placemark>
</Document>
</kml>
