<?xml version="1.0" encoding="UTF-8"?>
<!-- KML Regionator 303:340M -->
<kml xmlns="http://earth.google.com/kml/2.1">
<Document>
<name>823 022010</name>
<Region>
<Lod>
<minLodPixels>256</minLodPixels>
<maxLodPixels>-1</maxLodPixels>
</Lod>
<LatLonAltBox>
<north>46.40625</north>
<south>46.23046875</south>
<east>6.15234375</east>
<west>5.9765625</west>
</LatLonAltBox>
</Region>
<NetworkLink>
<name>0220102</name>
<Region>
<Lod>
<minLodPixels>256</minLodPixels>
<maxLodPixels>-1</maxLodPixels>
</Lod>
<LatLonAltBox>
<north>46.318359375</north>
<south>46.23046875</south>
<east>6.064453125</east>
<west>5.9765625</west>
</LatLonAltBox>
</Region>
<Link>
<href>824.kml</href>
<viewRefreshMode>onRegion</viewRefreshMode>
<viewFormat/>
</Link>
</NetworkLink>
<Placemark id="pm5303">
<name><![CDATA[Genève-Aéroport]]></name>
<description><![CDATA[176 connections
]]></description>
<Point>
<coordinates>6.111970,46.232500</coordinates>
</Point>
</Placemark>
<Placemark id="pm10802">
<name><![CDATA[Meyrin, CERN]]></name>
<description><![CDATA[156 connections
]]></description>
<Point>
<coordinates>6.052820,46.233700</coordinates>
</Point>
</Placemark>
<Placemark id="pm14333">
<name><![CDATA[St-Genis, Centre Jean-Monnet]]></name>
<description><![CDATA[156 connections
]]></description>
<Point>
<coordinates>6.021430,46.244100</coordinates>
</Point>
</Placemark>
<Placemark id="pm11001">
<name><![CDATA[Sergy, bourg]]></name>
<description><![CDATA[156 connections
]]></description>
<Point>
<coordinates>5.997880,46.251900</coordinates>
</Point>
</Placemark>
<Placemark id="pm1383">
<name><![CDATA[Thoiry, mairie]]></name>
<description><![CDATA[156 connections
]]></description>
<Point>
<coordinates>5.980140,46.236400</coordinates>
</Point>
</Placemark>
<Placemark id="pm8468">
<name><![CDATA[Les Tuileries]]></name>
<description><![CDATA[140 connections
]]></description>
<Point>
<coordinates>6.147320,46.249900</coordinates>
</Point>
</Placemark>
<Placemark id="pm13887">
<name><![CDATA[Chambésy]]></name>
<description><![CDATA[140 connections
]]></description>
<Point>
<coordinates>6.147320,46.242400</coordinates>
</Point>
</Placemark>
<Placemark id="pm6130">
<name><![CDATA[Bossy]]></name>
<description><![CDATA[124 connections
]]></description>
<Point>
<coordinates>6.115240,46.279500</coordinates>
</Point>
</Placemark>
<Placemark id="pm14778">
<name><![CDATA[Ségny]]></name>
<description><![CDATA[112 connections
]]></description>
<Point>
<coordinates>6.073270,46.297000</coordinates>
</Point>
</Placemark>
<Placemark id="pm10463">
<name><![CDATA[Gex, poste]]></name>
<description><![CDATA[112 connections
]]></description>
<Point>
<coordinates>6.056810,46.331800</coordinates>
</Point>
</Placemark>
<Placemark id="pm6795">
<name><![CDATA[Cessy, centre]]></name>
<description><![CDATA[100 connections
]]></description>
<Point>
<coordinates>6.070140,46.318500</coordinates>
</Point>
</Placemark>
<Placemark id="pm2420">
<name><![CDATA[La Rippe]]></name>
<description><![CDATA[83 connections
]]></description>
<Point>
<coordinates>6.151750,46.381500</coordinates>
</Point>
</Placemark>
<Placemark id="pm2818">
<name><![CDATA[Gex, ZAC]]></name>
<description><![CDATA[56 connections
]]></description>
<Point>
<coordinates>6.065790,46.336400</coordinates>
</Point>
</Placemark>
<Placemark id="pm11780">
<name><![CDATA[Divonne, gare]]></name>
<description><![CDATA[45 connections
]]></description>
<Point>
<coordinates>6.135540,46.352600</coordinates>
</Point>
</Placemark>
<Placemark id="pm14889">
<name><![CDATA[Chavannes-des-Bois]]></name>
<description><![CDATA[45 connections
]]></description>
<Point>
<coordinates>6.133160,46.332900</coordinates>
</Point>
</Placemark>
<Placemark id="pm6046">
<name><![CDATA[Tougin]]></name>
<description><![CDATA[12 connections
]]></description>
<Point>
<coordinates>6.055790,46.321000</coordinates>
</Point>
</Placemark>
</Document>
</kml>
