<?xml version="1.0" encoding="UTF-8"?>
<!-- KML Regionator 303:340M -->
<kml xmlns="http://earth.google.com/kml/2.1">
<Document>
<name>844 022110</name>
<Region>
<Lod>
<minLodPixels>256</minLodPixels>
<maxLodPixels>-1</maxLodPixels>
</Lod>
<LatLonAltBox>
<north>46.40625</north>
<south>46.23046875</south>
<east>6.85546875</east>
<west>6.6796875</west>
</LatLonAltBox>
</Region>
<Placemark id="pm686">
<name><![CDATA[Bouveret, village]]></name>
<description><![CDATA[66 connections
]]></description>
<Point>
<coordinates>6.853780,46.384200</coordinates>
</Point>
</Placemark>
<Placemark id="pm7128">
<name><![CDATA[Bouveret, école des Missions]]></name>
<description><![CDATA[66 connections
]]></description>
<Point>
<coordinates>6.853140,46.386200</coordinates>
</Point>
</Placemark>
<Placemark id="pm9277">
<name><![CDATA[St-Gingolph, Villa Eugénie]]></name>
<description><![CDATA[66 connections
]]></description>
<Point>
<coordinates>6.825160,46.386400</coordinates>
</Point>
</Placemark>
<Placemark id="pm5672">
<name><![CDATA[St-Gingolph (Suisse)]]></name>
<description><![CDATA[55 connections
]]></description>
<Point>
<coordinates>6.805880,46.391900</coordinates>
</Point>
</Placemark>
<Placemark id="pm3170">
<name><![CDATA[Bouveret CGN]]></name>
<description><![CDATA[45 connections
]]></description>
<Point>
<coordinates>6.851460,46.387500</coordinates>
</Point>
</Placemark>
<Placemark id="pm1968">
<name><![CDATA[Bouveret]]></name>
<description><![CDATA[44 connections
]]></description>
<Point>
<coordinates>6.853230,46.385800</coordinates>
</Point>
</Placemark>
<Placemark id="pm12162">
<name><![CDATA[St-Gingolph (Suisse) CGN]]></name>
<description><![CDATA[39 connections
]]></description>
<Point>
<coordinates>6.804620,46.394300</coordinates>
</Point>
</Placemark>
<Placemark id="pm9922">
<name><![CDATA[Le Flon, village]]></name>
<description><![CDATA[38 connections
]]></description>
<Point>
<coordinates>6.853460,46.337400</coordinates>
</Point>
</Placemark>
<Placemark id="pm7068">
<name><![CDATA[Morgins, poste]]></name>
<description><![CDATA[29 connections
]]></description>
<Point>
<coordinates>6.855260,46.237100</coordinates>
</Point>
</Placemark>
<Placemark id="pm5136">
<name><![CDATA[Miex, Le Flon]]></name>
<description><![CDATA[19 connections
]]></description>
<Point>
<coordinates>6.849900,46.338200</coordinates>
</Point>
</Placemark>
<Placemark id="pm10113">
<name><![CDATA[Morgins, garage communal]]></name>
<description><![CDATA[8 connections
]]></description>
<Point>
<coordinates>6.851360,46.238000</coordinates>
</Point>
</Placemark>
</Document>
</kml>
