<?xml version="1.0" encoding="UTF-8"?>
<!-- KML Regionator 303:340M -->
<kml xmlns="http://earth.google.com/kml/2.1">
<Document>
<name>999 0231021</name>
<Region>
<Lod>
<minLodPixels>256</minLodPixels>
<maxLodPixels>-1</maxLodPixels>
</Lod>
<LatLonAltBox>
<north>46.23046875</north>
<south>46.142578125</south>
<east>7.91015625</east>
<west>7.822265625</west>
</LatLonAltBox>
</Region>
<NetworkLink>
<name>02310210</name>
<Region>
<Lod>
<minLodPixels>256</minLodPixels>
<maxLodPixels>-1</maxLodPixels>
</Lod>
<LatLonAltBox>
<north>46.23046875</north>
<south>46.1865234375</south>
<east>7.8662109375</east>
<west>7.822265625</west>
</LatLonAltBox>
</Region>
<Link>
<href>1000.kml</href>
<viewRefreshMode>onRegion</viewRefreshMode>
<viewFormat/>
</Link>
</NetworkLink>
<NetworkLink>
<name>02310211</name>
<Region>
<Lod>
<minLodPixels>256</minLodPixels>
<maxLodPixels>-1</maxLodPixels>
</Lod>
<LatLonAltBox>
<north>46.23046875</north>
<south>46.1865234375</south>
<east>7.91015625</east>
<west>7.8662109375</west>
</LatLonAltBox>
</Region>
<Link>
<href>1001.kml</href>
<viewRefreshMode>onRegion</viewRefreshMode>
<viewFormat/>
</Link>
</NetworkLink>
<NetworkLink>
<name>02310212</name>
<Region>
<Lod>
<minLodPixels>256</minLodPixels>
<maxLodPixels>-1</maxLodPixels>
</Lod>
<LatLonAltBox>
<north>46.1865234375</north>
<south>46.142578125</south>
<east>7.8662109375</east>
<west>7.822265625</west>
</LatLonAltBox>
</Region>
<Link>
<href>1002.kml</href>
<viewRefreshMode>onRegion</viewRefreshMode>
<viewFormat/>
</Link>
</NetworkLink>
<Placemark id="pm1499">
<name><![CDATA[Eisten, Bodenbrücke]]></name>
<description><![CDATA[70 connections
]]></description>
<Point>
<coordinates>7.907050,46.178800</coordinates>
</Point>
</Placemark>
<Placemark id="pm7251">
<name><![CDATA[Huteggen]]></name>
<description><![CDATA[70 connections
]]></description>
<Point>
<coordinates>7.903250,46.184300</coordinates>
</Point>
</Placemark>
<Placemark id="pm7848">
<name><![CDATA[Eisten, Ahorn]]></name>
<description><![CDATA[70 connections
]]></description>
<Point>
<coordinates>7.899860,46.190100</coordinates>
</Point>
</Placemark>
<Placemark id="pm6762">
<name><![CDATA[Eisten, Randfluh]]></name>
<description><![CDATA[70 connections
]]></description>
<Point>
<coordinates>7.898720,46.191600</coordinates>
</Point>
</Placemark>
<Placemark id="pm6217">
<name><![CDATA[Eisten, Zen Eisten]]></name>
<description><![CDATA[70 connections
]]></description>
<Point>
<coordinates>7.896530,46.195300</coordinates>
</Point>
</Placemark>
<Placemark id="pm8723">
<name><![CDATA[Eisten, Post]]></name>
<description><![CDATA[70 connections
]]></description>
<Point>
<coordinates>7.892610,46.200600</coordinates>
</Point>
</Placemark>
<Placemark id="pm5687">
<name><![CDATA[Eisten, Fluhbalmen]]></name>
<description><![CDATA[70 connections
]]></description>
<Point>
<coordinates>7.888050,46.206400</coordinates>
</Point>
</Placemark>
<Placemark id="pm5025">
<name><![CDATA[Eisten, Raftgarten]]></name>
<description><![CDATA[70 connections
]]></description>
<Point>
<coordinates>7.886240,46.211000</coordinates>
</Point>
</Placemark>
<Placemark id="pm7588">
<name><![CDATA[Resti]]></name>
<description><![CDATA[70 connections
]]></description>
<Point>
<coordinates>7.879220,46.218500</coordinates>
</Point>
</Placemark>
<Placemark id="pm10368">
<name><![CDATA[Stalden VS, Pollern]]></name>
<description><![CDATA[70 connections
]]></description>
<Point>
<coordinates>7.877100,46.220700</coordinates>
</Point>
</Placemark>
<Placemark id="pm5407">
<name><![CDATA[Stalden VS, Bärgji]]></name>
<description><![CDATA[70 connections
]]></description>
<Point>
<coordinates>7.874630,46.223400</coordinates>
</Point>
</Placemark>
<Placemark id="pm10112">
<name><![CDATA[Stalden VS, Weng]]></name>
<description><![CDATA[68 connections
]]></description>
<Point>
<coordinates>7.863800,46.230200</coordinates>
</Point>
</Placemark>
<Placemark id="pm7793">
<name><![CDATA[Stalden VS, Merjen]]></name>
<description><![CDATA[68 connections
]]></description>
<Point>
<coordinates>7.861600,46.229100</coordinates>
</Point>
</Placemark>
<Placemark id="pm1172">
<name><![CDATA[Stalden VS, Walchgraben]]></name>
<description><![CDATA[68 connections
]]></description>
<Point>
<coordinates>7.858440,46.229900</coordinates>
</Point>
</Placemark>
<Placemark id="pm11282">
<name><![CDATA[Stalden VS, Grossacker]]></name>
<description><![CDATA[68 connections
]]></description>
<Point>
<coordinates>7.857890,46.228100</coordinates>
</Point>
</Placemark>
<Placemark id="pm7344">
<name><![CDATA[Stalden VS, Mühlebach]]></name>
<description><![CDATA[68 connections
]]></description>
<Point>
<coordinates>7.854290,46.227200</coordinates>
</Point>
</Placemark>
</Document>
</kml>
