<?xml version="1.0" encoding="UTF-8"?>
<!-- KML Regionator 303:340M -->
<kml xmlns="http://earth.google.com/kml/2.1">
<Document>
<name>1017 03000</name>
<Region>
<Lod>
<minLodPixels>256</minLodPixels>
<maxLodPixels>-1</maxLodPixels>
</Lod>
<LatLonAltBox>
<north>47.8125</north>
<south>47.4609375</south>
<east>8.7890625</east>
<west>8.4375</west>
</LatLonAltBox>
</Region>
<NetworkLink>
<name>030000</name>
<Region>
<Lod>
<minLodPixels>256</minLodPixels>
<maxLodPixels>-1</maxLodPixels>
</Lod>
<LatLonAltBox>
<north>47.8125</north>
<south>47.63671875</south>
<east>8.61328125</east>
<west>8.4375</west>
</LatLonAltBox>
</Region>
<Link>
<href>1018.kml</href>
<viewRefreshMode>onRegion</viewRefreshMode>
<viewFormat/>
</Link>
</NetworkLink>
<NetworkLink>
<name>030001</name>
<Region>
<Lod>
<minLodPixels>256</minLodPixels>
<maxLodPixels>-1</maxLodPixels>
</Lod>
<LatLonAltBox>
<north>47.8125</north>
<south>47.63671875</south>
<east>8.7890625</east>
<west>8.61328125</west>
</LatLonAltBox>
</Region>
<Link>
<href>1023.kml</href>
<viewRefreshMode>onRegion</viewRefreshMode>
<viewFormat/>
</Link>
</NetworkLink>
<NetworkLink>
<name>030002</name>
<Region>
<Lod>
<minLodPixels>256</minLodPixels>
<maxLodPixels>-1</maxLodPixels>
</Lod>
<LatLonAltBox>
<north>47.63671875</north>
<south>47.4609375</south>
<east>8.61328125</east>
<west>8.4375</west>
</LatLonAltBox>
</Region>
<Link>
<href>1032.kml</href>
<viewRefreshMode>onRegion</viewRefreshMode>
<viewFormat/>
</Link>
</NetworkLink>
<NetworkLink>
<name>030003</name>
<Region>
<Lod>
<minLodPixels>256</minLodPixels>
<maxLodPixels>-1</maxLodPixels>
</Lod>
<LatLonAltBox>
<north>47.63671875</north>
<south>47.4609375</south>
<east>8.7890625</east>
<west>8.61328125</west>
</LatLonAltBox>
</Region>
<Link>
<href>1053.kml</href>
<viewRefreshMode>onRegion</viewRefreshMode>
<viewFormat/>
</Link>
</NetworkLink>
<Placemark id="pm13951">
<name><![CDATA[Neuhausen]]></name>
<description><![CDATA[498 connections
]]></description>
<styleUrl>../style/style.kml#station_icon</styleUrl>
<Point>
<coordinates>8.624910,47.683200</coordinates>
</Point>
</Placemark>
<Placemark id="pm9599">
<name><![CDATA[Neuhausen, Rheinhof]]></name>
<description><![CDATA[498 connections
]]></description>
<styleUrl>../style/style.kml#station_icon</styleUrl>
<Point>
<coordinates>8.617900,47.682400</coordinates>
</Point>
</Placemark>
<Placemark id="pm9821">
<name><![CDATA[Beringen, Sonne]]></name>
<description><![CDATA[489 connections
]]></description>
<styleUrl>../style/style.kml#station_icon</styleUrl>
<Point>
<coordinates>8.574880,47.696900</coordinates>
</Point>
</Placemark>
<Placemark id="pm3717">
<name><![CDATA[Beringen, Enge]]></name>
<description><![CDATA[468 connections
]]></description>
<styleUrl>../style/style.kml#station_icon</styleUrl>
<Point>
<coordinates>8.601430,47.694700</coordinates>
</Point>
</Placemark>
<Placemark id="pm8764">
<name><![CDATA[Bülach, Gewerbehaus]]></name>
<description><![CDATA[454 connections
]]></description>
<styleUrl>../style/style.kml#station_icon</styleUrl>
<Point>
<coordinates>8.539220,47.518600</coordinates>
</Point>
</Placemark>
<Placemark id="pm4654">
<name><![CDATA[Winterthur Grüze]]></name>
<description><![CDATA[408 connections
]]></description>
<styleUrl>../style/style.kml#station_icon</styleUrl>
<Point>
<coordinates>8.751030,47.498800</coordinates>
</Point>
</Placemark>
<Placemark id="pm1211">
<name><![CDATA[Löhningen]]></name>
<description><![CDATA[406 connections
]]></description>
<styleUrl>../style/style.kml#station_icon</styleUrl>
<Point>
<coordinates>8.550850,47.701300</coordinates>
</Point>
</Placemark>
<Placemark id="pm14764">
<name><![CDATA[Siblingen, Post]]></name>
<description><![CDATA[406 connections
]]></description>
<styleUrl>../style/style.kml#station_icon</styleUrl>
<Point>
<coordinates>8.521380,47.714100</coordinates>
</Point>
</Placemark>
<Placemark id="pm8389">
<name><![CDATA[Bülach, Bahnhof]]></name>
<description><![CDATA[388 connections
]]></description>
<styleUrl>../style/style.kml#station_icon</styleUrl>
<Point>
<coordinates>8.537700,47.522700</coordinates>
</Point>
</Placemark>
<Placemark id="pm10475">
<name><![CDATA[Schleitheim, Station]]></name>
<description><![CDATA[386 connections
]]></description>
<styleUrl>../style/style.kml#station_icon</styleUrl>
<Point>
<coordinates>8.480510,47.747200</coordinates>
</Point>
</Placemark>
<Placemark id="pm9300">
<name><![CDATA[Winterthur, Bahnhof]]></name>
<description><![CDATA[383 connections
]]></description>
<styleUrl>../style/style.kml#station_icon</styleUrl>
<Point>
<coordinates>8.724340,47.500400</coordinates>
</Point>
</Placemark>
<Placemark id="pm3751">
<name><![CDATA[Bülach]]></name>
<description><![CDATA[370 connections
]]></description>
<styleUrl>../style/style.kml#station_icon</styleUrl>
<Point>
<coordinates>8.536190,47.524000</coordinates>
</Point>
</Placemark>
<Placemark id="pm438">
<name><![CDATA[Gächlingen, Dorf]]></name>
<description><![CDATA[367 connections
]]></description>
<styleUrl>../style/style.kml#station_icon</styleUrl>
<Point>
<coordinates>8.498040,47.702300</coordinates>
</Point>
</Placemark>
<Placemark id="pm864">
<name><![CDATA[Embrach, Gemeindehaus]]></name>
<description><![CDATA[326 connections
]]></description>
<styleUrl>../style/style.kml#station_icon</styleUrl>
<Point>
<coordinates>8.594810,47.502400</coordinates>
</Point>
</Placemark>
<Placemark id="pm14228">
<name><![CDATA[Embrach, Dreispitz]]></name>
<description><![CDATA[325 connections
]]></description>
<styleUrl>../style/style.kml#station_icon</styleUrl>
<Point>
<coordinates>8.593750,47.509900</coordinates>
</Point>
</Placemark>
<Placemark id="pm958">
<name><![CDATA[Bülach, Untertor]]></name>
<description><![CDATA[324 connections
]]></description>
<styleUrl>../style/style.kml#station_icon</styleUrl>
<Point>
<coordinates>8.541890,47.516100</coordinates>
</Point>
</Placemark>
</Document>
</kml>
