<?xml version="1.0" encoding="UTF-8"?>
<!-- KML Regionator 303:340M -->
<kml xmlns="http://earth.google.com/kml/2.1">
<Document>
<name>1041 0300022</name>
<Region>
<Lod>
<minLodPixels>256</minLodPixels>
<maxLodPixels>-1</maxLodPixels>
</Lod>
<LatLonAltBox>
<north>47.548828125</north>
<south>47.4609375</south>
<east>8.525390625</east>
<west>8.4375</west>
</LatLonAltBox>
</Region>
<NetworkLink>
<name>03000220</name>
<Region>
<Lod>
<minLodPixels>256</minLodPixels>
<maxLodPixels>-1</maxLodPixels>
</Lod>
<LatLonAltBox>
<north>47.548828125</north>
<south>47.5048828125</south>
<east>8.4814453125</east>
<west>8.4375</west>
</LatLonAltBox>
</Region>
<Link>
<href>1042.kml</href>
<viewRefreshMode>onRegion</viewRefreshMode>
<viewFormat/>
</Link>
</NetworkLink>
<NetworkLink>
<name>03000221</name>
<Region>
<Lod>
<minLodPixels>256</minLodPixels>
<maxLodPixels>-1</maxLodPixels>
</Lod>
<LatLonAltBox>
<north>47.548828125</north>
<south>47.5048828125</south>
<east>8.525390625</east>
<west>8.4814453125</west>
</LatLonAltBox>
</Region>
<Link>
<href>1043.kml</href>
<viewRefreshMode>onRegion</viewRefreshMode>
<viewFormat/>
</Link>
</NetworkLink>
<NetworkLink>
<name>03000222</name>
<Region>
<Lod>
<minLodPixels>256</minLodPixels>
<maxLodPixels>-1</maxLodPixels>
</Lod>
<LatLonAltBox>
<north>47.5048828125</north>
<south>47.4609375</south>
<east>8.4814453125</east>
<west>8.4375</west>
</LatLonAltBox>
</Region>
<Link>
<href>1044.kml</href>
<viewRefreshMode>onRegion</viewRefreshMode>
<viewFormat/>
</Link>
</NetworkLink>
<NetworkLink>
<name>03000223</name>
<Region>
<Lod>
<minLodPixels>256</minLodPixels>
<maxLodPixels>-1</maxLodPixels>
</Lod>
<LatLonAltBox>
<north>47.5048828125</north>
<south>47.4609375</south>
<east>8.525390625</east>
<west>8.4814453125</west>
</LatLonAltBox>
</Region>
<Link>
<href>1045.kml</href>
<viewRefreshMode>onRegion</viewRefreshMode>
<viewFormat/>
</Link>
</NetworkLink>
<Placemark id="pm10332">
<name><![CDATA[Stadel b. Niederglatt, Post]]></name>
<description><![CDATA[244 connections
]]></description>
<styleUrl>../style/style.kml#station_icon</styleUrl>
<Point>
<coordinates>8.467270,47.528000</coordinates>
</Point>
</Placemark>
<Placemark id="pm9348">
<name><![CDATA[Glattfelden]]></name>
<description><![CDATA[228 connections
]]></description>
<styleUrl>../style/style.kml#station_icon</styleUrl>
<Point>
<coordinates>8.524030,47.548600</coordinates>
</Point>
</Placemark>
<Placemark id="pm2268">
<name><![CDATA[Höri, Gentert]]></name>
<description><![CDATA[226 connections
]]></description>
<styleUrl>../style/style.kml#station_icon</styleUrl>
<Point>
<coordinates>8.515310,47.509600</coordinates>
</Point>
</Placemark>
<Placemark id="pm7772">
<name><![CDATA[Höri, Gemeindehaus]]></name>
<description><![CDATA[218 connections
]]></description>
<styleUrl>../style/style.kml#station_icon</styleUrl>
<Point>
<coordinates>8.510200,47.508200</coordinates>
</Point>
</Placemark>
<Placemark id="pm7470">
<name><![CDATA[Neerach, Post]]></name>
<description><![CDATA[199 connections
]]></description>
<styleUrl>../style/style.kml#station_icon</styleUrl>
<Point>
<coordinates>8.474880,47.513000</coordinates>
</Point>
</Placemark>
<Placemark id="pm8267">
<name><![CDATA[Stadel b. Niederglatt, Mus.pl.]]></name>
<description><![CDATA[192 connections
]]></description>
<styleUrl>../style/style.kml#station_icon</styleUrl>
<Point>
<coordinates>8.466240,47.531200</coordinates>
</Point>
</Placemark>
<Placemark id="pm14203">
<name><![CDATA[Stadel b. Niederglatt, N.-Huus]]></name>
<description><![CDATA[191 connections
]]></description>
<styleUrl>../style/style.kml#station_icon</styleUrl>
<Point>
<coordinates>8.469790,47.534000</coordinates>
</Point>
</Placemark>
<Placemark id="pm5982">
<name><![CDATA[Oberglatt]]></name>
<description><![CDATA[174 connections
]]></description>
<styleUrl>../style/style.kml#station_icon</styleUrl>
<Point>
<coordinates>8.510600,47.470200</coordinates>
</Point>
</Placemark>
<Placemark id="pm11329">
<name><![CDATA[Windlach, Kreuz]]></name>
<description><![CDATA[136 connections
]]></description>
<styleUrl>../style/style.kml#station_icon</styleUrl>
<Point>
<coordinates>8.471620,47.538600</coordinates>
</Point>
</Placemark>
<Placemark id="pm7435">
<name><![CDATA[Windlach, Raat]]></name>
<description><![CDATA[128 connections
]]></description>
<styleUrl>../style/style.kml#station_icon</styleUrl>
<Point>
<coordinates>8.458450,47.544500</coordinates>
</Point>
</Placemark>
<Placemark id="pm11055">
<name><![CDATA[Bülach, Hirslen]]></name>
<description><![CDATA[126 connections
]]></description>
<styleUrl>../style/style.kml#station_icon</styleUrl>
<Point>
<coordinates>8.524900,47.522700</coordinates>
</Point>
</Placemark>
<Placemark id="pm10808">
<name><![CDATA[Niederglatt ZH, Zentrum]]></name>
<description><![CDATA[126 connections
]]></description>
<styleUrl>../style/style.kml#station_icon</styleUrl>
<Point>
<coordinates>8.503200,47.490800</coordinates>
</Point>
</Placemark>
<Placemark id="pm4912">
<name><![CDATA[Niederglatt ZH,altes Schulhaus]]></name>
<description><![CDATA[122 connections
]]></description>
<styleUrl>../style/style.kml#station_icon</styleUrl>
<Point>
<coordinates>8.498310,47.493200</coordinates>
</Point>
</Placemark>
<Placemark id="pm2334">
<name><![CDATA[Niederglatt ZH, Nöschikon]]></name>
<description><![CDATA[122 connections
]]></description>
<styleUrl>../style/style.kml#station_icon</styleUrl>
<Point>
<coordinates>8.495100,47.495600</coordinates>
</Point>
</Placemark>
<Placemark id="pm12251">
<name><![CDATA[Hochfelden, Post]]></name>
<description><![CDATA[120 connections
]]></description>
<styleUrl>../style/style.kml#station_icon</styleUrl>
<Point>
<coordinates>8.516160,47.523400</coordinates>
</Point>
</Placemark>
<Placemark id="pm4953">
<name><![CDATA[Höri, Oberhöri Süd]]></name>
<description><![CDATA[116 connections
]]></description>
<styleUrl>../style/style.kml#station_icon</styleUrl>
<Point>
<coordinates>8.500490,47.504000</coordinates>
</Point>
</Placemark>
</Document>
</kml>
