<?xml version="1.0" encoding="UTF-8"?>
<!-- KML Regionator 303:340M -->
<kml xmlns="http://earth.google.com/kml/2.1">
<Document>
<name>1098 030013</name>
<Region>
<Lod>
<minLodPixels>256</minLodPixels>
<maxLodPixels>-1</maxLodPixels>
</Lod>
<LatLonAltBox>
<north>47.63671875</north>
<south>47.4609375</south>
<east>9.140625</east>
<west>8.96484375</west>
</LatLonAltBox>
</Region>
<NetworkLink>
<name>0300130</name>
<Region>
<Lod>
<minLodPixels>256</minLodPixels>
<maxLodPixels>-1</maxLodPixels>
</Lod>
<LatLonAltBox>
<north>47.63671875</north>
<south>47.548828125</south>
<east>9.052734375</east>
<west>8.96484375</west>
</LatLonAltBox>
</Region>
<Link>
<href>1099.kml</href>
<viewRefreshMode>onRegion</viewRefreshMode>
<viewFormat/>
</Link>
</NetworkLink>
<NetworkLink>
<name>0300131</name>
<Region>
<Lod>
<minLodPixels>256</minLodPixels>
<maxLodPixels>-1</maxLodPixels>
</Lod>
<LatLonAltBox>
<north>47.63671875</north>
<south>47.548828125</south>
<east>9.140625</east>
<west>9.052734375</west>
</LatLonAltBox>
</Region>
<Link>
<href>1103.kml</href>
<viewRefreshMode>onRegion</viewRefreshMode>
<viewFormat/>
</Link>
</NetworkLink>
<NetworkLink>
<name>0300132</name>
<Region>
<Lod>
<minLodPixels>256</minLodPixels>
<maxLodPixels>-1</maxLodPixels>
</Lod>
<LatLonAltBox>
<north>47.548828125</north>
<south>47.4609375</south>
<east>9.052734375</east>
<west>8.96484375</west>
</LatLonAltBox>
</Region>
<Link>
<href>1108.kml</href>
<viewRefreshMode>onRegion</viewRefreshMode>
<viewFormat/>
</Link>
</NetworkLink>
<NetworkLink>
<name>0300133</name>
<Region>
<Lod>
<minLodPixels>256</minLodPixels>
<maxLodPixels>-1</maxLodPixels>
</Lod>
<LatLonAltBox>
<north>47.548828125</north>
<south>47.4609375</south>
<east>9.140625</east>
<west>9.052734375</west>
</LatLonAltBox>
</Region>
<Link>
<href>1112.kml</href>
<viewRefreshMode>onRegion</viewRefreshMode>
<viewFormat/>
</Link>
</NetworkLink>
<Placemark id="pm6505">
<name><![CDATA[Wil SG, Pflegeheim]]></name>
<description><![CDATA[222 connections
]]></description>
<styleUrl>../style/style.kml#station_icon</styleUrl>
<Point>
<coordinates>9.059820,47.465300</coordinates>
</Point>
</Placemark>
<Placemark id="pm4448">
<name><![CDATA[Wil SG, Spital]]></name>
<description><![CDATA[222 connections
]]></description>
<styleUrl>../style/style.kml#station_icon</styleUrl>
<Point>
<coordinates>9.056860,47.466000</coordinates>
</Point>
</Placemark>
<Placemark id="pm5301">
<name><![CDATA[Wil SG, Viehmarkt]]></name>
<description><![CDATA[222 connections
]]></description>
<styleUrl>../style/style.kml#station_icon</styleUrl>
<Point>
<coordinates>9.051560,47.466000</coordinates>
</Point>
</Placemark>
<Placemark id="pm10775">
<name><![CDATA[Wil SG, Adler]]></name>
<description><![CDATA[222 connections
]]></description>
<styleUrl>../style/style.kml#station_icon</styleUrl>
<Point>
<coordinates>9.050930,47.467400</coordinates>
</Point>
</Placemark>
<Placemark id="pm206">
<name><![CDATA[Zuzwil SG, Industrie]]></name>
<description><![CDATA[220 connections
]]></description>
<styleUrl>../style/style.kml#station_icon</styleUrl>
<Point>
<coordinates>9.111750,47.471300</coordinates>
</Point>
</Placemark>
<Placemark id="pm10042">
<name><![CDATA[Bronschhofen, Gemeindehaus]]></name>
<description><![CDATA[180 connections
]]></description>
<styleUrl>../style/style.kml#station_icon</styleUrl>
<Point>
<coordinates>9.034640,47.477100</coordinates>
</Point>
</Placemark>
<Placemark id="pm7039">
<name><![CDATA[Märstetten]]></name>
<description><![CDATA[152 connections
]]></description>
<styleUrl>../style/style.kml#station_icon</styleUrl>
<Point>
<coordinates>9.062180,47.582800</coordinates>
</Point>
</Placemark>
<Placemark id="pm155">
<name><![CDATA[Müllheim-Wigoltingen]]></name>
<description><![CDATA[152 connections
]]></description>
<styleUrl>../style/style.kml#station_icon</styleUrl>
<Point>
<coordinates>9.015490,47.588200</coordinates>
</Point>
</Placemark>
<Placemark id="pm5864">
<name><![CDATA[Sirnach]]></name>
<description><![CDATA[148 connections
]]></description>
<styleUrl>../style/style.kml#station_icon</styleUrl>
<Point>
<coordinates>9.000460,47.462000</coordinates>
</Point>
</Placemark>
<Placemark id="pm4237">
<name><![CDATA[Münchwilen TG]]></name>
<description><![CDATA[148 connections
]]></description>
<styleUrl>../style/style.kml#station_icon</styleUrl>
<Point>
<coordinates>8.999150,47.476900</coordinates>
</Point>
</Placemark>
<Placemark id="pm14684">
<name><![CDATA[Hüttlingen-Mettendorf]]></name>
<description><![CDATA[148 connections
]]></description>
<styleUrl>../style/style.kml#station_icon</styleUrl>
<Point>
<coordinates>8.974530,47.582400</coordinates>
</Point>
</Placemark>
<Placemark id="pm4561">
<name><![CDATA[Müllheim Dorf, Post]]></name>
<description><![CDATA[147 connections
]]></description>
<styleUrl>../style/style.kml#station_icon</styleUrl>
<Point>
<coordinates>9.002830,47.602300</coordinates>
</Point>
</Placemark>
<Placemark id="pm5153">
<name><![CDATA[Münchwilen Pflegeheim]]></name>
<description><![CDATA[142 connections
]]></description>
<styleUrl>../style/style.kml#station_icon</styleUrl>
<Point>
<coordinates>8.991720,47.481600</coordinates>
</Point>
</Placemark>
<Placemark id="pm7673">
<name><![CDATA[Wuppenau, Post]]></name>
<description><![CDATA[137 connections
]]></description>
<styleUrl>../style/style.kml#station_icon</styleUrl>
<Point>
<coordinates>9.109580,47.497400</coordinates>
</Point>
</Placemark>
<Placemark id="pm14698">
<name><![CDATA[Rosental]]></name>
<description><![CDATA[136 connections
]]></description>
<styleUrl>../style/style.kml#station_icon</styleUrl>
<Point>
<coordinates>8.975240,47.492300</coordinates>
</Point>
</Placemark>
<Placemark id="pm695">
<name><![CDATA[Sirnach, Hofen]]></name>
<description><![CDATA[130 connections
]]></description>
<styleUrl>../style/style.kml#station_icon</styleUrl>
<Point>
<coordinates>8.989120,47.463300</coordinates>
</Point>
</Placemark>
</Document>
</kml>
