<?xml version="1.0" encoding="UTF-8"?>
<!-- KML Regionator 303:340M -->
<kml xmlns="http://earth.google.com/kml/2.1">
<Document>
<name>1103 0300131</name>
<Region>
<Lod>
<minLodPixels>256</minLodPixels>
<maxLodPixels>-1</maxLodPixels>
</Lod>
<LatLonAltBox>
<north>47.63671875</north>
<south>47.548828125</south>
<east>9.140625</east>
<west>9.052734375</west>
</LatLonAltBox>
</Region>
<NetworkLink>
<name>03001310</name>
<Region>
<Lod>
<minLodPixels>256</minLodPixels>
<maxLodPixels>-1</maxLodPixels>
</Lod>
<LatLonAltBox>
<north>47.63671875</north>
<south>47.5927734375</south>
<east>9.0966796875</east>
<west>9.052734375</west>
</LatLonAltBox>
</Region>
<Link>
<href>1104.kml</href>
<viewRefreshMode>onRegion</viewRefreshMode>
<viewFormat/>
</Link>
</NetworkLink>
<NetworkLink>
<name>03001311</name>
<Region>
<Lod>
<minLodPixels>256</minLodPixels>
<maxLodPixels>-1</maxLodPixels>
</Lod>
<LatLonAltBox>
<north>47.63671875</north>
<south>47.5927734375</south>
<east>9.140625</east>
<west>9.0966796875</west>
</LatLonAltBox>
</Region>
<Link>
<href>1105.kml</href>
<viewRefreshMode>onRegion</viewRefreshMode>
<viewFormat/>
</Link>
</NetworkLink>
<NetworkLink>
<name>03001312</name>
<Region>
<Lod>
<minLodPixels>256</minLodPixels>
<maxLodPixels>-1</maxLodPixels>
</Lod>
<LatLonAltBox>
<north>47.5927734375</north>
<south>47.548828125</south>
<east>9.0966796875</east>
<west>9.052734375</west>
</LatLonAltBox>
</Region>
<Link>
<href>1106.kml</href>
<viewRefreshMode>onRegion</viewRefreshMode>
<viewFormat/>
</Link>
</NetworkLink>
<NetworkLink>
<name>03001313</name>
<Region>
<Lod>
<minLodPixels>256</minLodPixels>
<maxLodPixels>-1</maxLodPixels>
</Lod>
<LatLonAltBox>
<north>47.5927734375</north>
<south>47.548828125</south>
<east>9.140625</east>
<west>9.0966796875</west>
</LatLonAltBox>
</Region>
<Link>
<href>1107.kml</href>
<viewRefreshMode>onRegion</viewRefreshMode>
<viewFormat/>
</Link>
</NetworkLink>
<Placemark id="pm10936">
<name><![CDATA[Weinfelden, Bahnhof]]></name>
<description><![CDATA[125 connections
]]></description>
<styleUrl>../style/style.kml#station_icon</styleUrl>
<Point>
<coordinates>9.106770,47.566200</coordinates>
</Point>
</Placemark>
<Placemark id="pm11058">
<name><![CDATA[Bussnang]]></name>
<description><![CDATA[84 connections
]]></description>
<styleUrl>../style/style.kml#station_icon</styleUrl>
<Point>
<coordinates>9.084140,47.556100</coordinates>
</Point>
</Placemark>
<Placemark id="pm268">
<name><![CDATA[Oppikon]]></name>
<description><![CDATA[84 connections
]]></description>
<styleUrl>../style/style.kml#station_icon</styleUrl>
<Point>
<coordinates>9.062090,47.552100</coordinates>
</Point>
</Placemark>
<Placemark id="pm5419">
<name><![CDATA[Weinfelden, Maienrain]]></name>
<description><![CDATA[70 connections
]]></description>
<styleUrl>../style/style.kml#station_icon</styleUrl>
<Point>
<coordinates>9.099270,47.570900</coordinates>
</Point>
</Placemark>
<Placemark id="pm8173">
<name><![CDATA[Ottoberg, Wald]]></name>
<description><![CDATA[62 connections
]]></description>
<styleUrl>../style/style.kml#station_icon</styleUrl>
<Point>
<coordinates>9.089340,47.593700</coordinates>
</Point>
</Placemark>
<Placemark id="pm11113">
<name><![CDATA[Ottoberg, Weinberg]]></name>
<description><![CDATA[62 connections
]]></description>
<styleUrl>../style/style.kml#station_icon</styleUrl>
<Point>
<coordinates>9.088340,47.582900</coordinates>
</Point>
</Placemark>
<Placemark id="pm7099">
<name><![CDATA[Ottoberg, Schulhaus]]></name>
<description><![CDATA[62 connections
]]></description>
<styleUrl>../style/style.kml#station_icon</styleUrl>
<Point>
<coordinates>9.084540,47.588800</coordinates>
</Point>
</Placemark>
<Placemark id="pm13429">
<name><![CDATA[Lipperswil, Conny Land]]></name>
<description><![CDATA[62 connections
]]></description>
<styleUrl>../style/style.kml#station_icon</styleUrl>
<Point>
<coordinates>9.055810,47.614700</coordinates>
</Point>
</Placemark>
<Placemark id="pm7057">
<name><![CDATA[Lipperswil, Abzw. Conny Land]]></name>
<description><![CDATA[62 connections
]]></description>
<styleUrl>../style/style.kml#station_icon</styleUrl>
<Point>
<coordinates>9.053480,47.616900</coordinates>
</Point>
</Placemark>
<Placemark id="pm936">
<name><![CDATA[Märstetten Station, Obstgarten]]></name>
<description><![CDATA[60 connections
]]></description>
<styleUrl>../style/style.kml#station_icon</styleUrl>
<Point>
<coordinates>9.063960,47.590000</coordinates>
</Point>
</Placemark>
<Placemark id="pm7694">
<name><![CDATA[Märstetten Station, Bahnhof]]></name>
<description><![CDATA[60 connections
]]></description>
<styleUrl>../style/style.kml#station_icon</styleUrl>
<Point>
<coordinates>9.061760,47.583300</coordinates>
</Point>
</Placemark>
<Placemark id="pm13068">
<name><![CDATA[Ottoberg, Gaishaus]]></name>
<description><![CDATA[57 connections
]]></description>
<styleUrl>../style/style.kml#station_icon</styleUrl>
<Point>
<coordinates>9.096700,47.595000</coordinates>
</Point>
</Placemark>
<Placemark id="pm3333">
<name><![CDATA[Märstetten Dorf, Post]]></name>
<description><![CDATA[55 connections
]]></description>
<styleUrl>../style/style.kml#station_icon</styleUrl>
<Point>
<coordinates>9.065330,47.591300</coordinates>
</Point>
</Placemark>
<Placemark id="pm10175">
<name><![CDATA[Dotnacht, Post]]></name>
<description><![CDATA[52 connections
]]></description>
<styleUrl>../style/style.kml#station_icon</styleUrl>
<Point>
<coordinates>9.140400,47.599700</coordinates>
</Point>
</Placemark>
<Placemark id="pm8023">
<name><![CDATA[Ellighausen]]></name>
<description><![CDATA[52 connections
]]></description>
<styleUrl>../style/style.kml#station_icon</styleUrl>
<Point>
<coordinates>9.136530,47.613700</coordinates>
</Point>
</Placemark>
<Placemark id="pm1989">
<name><![CDATA[Neuwilen, Dorf]]></name>
<description><![CDATA[52 connections
]]></description>
<styleUrl>../style/style.kml#station_icon</styleUrl>
<Point>
<coordinates>9.136140,47.622300</coordinates>
</Point>
</Placemark>
</Document>
</kml>
