<?xml version="1.0" encoding="UTF-8"?>
<!-- KML Regionator 303:340M -->
<kml xmlns="http://earth.google.com/kml/2.1">
<Document>
<name>1119 03002010</name>
<Region>
<Lod>
<minLodPixels>256</minLodPixels>
<maxLodPixels>-1</maxLodPixels>
</Lod>
<LatLonAltBox>
<north>47.4609375</north>
<south>47.4169921875</south>
<east>8.5693359375</east>
<west>8.525390625</west>
</LatLonAltBox>
</Region>
<Placemark id="pm12904">
<name><![CDATA[Kloten, Balsberg Oberhau/Werft]]></name>
<description><![CDATA[42 connections
]]></description>
<styleUrl>../style/style.kml#station_icon</styleUrl>
<Point>
<coordinates>8.568440,47.441400</coordinates>
</Point>
</Placemark>
<Placemark id="pm1755">
<name><![CDATA[Kloten, Balsberg Oberhau]]></name>
<description><![CDATA[42 connections
]]></description>
<styleUrl>../style/style.kml#station_icon</styleUrl>
<Point>
<coordinates>8.566350,47.440300</coordinates>
</Point>
</Placemark>
<Placemark id="pm2920">
<name><![CDATA[Opfikon, Riethofstrasse]]></name>
<description><![CDATA[4 connections
]]></description>
<styleUrl>../style/style.kml#station_icon</styleUrl>
<Point>
<coordinates>8.568920,47.436400</coordinates>
</Point>
</Placemark>
<Placemark id="pm8675">
<name><![CDATA[Opfikon, Glatthof]]></name>
<description><![CDATA[4 connections
]]></description>
<styleUrl>../style/style.kml#station_icon</styleUrl>
<Point>
<coordinates>8.567700,47.434400</coordinates>
</Point>
</Placemark>
<Placemark id="pm8740">
<name><![CDATA[Rümlang, Rumilobrücke]]></name>
<description><![CDATA[4 connections
]]></description>
<styleUrl>../style/style.kml#station_icon</styleUrl>
<Point>
<coordinates>8.535950,47.453600</coordinates>
</Point>
</Placemark>
</Document>
</kml>
