<?xml version="1.0" encoding="UTF-8"?>
<!-- KML Regionator 303:340M -->
<kml xmlns="http://earth.google.com/kml/2.1">
<Document>
<name>1138 030021</name>
<Region>
<Lod>
<minLodPixels>256</minLodPixels>
<maxLodPixels>-1</maxLodPixels>
</Lod>
<LatLonAltBox>
<north>47.4609375</north>
<south>47.28515625</south>
<east>8.7890625</east>
<west>8.61328125</west>
</LatLonAltBox>
</Region>
<NetworkLink>
<name>0300210</name>
<Region>
<Lod>
<minLodPixels>256</minLodPixels>
<maxLodPixels>-1</maxLodPixels>
</Lod>
<LatLonAltBox>
<north>47.4609375</north>
<south>47.373046875</south>
<east>8.701171875</east>
<west>8.61328125</west>
</LatLonAltBox>
</Region>
<Link>
<href>1139.kml</href>
<viewRefreshMode>onRegion</viewRefreshMode>
<viewFormat/>
</Link>
</NetworkLink>
<NetworkLink>
<name>0300211</name>
<Region>
<Lod>
<minLodPixels>256</minLodPixels>
<maxLodPixels>-1</maxLodPixels>
</Lod>
<LatLonAltBox>
<north>47.4609375</north>
<south>47.373046875</south>
<east>8.7890625</east>
<west>8.701171875</west>
</LatLonAltBox>
</Region>
<Link>
<href>1143.kml</href>
<viewRefreshMode>onRegion</viewRefreshMode>
<viewFormat/>
</Link>
</NetworkLink>
<NetworkLink>
<name>0300212</name>
<Region>
<Lod>
<minLodPixels>256</minLodPixels>
<maxLodPixels>-1</maxLodPixels>
</Lod>
<LatLonAltBox>
<north>47.373046875</north>
<south>47.28515625</south>
<east>8.701171875</east>
<west>8.61328125</west>
</LatLonAltBox>
</Region>
<Link>
<href>1148.kml</href>
<viewRefreshMode>onRegion</viewRefreshMode>
<viewFormat/>
</Link>
</NetworkLink>
<NetworkLink>
<name>0300213</name>
<Region>
<Lod>
<minLodPixels>256</minLodPixels>
<maxLodPixels>-1</maxLodPixels>
</Lod>
<LatLonAltBox>
<north>47.373046875</north>
<south>47.28515625</south>
<east>8.7890625</east>
<west>8.701171875</west>
</LatLonAltBox>
</Region>
<Link>
<href>1153.kml</href>
<viewRefreshMode>onRegion</viewRefreshMode>
<viewFormat/>
</Link>
</NetworkLink>
<Placemark id="pm5392">
<name><![CDATA[Volketswil, Hegnau]]></name>
<description><![CDATA[518 connections
]]></description>
<styleUrl>../style/style.kml#station_icon</styleUrl>
<Point>
<coordinates>8.676230,47.388400</coordinates>
</Point>
</Placemark>
<Placemark id="pm5169">
<name><![CDATA[Uster]]></name>
<description><![CDATA[449 connections
]]></description>
<styleUrl>../style/style.kml#station_icon</styleUrl>
<Point>
<coordinates>8.718690,47.350400</coordinates>
</Point>
</Placemark>
<Placemark id="pm14387">
<name><![CDATA[Schwerzenbach ZH, Bahnhof]]></name>
<description><![CDATA[424 connections
]]></description>
<styleUrl>../style/style.kml#station_icon</styleUrl>
<Point>
<coordinates>8.658760,47.384200</coordinates>
</Point>
</Placemark>
<Placemark id="pm12553">
<name><![CDATA[Volketswil, Dorf]]></name>
<description><![CDATA[393 connections
]]></description>
<styleUrl>../style/style.kml#station_icon</styleUrl>
<Point>
<coordinates>8.693220,47.389600</coordinates>
</Point>
</Placemark>
<Placemark id="pm8487">
<name><![CDATA[Uster, Koppach]]></name>
<description><![CDATA[354 connections
]]></description>
<styleUrl>../style/style.kml#station_icon</styleUrl>
<Point>
<coordinates>8.735020,47.341300</coordinates>
</Point>
</Placemark>
<Placemark id="pm11279">
<name><![CDATA[Uster, Linde]]></name>
<description><![CDATA[354 connections
]]></description>
<styleUrl>../style/style.kml#station_icon</styleUrl>
<Point>
<coordinates>8.733450,47.344600</coordinates>
</Point>
</Placemark>
<Placemark id="pm3129">
<name><![CDATA[Uster, Oberuster]]></name>
<description><![CDATA[354 connections
]]></description>
<styleUrl>../style/style.kml#station_icon</styleUrl>
<Point>
<coordinates>8.730390,47.345500</coordinates>
</Point>
</Placemark>
<Placemark id="pm9127">
<name><![CDATA[Uster, Florastrasse]]></name>
<description><![CDATA[354 connections
]]></description>
<styleUrl>../style/style.kml#station_icon</styleUrl>
<Point>
<coordinates>8.726070,47.346600</coordinates>
</Point>
</Placemark>
<Placemark id="pm13897">
<name><![CDATA[Uster, Stadthaus]]></name>
<description><![CDATA[354 connections
]]></description>
<styleUrl>../style/style.kml#station_icon</styleUrl>
<Point>
<coordinates>8.718630,47.348000</coordinates>
</Point>
</Placemark>
<Placemark id="pm1793">
<name><![CDATA[Gossau ZH, Mitteldorf]]></name>
<description><![CDATA[348 connections
]]></description>
<styleUrl>../style/style.kml#station_icon</styleUrl>
<Point>
<coordinates>8.759750,47.307400</coordinates>
</Point>
</Placemark>
<Placemark id="pm5193">
<name><![CDATA[Uster, Ackerstrasse]]></name>
<description><![CDATA[342 connections
]]></description>
<styleUrl>../style/style.kml#station_icon</styleUrl>
<Point>
<coordinates>8.712700,47.353000</coordinates>
</Point>
</Placemark>
<Placemark id="pm1077">
<name><![CDATA[Uster, Gschwaderstrasse]]></name>
<description><![CDATA[342 connections
]]></description>
<styleUrl>../style/style.kml#station_icon</styleUrl>
<Point>
<coordinates>8.709240,47.355200</coordinates>
</Point>
</Placemark>
<Placemark id="pm13459">
<name><![CDATA[Uster, Krämeracker]]></name>
<description><![CDATA[342 connections
]]></description>
<styleUrl>../style/style.kml#station_icon</styleUrl>
<Point>
<coordinates>8.705920,47.351700</coordinates>
</Point>
</Placemark>
<Placemark id="pm10589">
<name><![CDATA[Uster, Sonnenberg]]></name>
<description><![CDATA[342 connections
]]></description>
<styleUrl>../style/style.kml#station_icon</styleUrl>
<Point>
<coordinates>8.702610,47.350200</coordinates>
</Point>
</Placemark>
<Placemark id="pm12316">
<name><![CDATA[Gossau ZH, Bühlgasse]]></name>
<description><![CDATA[334 connections
]]></description>
<styleUrl>../style/style.kml#station_icon</styleUrl>
<Point>
<coordinates>8.758260,47.304400</coordinates>
</Point>
</Placemark>
<Placemark id="pm3562">
<name><![CDATA[Dietlikon]]></name>
<description><![CDATA[324 connections
]]></description>
<styleUrl>../style/style.kml#station_icon</styleUrl>
<Point>
<coordinates>8.619250,47.420200</coordinates>
</Point>
</Placemark>
</Document>
</kml>
