<?xml version="1.0" encoding="UTF-8"?>
<!-- KML Regionator 303:340M -->
<kml xmlns="http://earth.google.com/kml/2.1">
<Document>
<name>118 02032130</name>
<Region>
<Lod>
<minLodPixels>256</minLodPixels>
<maxLodPixels>-1</maxLodPixels>
</Lod>
<LatLonAltBox>
<north>46.669921875</north>
<south>46.6259765625</south>
<east>6.6357421875</east>
<west>6.591796875</west>
</LatLonAltBox>
</Region>
<Placemark id="pm7914">
<name><![CDATA[Echallens, Château]]></name>
<description><![CDATA[44 connections
]]></description>
<styleUrl>../style/style.kml#station_icon</styleUrl>
<Point>
<coordinates>6.631210,46.640800</coordinates>
</Point>
</Placemark>
<Placemark id="pm4730">
<name><![CDATA[Echallens, Les Coulisses]]></name>
<description><![CDATA[22 connections
]]></description>
<styleUrl>../style/style.kml#station_icon</styleUrl>
<Point>
<coordinates>6.628170,46.643200</coordinates>
</Point>
</Placemark>
<Placemark id="pm11312">
<name><![CDATA[Echallens, garage postal]]></name>
<description><![CDATA[22 connections
]]></description>
<styleUrl>../style/style.kml#station_icon</styleUrl>
<Point>
<coordinates>6.626920,46.639400</coordinates>
</Point>
</Placemark>
<Placemark id="pm3833">
<name><![CDATA[Goumoens-la-Ville, Tuilerie]]></name>
<description><![CDATA[22 connections
]]></description>
<styleUrl>../style/style.kml#station_icon</styleUrl>
<Point>
<coordinates>6.615950,46.652600</coordinates>
</Point>
</Placemark>
<Placemark id="pm11066">
<name><![CDATA[Goumoens-la-Ville, croisée]]></name>
<description><![CDATA[22 connections
]]></description>
<styleUrl>../style/style.kml#station_icon</styleUrl>
<Point>
<coordinates>6.605750,46.657500</coordinates>
</Point>
</Placemark>
<Placemark id="pm6804">
<name><![CDATA[St-Barthélemy, Champ Cadet]]></name>
<description><![CDATA[22 connections
]]></description>
<styleUrl>../style/style.kml#station_icon</styleUrl>
<Point>
<coordinates>6.605420,46.636300</coordinates>
</Point>
</Placemark>
<Placemark id="pm3811">
<name><![CDATA[Goumoens-la-Ville, Laiterie]]></name>
<description><![CDATA[22 connections
]]></description>
<styleUrl>../style/style.kml#station_icon</styleUrl>
<Point>
<coordinates>6.604430,46.657900</coordinates>
</Point>
</Placemark>
<Placemark id="pm6999">
<name><![CDATA[Goumoens-la-Ville, Eclagnens]]></name>
<description><![CDATA[22 connections
]]></description>
<styleUrl>../style/style.kml#station_icon</styleUrl>
<Point>
<coordinates>6.602500,46.656600</coordinates>
</Point>
</Placemark>
<Placemark id="pm13106">
<name><![CDATA[St-Barthélemy, village]]></name>
<description><![CDATA[22 connections
]]></description>
<styleUrl>../style/style.kml#station_icon</styleUrl>
<Point>
<coordinates>6.601890,46.636800</coordinates>
</Point>
</Placemark>
<Placemark id="pm12713">
<name><![CDATA[St-Barthélemy, Château]]></name>
<description><![CDATA[22 connections
]]></description>
<styleUrl>../style/style.kml#station_icon</styleUrl>
<Point>
<coordinates>6.595640,46.635100</coordinates>
</Point>
</Placemark>
<Placemark id="pm971">
<name><![CDATA[Goumoens-la-Ville,grande salle]]></name>
<description><![CDATA[16 connections
]]></description>
<styleUrl>../style/style.kml#station_icon</styleUrl>
<Point>
<coordinates>6.606370,46.659500</coordinates>
</Point>
</Placemark>
</Document>
</kml>
