<?xml version="1.0" encoding="UTF-8"?>
<!-- KML Regionator 303:340M -->
<kml xmlns="http://earth.google.com/kml/2.1">
<Document>
<name>1203 03002313</name>
<Region>
<Lod>
<minLodPixels>256</minLodPixels>
<maxLodPixels>-1</maxLodPixels>
</Lod>
<LatLonAltBox>
<north>47.2412109375</north>
<south>47.197265625</south>
<east>8.7890625</east>
<west>8.7451171875</west>
</LatLonAltBox>
</Region>
<NetworkLink>
<name>030023130</name>
<Region>
<Lod>
<minLodPixels>256</minLodPixels>
<maxLodPixels>-1</maxLodPixels>
</Lod>
<LatLonAltBox>
<north>47.2412109375</north>
<south>47.21923828125</south>
<east>8.76708984375</east>
<west>8.7451171875</west>
</LatLonAltBox>
</Region>
<Link>
<href>1204.kml</href>
<viewRefreshMode>onRegion</viewRefreshMode>
<viewFormat/>
</Link>
</NetworkLink>
<NetworkLink>
<name>030023131</name>
<Region>
<Lod>
<minLodPixels>256</minLodPixels>
<maxLodPixels>-1</maxLodPixels>
</Lod>
<LatLonAltBox>
<north>47.2412109375</north>
<south>47.21923828125</south>
<east>8.7890625</east>
<west>8.76708984375</west>
</LatLonAltBox>
</Region>
<Link>
<href>1205.kml</href>
<viewRefreshMode>onRegion</viewRefreshMode>
<viewFormat/>
</Link>
</NetworkLink>
<NetworkLink>
<name>030023132</name>
<Region>
<Lod>
<minLodPixels>256</minLodPixels>
<maxLodPixels>-1</maxLodPixels>
</Lod>
<LatLonAltBox>
<north>47.21923828125</north>
<south>47.197265625</south>
<east>8.76708984375</east>
<west>8.7451171875</west>
</LatLonAltBox>
</Region>
<Link>
<href>1206.kml</href>
<viewRefreshMode>onRegion</viewRefreshMode>
<viewFormat/>
</Link>
</NetworkLink>
<NetworkLink>
<name>030023133</name>
<Region>
<Lod>
<minLodPixels>256</minLodPixels>
<maxLodPixels>-1</maxLodPixels>
</Lod>
<LatLonAltBox>
<north>47.21923828125</north>
<south>47.197265625</south>
<east>8.7890625</east>
<west>8.76708984375</west>
</LatLonAltBox>
</Region>
<Link>
<href>1207.kml</href>
<viewRefreshMode>onRegion</viewRefreshMode>
<viewFormat/>
</Link>
</NetworkLink>
<Placemark id="pm2560">
<name><![CDATA[Uerikon, Gsteig]]></name>
<description><![CDATA[194 connections
]]></description>
<styleUrl>../style/style.kml#station_icon</styleUrl>
<Point>
<coordinates>8.758700,47.239500</coordinates>
</Point>
</Placemark>
<Placemark id="pm8193">
<name><![CDATA[Pfäffikon SZ, Etzelstrasse]]></name>
<description><![CDATA[174 connections
]]></description>
<styleUrl>../style/style.kml#station_icon</styleUrl>
<Point>
<coordinates>8.781340,47.200800</coordinates>
</Point>
</Placemark>
<Placemark id="pm7497">
<name><![CDATA[Feldbach, Viadukt]]></name>
<description><![CDATA[170 connections
]]></description>
<styleUrl>../style/style.kml#station_icon</styleUrl>
<Point>
<coordinates>8.786450,47.240000</coordinates>
</Point>
</Placemark>
<Placemark id="pm8064">
<name><![CDATA[Freienbach SBB]]></name>
<description><![CDATA[164 connections
]]></description>
<styleUrl>../style/style.kml#station_icon</styleUrl>
<Point>
<coordinates>8.756200,47.207300</coordinates>
</Point>
</Placemark>
<Placemark id="pm4447">
<name><![CDATA[Feldbach]]></name>
<description><![CDATA[156 connections
]]></description>
<styleUrl>../style/style.kml#station_icon</styleUrl>
<Point>
<coordinates>8.783480,47.239200</coordinates>
</Point>
</Placemark>
<Placemark id="pm13543">
<name><![CDATA[Uerikon]]></name>
<description><![CDATA[156 connections
]]></description>
<styleUrl>../style/style.kml#station_icon</styleUrl>
<Point>
<coordinates>8.752610,47.235900</coordinates>
</Point>
</Placemark>
<Placemark id="pm6997">
<name><![CDATA[Pfäffikon SZ, Kantonsschule]]></name>
<description><![CDATA[126 connections
]]></description>
<styleUrl>../style/style.kml#station_icon</styleUrl>
<Point>
<coordinates>8.786810,47.200500</coordinates>
</Point>
</Placemark>
<Placemark id="pm14133">
<name><![CDATA[Pfäffikon SZ, Löwen]]></name>
<description><![CDATA[120 connections
]]></description>
<styleUrl>../style/style.kml#station_icon</styleUrl>
<Point>
<coordinates>8.776690,47.202100</coordinates>
</Point>
</Placemark>
<Placemark id="pm10664">
<name><![CDATA[Pfäffikon SZ, Rain]]></name>
<description><![CDATA[120 connections
]]></description>
<styleUrl>../style/style.kml#station_icon</styleUrl>
<Point>
<coordinates>8.772340,47.202400</coordinates>
</Point>
</Placemark>
<Placemark id="pm15069">
<name><![CDATA[Freienbach, Grütze]]></name>
<description><![CDATA[120 connections
]]></description>
<styleUrl>../style/style.kml#station_icon</styleUrl>
<Point>
<coordinates>8.764060,47.204000</coordinates>
</Point>
</Placemark>
<Placemark id="pm3440">
<name><![CDATA[Freienbach, Chrummen]]></name>
<description><![CDATA[120 connections
]]></description>
<styleUrl>../style/style.kml#station_icon</styleUrl>
<Point>
<coordinates>8.752520,47.201600</coordinates>
</Point>
</Placemark>
<Placemark id="pm6200">
<name><![CDATA[Freienbach, Kirche]]></name>
<description><![CDATA[118 connections
]]></description>
<styleUrl>../style/style.kml#station_icon</styleUrl>
<Point>
<coordinates>8.759860,47.204800</coordinates>
</Point>
</Placemark>
<Placemark id="pm13853">
<name><![CDATA[Freienbach, alte Post]]></name>
<description><![CDATA[118 connections
]]></description>
<styleUrl>../style/style.kml#station_icon</styleUrl>
<Point>
<coordinates>8.756860,47.206200</coordinates>
</Point>
</Placemark>
<Placemark id="pm6195">
<name><![CDATA[Freienbach, Oechsli]]></name>
<description><![CDATA[118 connections
]]></description>
<styleUrl>../style/style.kml#station_icon</styleUrl>
<Point>
<coordinates>8.753550,47.205800</coordinates>
</Point>
</Placemark>
<Placemark id="pm8523">
<name><![CDATA[Freienbach, Leutschen]]></name>
<description><![CDATA[118 connections
]]></description>
<styleUrl>../style/style.kml#station_icon</styleUrl>
<Point>
<coordinates>8.753510,47.204300</coordinates>
</Point>
</Placemark>
<Placemark id="pm1722">
<name><![CDATA[Freienbach SOB]]></name>
<description><![CDATA[88 connections
]]></description>
<styleUrl>../style/style.kml#station_icon</styleUrl>
<Point>
<coordinates>8.759380,47.204200</coordinates>
</Point>
</Placemark>
</Document>
</kml>
