<?xml version="1.0" encoding="UTF-8"?>
<!-- KML Regionator 303:340M -->
<kml xmlns="http://earth.google.com/kml/2.1">
<Document>
<name>131 0203223</name>
<Region>
<Lod>
<minLodPixels>256</minLodPixels>
<maxLodPixels>-1</maxLodPixels>
</Lod>
<LatLonAltBox>
<north>46.494140625</north>
<south>46.40625</south>
<east>6.50390625</east>
<west>6.416015625</west>
</LatLonAltBox>
</Region>
<Placemark id="pm5611">
<name><![CDATA[Etoy, village]]></name>
<description><![CDATA[68 connections
]]></description>
<styleUrl>../style/style.kml#station_icon</styleUrl>
<Point>
<coordinates>6.419520,46.486400</coordinates>
</Point>
</Placemark>
<Placemark id="pm5629">
<name><![CDATA[Etoy, Romanèche]]></name>
<description><![CDATA[68 connections
]]></description>
<styleUrl>../style/style.kml#station_icon</styleUrl>
<Point>
<coordinates>6.419470,46.489300</coordinates>
</Point>
</Placemark>
<Placemark id="pm5132">
<name><![CDATA[Etoy, L'Espérance]]></name>
<description><![CDATA[68 connections
]]></description>
<styleUrl>../style/style.kml#station_icon</styleUrl>
<Point>
<coordinates>6.417800,46.491300</coordinates>
</Point>
</Placemark>
<Placemark id="pm13719">
<name><![CDATA[Etoy, Chenalette]]></name>
<description><![CDATA[56 connections
]]></description>
<styleUrl>../style/style.kml#station_icon</styleUrl>
<Point>
<coordinates>6.427280,46.472300</coordinates>
</Point>
</Placemark>
<Placemark id="pm12073">
<name><![CDATA[Buchillon, collège]]></name>
<description><![CDATA[56 connections
]]></description>
<styleUrl>../style/style.kml#station_icon</styleUrl>
<Point>
<coordinates>6.423060,46.471600</coordinates>
</Point>
</Placemark>
<Placemark id="pm4446">
<name><![CDATA[Etoy, gare]]></name>
<description><![CDATA[34 connections
]]></description>
<styleUrl>../style/style.kml#station_icon</styleUrl>
<Point>
<coordinates>6.427870,46.475400</coordinates>
</Point>
</Placemark>
<Placemark id="pm207">
<name><![CDATA[St-Prex CGN]]></name>
<description><![CDATA[24 connections
]]></description>
<styleUrl>../style/style.kml#station_icon</styleUrl>
<Point>
<coordinates>6.461900,46.478700</coordinates>
</Point>
</Placemark>
</Document>
</kml>
