<?xml version="1.0" encoding="UTF-8"?>
<!-- KML Regionator 303:340M -->
<kml xmlns="http://earth.google.com/kml/2.1">
<Document>
<name>1420 03013223</name>
<Region>
<Lod>
<minLodPixels>256</minLodPixels>
<maxLodPixels>-1</maxLodPixels>
</Lod>
<LatLonAltBox>
<north>47.1533203125</north>
<south>47.109375</south>
<east>9.580078125</east>
<west>9.5361328125</west>
</LatLonAltBox>
</Region>
<Placemark id="pm2881">
<name><![CDATA[Steg FL, Kurhaus]]></name>
<description><![CDATA[72 connections
]]></description>
<styleUrl>../style/style.kml#station_icon</styleUrl>
<Point>
<coordinates>9.575010,47.112500</coordinates>
</Point>
</Placemark>
<Placemark id="pm1663">
<name><![CDATA[Triesenberg, Steg Tunnel]]></name>
<description><![CDATA[72 connections
]]></description>
<styleUrl>../style/style.kml#station_icon</styleUrl>
<Point>
<coordinates>9.552580,47.120100</coordinates>
</Point>
</Placemark>
<Placemark id="pm8095">
<name><![CDATA[Triesenberg, Rizlina]]></name>
<description><![CDATA[72 connections
]]></description>
<styleUrl>../style/style.kml#station_icon</styleUrl>
<Point>
<coordinates>9.552010,47.122400</coordinates>
</Point>
</Placemark>
<Placemark id="pm11851">
<name><![CDATA[Triesenberg, Tristel]]></name>
<description><![CDATA[58 connections
]]></description>
<styleUrl>../style/style.kml#station_icon</styleUrl>
<Point>
<coordinates>9.542050,47.120700</coordinates>
</Point>
</Placemark>
<Placemark id="pm612">
<name><![CDATA[Triesenberg, Egga]]></name>
<description><![CDATA[58 connections
]]></description>
<styleUrl>../style/style.kml#station_icon</styleUrl>
<Point>
<coordinates>9.540880,47.124400</coordinates>
</Point>
</Placemark>
<Placemark id="pm3918">
<name><![CDATA[Triesenberg, Samina]]></name>
<description><![CDATA[48 connections
]]></description>
<styleUrl>../style/style.kml#station_icon</styleUrl>
<Point>
<coordinates>9.539020,47.127300</coordinates>
</Point>
</Placemark>
<Placemark id="pm6965">
<name><![CDATA[Triesenberg, Abzw. Silum]]></name>
<description><![CDATA[38 connections
]]></description>
<styleUrl>../style/style.kml#station_icon</styleUrl>
<Point>
<coordinates>9.545250,47.134900</coordinates>
</Point>
</Placemark>
<Placemark id="pm11819">
<name><![CDATA[Triesenberg, Matu]]></name>
<description><![CDATA[38 connections
]]></description>
<styleUrl>../style/style.kml#station_icon</styleUrl>
<Point>
<coordinates>9.544100,47.139200</coordinates>
</Point>
</Placemark>
<Placemark id="pm9444">
<name><![CDATA[Triesenberg, Masescha Kurhaus]]></name>
<description><![CDATA[38 connections
]]></description>
<styleUrl>../style/style.kml#station_icon</styleUrl>
<Point>
<coordinates>9.543160,47.132200</coordinates>
</Point>
</Placemark>
<Placemark id="pm8111">
<name><![CDATA[Triesenberg, Balischguad]]></name>
<description><![CDATA[38 connections
]]></description>
<styleUrl>../style/style.kml#station_icon</styleUrl>
<Point>
<coordinates>9.543160,47.125500</coordinates>
</Point>
</Placemark>
<Placemark id="pm13520">
<name><![CDATA[Triesenberg, Almeina]]></name>
<description><![CDATA[38 connections
]]></description>
<styleUrl>../style/style.kml#station_icon</styleUrl>
<Point>
<coordinates>9.540370,47.128200</coordinates>
</Point>
</Placemark>
<Placemark id="pm13247">
<name><![CDATA[Gaflei]]></name>
<description><![CDATA[19 connections
]]></description>
<styleUrl>../style/style.kml#station_icon</styleUrl>
<Point>
<coordinates>9.544590,47.143200</coordinates>
</Point>
</Placemark>
</Document>
</kml>
