<?xml version="1.0" encoding="UTF-8"?>
<!-- KML Regionator 303:340M -->
<kml xmlns="http://earth.google.com/kml/2.1">
<Document>
<name>1467 030212</name>
<Region>
<Lod>
<minLodPixels>256</minLodPixels>
<maxLodPixels>-1</maxLodPixels>
</Lod>
<LatLonAltBox>
<north>46.93359375</north>
<south>46.7578125</south>
<east>8.96484375</east>
<west>8.7890625</west>
</LatLonAltBox>
</Region>
<Placemark id="pm6788">
<name><![CDATA[Linthal, Frittern]]></name>
<description><![CDATA[50 connections
]]></description>
<styleUrl>../style/style.kml#station_icon</styleUrl>
<Point>
<coordinates>8.958700,46.909100</coordinates>
</Point>
</Placemark>
<Placemark id="pm7725">
<name><![CDATA[Linthal, Kantonsgrenze]]></name>
<description><![CDATA[50 connections
]]></description>
<styleUrl>../style/style.kml#station_icon</styleUrl>
<Point>
<coordinates>8.942540,46.906100</coordinates>
</Point>
</Placemark>
<Placemark id="pm1855">
<name><![CDATA[Urnerboden, Argseeli]]></name>
<description><![CDATA[50 connections
]]></description>
<styleUrl>../style/style.kml#station_icon</styleUrl>
<Point>
<coordinates>8.927950,46.900700</coordinates>
</Point>
</Placemark>
<Placemark id="pm4606">
<name><![CDATA[Urnerboden, Sonne]]></name>
<description><![CDATA[50 connections
]]></description>
<styleUrl>../style/style.kml#station_icon</styleUrl>
<Point>
<coordinates>8.921940,46.896900</coordinates>
</Point>
</Placemark>
<Placemark id="pm13501">
<name><![CDATA[Urnerboden, Dorf]]></name>
<description><![CDATA[35 connections
]]></description>
<styleUrl>../style/style.kml#station_icon</styleUrl>
<Point>
<coordinates>8.900740,46.889600</coordinates>
</Point>
</Placemark>
<Placemark id="pm1165">
<name><![CDATA[Urnerboden, Klus]]></name>
<description><![CDATA[20 connections
]]></description>
<styleUrl>../style/style.kml#station_icon</styleUrl>
<Point>
<coordinates>8.874910,46.868500</coordinates>
</Point>
</Placemark>
<Placemark id="pm4424">
<name><![CDATA[Urnerboden, Vorfrutt]]></name>
<description><![CDATA[20 connections
]]></description>
<styleUrl>../style/style.kml#station_icon</styleUrl>
<Point>
<coordinates>8.869430,46.872200</coordinates>
</Point>
</Placemark>
<Placemark id="pm8037">
<name><![CDATA[Klausen Passhöhe]]></name>
<description><![CDATA[20 connections
]]></description>
<styleUrl>../style/style.kml#station_icon</styleUrl>
<Point>
<coordinates>8.855220,46.868100</coordinates>
</Point>
</Placemark>
<Placemark id="pm14166">
<name><![CDATA[Balm (Klausen)]]></name>
<description><![CDATA[19 connections
]]></description>
<styleUrl>../style/style.kml#station_icon</styleUrl>
<Point>
<coordinates>8.837290,46.872100</coordinates>
</Point>
</Placemark>
<Placemark id="pm908">
<name><![CDATA[Unterschächen, Untere Balm]]></name>
<description><![CDATA[18 connections
]]></description>
<styleUrl>../style/style.kml#station_icon</styleUrl>
<Point>
<coordinates>8.829140,46.874000</coordinates>
</Point>
</Placemark>
<Placemark id="pm12929">
<name><![CDATA[Sali, Seilbahnstation]]></name>
<description><![CDATA[17 connections
]]></description>
<styleUrl>../style/style.kml#station_icon</styleUrl>
<Point>
<coordinates>8.845920,46.913600</coordinates>
</Point>
</Placemark>
</Document>
</kml>
