<?xml version="1.0" encoding="UTF-8"?>
<!-- KML Regionator 303:340M -->
<kml xmlns="http://earth.google.com/kml/2.1">
<Document>
<name>1479 0302221</name>
<Region>
<Lod>
<minLodPixels>256</minLodPixels>
<maxLodPixels>-1</maxLodPixels>
</Lod>
<LatLonAltBox>
<north>46.58203125</north>
<south>46.494140625</south>
<east>8.61328125</east>
<west>8.525390625</west>
</LatLonAltBox>
</Region>
<Placemark id="pm6957">
<name><![CDATA[Fondo del Bosco]]></name>
<description><![CDATA[12 connections
]]></description>
<styleUrl>../style/style.kml#station_icon</styleUrl>
<Point>
<coordinates>8.590880,46.530100</coordinates>
</Point>
</Placemark>
<Placemark id="pm470">
<name><![CDATA[Motto Bartola]]></name>
<description><![CDATA[12 connections
]]></description>
<styleUrl>../style/style.kml#station_icon</styleUrl>
<Point>
<coordinates>8.587070,46.534600</coordinates>
</Point>
</Placemark>
<Placemark id="pm10657">
<name><![CDATA[Airolo, Pian Secco Belvédère]]></name>
<description><![CDATA[12 connections
]]></description>
<styleUrl>../style/style.kml#station_icon</styleUrl>
<Point>
<coordinates>8.574690,46.535200</coordinates>
</Point>
</Placemark>
<Placemark id="pm6585">
<name><![CDATA[Airolo, Galleria Banchi]]></name>
<description><![CDATA[12 connections
]]></description>
<styleUrl>../style/style.kml#station_icon</styleUrl>
<Point>
<coordinates>8.568850,46.536200</coordinates>
</Point>
</Placemark>
<Placemark id="pm3109">
<name><![CDATA[Gotthard Passhöhe]]></name>
<description><![CDATA[12 connections
]]></description>
<styleUrl>../style/style.kml#station_icon</styleUrl>
<Point>
<coordinates>8.566310,46.555100</coordinates>
</Point>
</Placemark>
</Document>
</kml>
