<?xml version="1.0" encoding="UTF-8"?>
<!-- KML Regionator 303:340M -->
<kml xmlns="http://earth.google.com/kml/2.1">
<Document>
<name>1582 0303200</name>
<Region>
<Lod>
<minLodPixels>256</minLodPixels>
<maxLodPixels>-1</maxLodPixels>
</Lod>
<LatLonAltBox>
<north>46.7578125</north>
<south>46.669921875</south>
<east>9.228515625</east>
<west>9.140625</west>
</LatLonAltBox>
</Region>
<NetworkLink>
<name>03032000</name>
<Region>
<Lod>
<minLodPixels>256</minLodPixels>
<maxLodPixels>-1</maxLodPixels>
</Lod>
<LatLonAltBox>
<north>46.7578125</north>
<south>46.7138671875</south>
<east>9.1845703125</east>
<west>9.140625</west>
</LatLonAltBox>
</Region>
<Link>
<href>1583.kml</href>
<viewRefreshMode>onRegion</viewRefreshMode>
<viewFormat/>
</Link>
</NetworkLink>
<NetworkLink>
<name>03032003</name>
<Region>
<Lod>
<minLodPixels>256</minLodPixels>
<maxLodPixels>-1</maxLodPixels>
</Lod>
<LatLonAltBox>
<north>46.7138671875</north>
<south>46.669921875</south>
<east>9.228515625</east>
<west>9.1845703125</west>
</LatLonAltBox>
</Region>
<Link>
<href>1584.kml</href>
<viewRefreshMode>onRegion</viewRefreshMode>
<viewFormat/>
</Link>
</NetworkLink>
<Placemark id="pm3907">
<name><![CDATA[Vattiz, vitg]]></name>
<description><![CDATA[54 connections
]]></description>
<styleUrl>../style/style.kml#station_icon</styleUrl>
<Point>
<coordinates>9.158720,46.705900</coordinates>
</Point>
</Placemark>
<Placemark id="pm12358">
<name><![CDATA[Vignogn, posta]]></name>
<description><![CDATA[52 connections
]]></description>
<styleUrl>../style/style.kml#station_icon</styleUrl>
<Point>
<coordinates>9.156120,46.698200</coordinates>
</Point>
</Placemark>
<Placemark id="pm5653">
<name><![CDATA[Cumbel, Farmarins]]></name>
<description><![CDATA[50 connections
]]></description>
<styleUrl>../style/style.kml#station_icon</styleUrl>
<Point>
<coordinates>9.208920,46.745100</coordinates>
</Point>
</Placemark>
<Placemark id="pm9923">
<name><![CDATA[Cumbel, Valgronda]]></name>
<description><![CDATA[50 connections
]]></description>
<styleUrl>../style/style.kml#station_icon</styleUrl>
<Point>
<coordinates>9.203790,46.732500</coordinates>
</Point>
</Placemark>
<Placemark id="pm2127">
<name><![CDATA[Cumbel, vitg]]></name>
<description><![CDATA[50 connections
]]></description>
<styleUrl>../style/style.kml#station_icon</styleUrl>
<Point>
<coordinates>9.192050,46.725600</coordinates>
</Point>
</Placemark>
<Placemark id="pm14346">
<name><![CDATA[Cumbel, Casa da Vegls]]></name>
<description><![CDATA[50 connections
]]></description>
<styleUrl>../style/style.kml#station_icon</styleUrl>
<Point>
<coordinates>9.188480,46.724400</coordinates>
</Point>
</Placemark>
<Placemark id="pm12991">
<name><![CDATA[Morissen, Padrus]]></name>
<description><![CDATA[40 connections
]]></description>
<styleUrl>../style/style.kml#station_icon</styleUrl>
<Point>
<coordinates>9.181410,46.728300</coordinates>
</Point>
</Placemark>
<Placemark id="pm10266">
<name><![CDATA[Morissen, Mulin]]></name>
<description><![CDATA[40 connections
]]></description>
<styleUrl>../style/style.kml#station_icon</styleUrl>
<Point>
<coordinates>9.181410,46.728100</coordinates>
</Point>
</Placemark>
<Placemark id="pm1785">
<name><![CDATA[Degen, Rumein]]></name>
<description><![CDATA[28 connections
]]></description>
<styleUrl>../style/style.kml#station_icon</styleUrl>
<Point>
<coordinates>9.164370,46.711100</coordinates>
</Point>
</Placemark>
<Placemark id="pm2594">
<name><![CDATA[Morissen, posta]]></name>
<description><![CDATA[22 connections
]]></description>
<styleUrl>../style/style.kml#station_icon</styleUrl>
<Point>
<coordinates>9.180150,46.729700</coordinates>
</Point>
</Placemark>
<Placemark id="pm6531">
<name><![CDATA[Camuns, Masauns]]></name>
<description><![CDATA[20 connections
]]></description>
<styleUrl>../style/style.kml#station_icon</styleUrl>
<Point>
<coordinates>9.199070,46.707900</coordinates>
</Point>
</Placemark>
<Placemark id="pm2886">
<name><![CDATA[Camuns, Sutscheins]]></name>
<description><![CDATA[18 connections
]]></description>
<styleUrl>../style/style.kml#station_icon</styleUrl>
<Point>
<coordinates>9.200290,46.705200</coordinates>
</Point>
</Placemark>
<Placemark id="pm7335">
<name><![CDATA[Degen, vitg]]></name>
<description><![CDATA[18 connections
]]></description>
<styleUrl>../style/style.kml#station_icon</styleUrl>
<Point>
<coordinates>9.169490,46.707500</coordinates>
</Point>
</Placemark>
<Placemark id="pm5813">
<name><![CDATA[Triel]]></name>
<description><![CDATA[18 connections
]]></description>
<styleUrl>../style/style.kml#station_icon</styleUrl>
<Point>
<coordinates>9.156820,46.724100</coordinates>
</Point>
</Placemark>
<Placemark id="pm5836">
<name><![CDATA[Pitasch, posta]]></name>
<description><![CDATA[17 connections
]]></description>
<styleUrl>../style/style.kml#station_icon</styleUrl>
<Point>
<coordinates>9.218170,46.732000</coordinates>
</Point>
</Placemark>
<Placemark id="pm2658">
<name><![CDATA[Duvin, posta]]></name>
<description><![CDATA[16 connections
]]></description>
<styleUrl>../style/style.kml#station_icon</styleUrl>
<Point>
<coordinates>9.211730,46.715100</coordinates>
</Point>
</Placemark>
</Document>
</kml>
