<?xml version="1.0" encoding="UTF-8"?>
<!-- KML Regionator 303:340M -->
<kml xmlns="http://earth.google.com/kml/2.1">
<Document>
<name>1600 030323</name>
<Region>
<Lod>
<minLodPixels>256</minLodPixels>
<maxLodPixels>-1</maxLodPixels>
</Lod>
<LatLonAltBox>
<north>46.58203125</north>
<south>46.40625</south>
<east>9.4921875</east>
<west>9.31640625</west>
</LatLonAltBox>
</Region>
<NetworkLink>
<name>0303230</name>
<Region>
<Lod>
<minLodPixels>256</minLodPixels>
<maxLodPixels>-1</maxLodPixels>
</Lod>
<LatLonAltBox>
<north>46.58203125</north>
<south>46.494140625</south>
<east>9.404296875</east>
<west>9.31640625</west>
</LatLonAltBox>
</Region>
<Link>
<href>1601.kml</href>
<viewRefreshMode>onRegion</viewRefreshMode>
<viewFormat/>
</Link>
</NetworkLink>
<Placemark id="pm7978">
<name><![CDATA[Splügen, Post]]></name>
<description><![CDATA[110 connections
]]></description>
<styleUrl>../style/style.kml#station_icon</styleUrl>
<Point>
<coordinates>9.320720,46.552500</coordinates>
</Point>
</Placemark>
<Placemark id="pm10902">
<name><![CDATA[Sufers]]></name>
<description><![CDATA[104 connections
]]></description>
<styleUrl>../style/style.kml#station_icon</styleUrl>
<Point>
<coordinates>9.368620,46.569700</coordinates>
</Point>
</Placemark>
<Placemark id="pm12724">
<name><![CDATA[Andeer, Rofflaschlucht]]></name>
<description><![CDATA[94 connections
]]></description>
<styleUrl>../style/style.kml#station_icon</styleUrl>
<Point>
<coordinates>9.421250,46.581900</coordinates>
</Point>
</Placemark>
<Placemark id="pm12417">
<name><![CDATA[Ausserferrera, posta]]></name>
<description><![CDATA[38 connections
]]></description>
<styleUrl>../style/style.kml#station_icon</styleUrl>
<Point>
<coordinates>9.439250,46.557000</coordinates>
</Point>
</Placemark>
<Placemark id="pm10446">
<name><![CDATA[Cröt (Avers), Post]]></name>
<description><![CDATA[34 connections
]]></description>
<styleUrl>../style/style.kml#station_icon</styleUrl>
<Point>
<coordinates>9.485180,46.477900</coordinates>
</Point>
</Placemark>
<Placemark id="pm3512">
<name><![CDATA[Campsut (Avers)]]></name>
<description><![CDATA[34 connections
]]></description>
<styleUrl>../style/style.kml#station_icon</styleUrl>
<Point>
<coordinates>9.478330,46.486100</coordinates>
</Point>
</Placemark>
<Placemark id="pm14658">
<name><![CDATA[Innerferrera,AbzwVal digl Uors]]></name>
<description><![CDATA[34 connections
]]></description>
<styleUrl>../style/style.kml#station_icon</styleUrl>
<Point>
<coordinates>9.453590,46.511100</coordinates>
</Point>
</Placemark>
<Placemark id="pm10740">
<name><![CDATA[Innerferrera, Post]]></name>
<description><![CDATA[34 connections
]]></description>
<styleUrl>../style/style.kml#station_icon</styleUrl>
<Point>
<coordinates>9.443150,46.521400</coordinates>
</Point>
</Placemark>
<Placemark id="pm6517">
<name><![CDATA[Campsut-Cröt, Abzw. Valle Lei]]></name>
<description><![CDATA[34 connections
]]></description>
<styleUrl>../style/style.kml#station_icon</styleUrl>
<Point>
<coordinates>9.442820,46.521200</coordinates>
</Point>
</Placemark>
<Placemark id="pm2285">
<name><![CDATA[Ausserferrera, Plan Davains]]></name>
<description><![CDATA[34 connections
]]></description>
<styleUrl>../style/style.kml#station_icon</styleUrl>
<Point>
<coordinates>9.436170,46.544000</coordinates>
</Point>
</Placemark>
<Placemark id="pm11756">
<name><![CDATA[Innerferrera, Punt Martegn]]></name>
<description><![CDATA[34 connections
]]></description>
<styleUrl>../style/style.kml#station_icon</styleUrl>
<Point>
<coordinates>9.435110,46.533000</coordinates>
</Point>
</Placemark>
<Placemark id="pm6131">
<name><![CDATA[Ausserferrera, Schmelzi]]></name>
<description><![CDATA[34 connections
]]></description>
<styleUrl>../style/style.kml#station_icon</styleUrl>
<Point>
<coordinates>9.420920,46.581900</coordinates>
</Point>
</Placemark>
<Placemark id="pm110">
<name><![CDATA[Madesimo]]></name>
<description><![CDATA[8 connections
]]></description>
<styleUrl>../style/style.kml#station_icon</styleUrl>
<Point>
<coordinates>9.357980,46.435600</coordinates>
</Point>
</Placemark>
<Placemark id="pm10015">
<name><![CDATA[Monte Spluga]]></name>
<description><![CDATA[8 connections
]]></description>
<styleUrl>../style/style.kml#station_icon</styleUrl>
<Point>
<coordinates>9.336770,46.489500</coordinates>
</Point>
</Placemark>
<Placemark id="pm12725">
<name><![CDATA[Isola (Italia), Paese]]></name>
<description><![CDATA[8 connections
]]></description>
<styleUrl>../style/style.kml#station_icon</styleUrl>
<Point>
<coordinates>9.331840,46.443400</coordinates>
</Point>
</Placemark>
<Placemark id="pm10433">
<name><![CDATA[Tamboalp, Abzw.]]></name>
<description><![CDATA[8 connections
]]></description>
<styleUrl>../style/style.kml#station_icon</styleUrl>
<Point>
<coordinates>9.330190,46.524900</coordinates>
</Point>
</Placemark>
</Document>
</kml>
