<?xml version="1.0" encoding="UTF-8"?>
<!-- KML Regionator 303:340M -->
<kml xmlns="http://earth.google.com/kml/2.1">
<Document>
<name>1680 032012020</name>
<Region>
<Lod>
<minLodPixels>256</minLodPixels>
<maxLodPixels>-1</maxLodPixels>
</Lod>
<LatLonAltBox>
<north>46.1865234375</north>
<south>46.16455078125</south>
<east>8.81103515625</east>
<west>8.7890625</west>
</LatLonAltBox>
</Region>
<Placemark id="pm2327">
<name><![CDATA[Orselina, Clinica Varini]]></name>
<description><![CDATA[28 connections
]]></description>
<styleUrl>../style/style.kml#station_icon</styleUrl>
<Point>
<coordinates>8.798410,46.177400</coordinates>
</Point>
</Placemark>
<Placemark id="pm545">
<name><![CDATA[Orselina, Caselle]]></name>
<description><![CDATA[28 connections
]]></description>
<styleUrl>../style/style.kml#station_icon</styleUrl>
<Point>
<coordinates>8.796130,46.176700</coordinates>
</Point>
</Placemark>
<Placemark id="pm596">
<name><![CDATA[Orselina CIT]]></name>
<description><![CDATA[22 connections
]]></description>
<styleUrl>../style/style.kml#station_icon</styleUrl>
<Point>
<coordinates>8.791980,46.176000</coordinates>
</Point>
</Placemark>
<Placemark id="pm1463">
<name><![CDATA[Locarno FLMS]]></name>
<description><![CDATA[20 connections
]]></description>
<styleUrl>../style/style.kml#station_icon</styleUrl>
<Point>
<coordinates>8.797440,46.171900</coordinates>
</Point>
</Placemark>
<Placemark id="pm12893">
<name><![CDATA[Madonna del Sasso]]></name>
<description><![CDATA[20 connections
]]></description>
<styleUrl>../style/style.kml#station_icon</styleUrl>
<Point>
<coordinates>8.792820,46.175700</coordinates>
</Point>
</Placemark>
</Document>
</kml>
