<?xml version="1.0" encoding="UTF-8"?>
<!-- KML Regionator 303:340M -->
<kml xmlns="http://earth.google.com/kml/2.1">
<Document>
<name>1691 0320122</name>
<Region>
<Lod>
<minLodPixels>256</minLodPixels>
<maxLodPixels>-1</maxLodPixels>
</Lod>
<LatLonAltBox>
<north>46.142578125</north>
<south>46.0546875</south>
<east>8.876953125</east>
<west>8.7890625</west>
</LatLonAltBox>
</Region>
<NetworkLink>
<name>03201220</name>
<Region>
<Lod>
<minLodPixels>256</minLodPixels>
<maxLodPixels>-1</maxLodPixels>
</Lod>
<LatLonAltBox>
<north>46.142578125</north>
<south>46.0986328125</south>
<east>8.8330078125</east>
<west>8.7890625</west>
</LatLonAltBox>
</Region>
<Link>
<href>1692.kml</href>
<viewRefreshMode>onRegion</viewRefreshMode>
<viewFormat/>
</Link>
</NetworkLink>
<NetworkLink>
<name>03201221</name>
<Region>
<Lod>
<minLodPixels>256</minLodPixels>
<maxLodPixels>-1</maxLodPixels>
</Lod>
<LatLonAltBox>
<north>46.142578125</north>
<south>46.0986328125</south>
<east>8.876953125</east>
<west>8.8330078125</west>
</LatLonAltBox>
</Region>
<Link>
<href>1693.kml</href>
<viewRefreshMode>onRegion</viewRefreshMode>
<viewFormat/>
</Link>
</NetworkLink>
<NetworkLink>
<name>03201222</name>
<Region>
<Lod>
<minLodPixels>256</minLodPixels>
<maxLodPixels>-1</maxLodPixels>
</Lod>
<LatLonAltBox>
<north>46.0986328125</north>
<south>46.0546875</south>
<east>8.8330078125</east>
<west>8.7890625</west>
</LatLonAltBox>
</Region>
<Link>
<href>1694.kml</href>
<viewRefreshMode>onRegion</viewRefreshMode>
<viewFormat/>
</Link>
</NetworkLink>
<Placemark id="pm9353">
<name><![CDATA[Vira (Gambarogno), Vignascia]]></name>
<description><![CDATA[66 connections
]]></description>
<styleUrl>../style/style.kml#station_icon</styleUrl>
<Point>
<coordinates>8.827580,46.140100</coordinates>
</Point>
</Placemark>
<Placemark id="pm23">
<name><![CDATA[Piazzogna, Alabardia]]></name>
<description><![CDATA[66 connections
]]></description>
<styleUrl>../style/style.kml#station_icon</styleUrl>
<Point>
<coordinates>8.814890,46.137600</coordinates>
</Point>
</Placemark>
<Placemark id="pm8387">
<name><![CDATA[Scesana]]></name>
<description><![CDATA[64 connections
]]></description>
<styleUrl>../style/style.kml#station_icon</styleUrl>
<Point>
<coordinates>8.836920,46.138600</coordinates>
</Point>
</Placemark>
<Placemark id="pm9894">
<name><![CDATA[Piazzogna, Belsito]]></name>
<description><![CDATA[58 connections
]]></description>
<styleUrl>../style/style.kml#station_icon</styleUrl>
<Point>
<coordinates>8.830420,46.137400</coordinates>
</Point>
</Placemark>
<Placemark id="pm27">
<name><![CDATA[Piazzogna, Paese]]></name>
<description><![CDATA[58 connections
]]></description>
<styleUrl>../style/style.kml#station_icon</styleUrl>
<Point>
<coordinates>8.824540,46.135200</coordinates>
</Point>
</Placemark>
<Placemark id="pm12519">
<name><![CDATA[Piazzogna, Rist. Gambarogno]]></name>
<description><![CDATA[58 connections
]]></description>
<styleUrl>../style/style.kml#station_icon</styleUrl>
<Point>
<coordinates>8.818680,46.133900</coordinates>
</Point>
</Placemark>
<Placemark id="pm3449">
<name><![CDATA[Vairano, Bivio per S. Nazzaro]]></name>
<description><![CDATA[58 connections
]]></description>
<styleUrl>../style/style.kml#station_icon</styleUrl>
<Point>
<coordinates>8.812850,46.133500</coordinates>
</Point>
</Placemark>
<Placemark id="pm15083">
<name><![CDATA[Vairano, Paese]]></name>
<description><![CDATA[58 connections
]]></description>
<styleUrl>../style/style.kml#station_icon</styleUrl>
<Point>
<coordinates>8.806290,46.130000</coordinates>
</Point>
</Placemark>
<Placemark id="pm11114">
<name><![CDATA[S. Nazzaro, Molinetto]]></name>
<description><![CDATA[44 connections
]]></description>
<styleUrl>../style/style.kml#station_icon</styleUrl>
<Point>
<coordinates>8.800500,46.131400</coordinates>
</Point>
</Placemark>
<Placemark id="pm11979">
<name><![CDATA[Gerra (Gambarogno), Cimitero]]></name>
<description><![CDATA[44 connections
]]></description>
<styleUrl>../style/style.kml#station_icon</styleUrl>
<Point>
<coordinates>8.790010,46.125700</coordinates>
</Point>
</Placemark>
<Placemark id="pm4117">
<name><![CDATA[S. Nazzaro, Posta]]></name>
<description><![CDATA[42 connections
]]></description>
<styleUrl>../style/style.kml#station_icon</styleUrl>
<Point>
<coordinates>8.805770,46.135000</coordinates>
</Point>
</Placemark>
<Placemark id="pm14458">
<name><![CDATA[Vira (Gambarogno), Bellavista]]></name>
<description><![CDATA[36 connections
]]></description>
<styleUrl>../style/style.kml#station_icon</styleUrl>
<Point>
<coordinates>8.838930,46.141100</coordinates>
</Point>
</Placemark>
<Placemark id="pm12238">
<name><![CDATA[Casenzano, Roncaccio]]></name>
<description><![CDATA[36 connections
]]></description>
<styleUrl>../style/style.kml#station_icon</styleUrl>
<Point>
<coordinates>8.805610,46.128700</coordinates>
</Point>
</Placemark>
<Placemark id="pm631">
<name><![CDATA[Casenzano, Paese]]></name>
<description><![CDATA[36 connections
]]></description>
<styleUrl>../style/style.kml#station_icon</styleUrl>
<Point>
<coordinates>8.803010,46.128300</coordinates>
</Point>
</Placemark>
<Placemark id="pm5841">
<name><![CDATA[Casenzano, La Tempelina]]></name>
<description><![CDATA[36 connections
]]></description>
<styleUrl>../style/style.kml#station_icon</styleUrl>
<Point>
<coordinates>8.799090,46.126500</coordinates>
</Point>
</Placemark>
<Placemark id="pm9792">
<name><![CDATA[Casenzano, Maggiolo]]></name>
<description><![CDATA[36 connections
]]></description>
<styleUrl>../style/style.kml#station_icon</styleUrl>
<Point>
<coordinates>8.794530,46.125200</coordinates>
</Point>
</Placemark>
</Document>
</kml>
