<?xml version="1.0" encoding="UTF-8"?>
<!-- KML Regionator 303:340M -->
<kml xmlns="http://earth.google.com/kml/2.1">
<Document>
<name>1743 032030130</name>
<Region>
<Lod>
<minLodPixels>256</minLodPixels>
<maxLodPixels>-1</maxLodPixels>
</Lod>
<LatLonAltBox>
<north>46.0107421875</north>
<south>45.98876953125</south>
<east>8.94287109375</east>
<west>8.9208984375</west>
</LatLonAltBox>
</Region>
<Placemark id="pm11412">
<name><![CDATA[Sorengo, Moncucchetto]]></name>
<description><![CDATA[52 connections
]]></description>
<styleUrl>../style/style.kml#station_icon</styleUrl>
<Point>
<coordinates>8.936400,46.004800</coordinates>
</Point>
</Placemark>
<Placemark id="pm9973">
<name><![CDATA[Cortivallo, Paese]]></name>
<description><![CDATA[52 connections
]]></description>
<styleUrl>../style/style.kml#station_icon</styleUrl>
<Point>
<coordinates>8.935050,46.002700</coordinates>
</Point>
</Placemark>
<Placemark id="pm13109">
<name><![CDATA[Cortivallo, Casa Anziani]]></name>
<description><![CDATA[52 connections
]]></description>
<styleUrl>../style/style.kml#station_icon</styleUrl>
<Point>
<coordinates>8.934520,46.002200</coordinates>
</Point>
</Placemark>
<Placemark id="pm9589">
<name><![CDATA[Cremignone, Paese]]></name>
<description><![CDATA[52 connections
]]></description>
<styleUrl>../style/style.kml#station_icon</styleUrl>
<Point>
<coordinates>8.932700,46.001600</coordinates>
</Point>
</Placemark>
<Placemark id="pm11406">
<name><![CDATA[Prevagno, Paese]]></name>
<description><![CDATA[52 connections
]]></description>
<styleUrl>../style/style.kml#station_icon</styleUrl>
<Point>
<coordinates>8.926170,45.998900</coordinates>
</Point>
</Placemark>
<Placemark id="pm413">
<name><![CDATA[Paradiso, Piscina]]></name>
<description><![CDATA[50 connections
]]></description>
<styleUrl>../style/style.kml#station_icon</styleUrl>
<Point>
<coordinates>8.940870,45.988900</coordinates>
</Point>
</Placemark>
<Placemark id="pm7334">
<name><![CDATA[Lugano, S. Rocco]]></name>
<description><![CDATA[26 connections
]]></description>
<styleUrl>../style/style.kml#station_icon</styleUrl>
<Point>
<coordinates>8.939560,46.007000</coordinates>
</Point>
</Placemark>
<Placemark id="pm9448">
<name><![CDATA[Muzzano, Paese]]></name>
<description><![CDATA[26 connections
]]></description>
<styleUrl>../style/style.kml#station_icon</styleUrl>
<Point>
<coordinates>8.922530,45.998000</coordinates>
</Point>
</Placemark>
</Document>
</kml>
