<?xml version="1.0" encoding="UTF-8"?>
<!-- KML Regionator 303:340M -->
<kml xmlns="http://earth.google.com/kml/2.1">
<Document>
<name>176 02033210</name>
<Region>
<Lod>
<minLodPixels>256</minLodPixels>
<maxLodPixels>-1</maxLodPixels>
</Lod>
<LatLonAltBox>
<north>46.58203125</north>
<south>46.5380859375</south>
<east>6.8115234375</east>
<west>6.767578125</west>
</LatLonAltBox>
</Region>
<Placemark id="pm10603">
<name><![CDATA[Châtillens, collège]]></name>
<description><![CDATA[42 connections
]]></description>
<styleUrl>../style/style.kml#station_icon</styleUrl>
<Point>
<coordinates>6.804120,46.565200</coordinates>
</Point>
</Placemark>
<Placemark id="pm11860">
<name><![CDATA[Châtillens, Le Péleret]]></name>
<description><![CDATA[42 connections
]]></description>
<styleUrl>../style/style.kml#station_icon</styleUrl>
<Point>
<coordinates>6.796640,46.563100</coordinates>
</Point>
</Placemark>
<Placemark id="pm2065">
<name><![CDATA[Essertes, collège]]></name>
<description><![CDATA[36 connections
]]></description>
<styleUrl>../style/style.kml#station_icon</styleUrl>
<Point>
<coordinates>6.789150,46.562400</coordinates>
</Point>
</Placemark>
<Placemark id="pm4243">
<name><![CDATA[Servion, Clos de l'Auberge]]></name>
<description><![CDATA[30 connections
]]></description>
<styleUrl>../style/style.kml#station_icon</styleUrl>
<Point>
<coordinates>6.782560,46.568000</coordinates>
</Point>
</Placemark>
<Placemark id="pm13009">
<name><![CDATA[Vuibroye, Champacot]]></name>
<description><![CDATA[22 connections
]]></description>
<styleUrl>../style/style.kml#station_icon</styleUrl>
<Point>
<coordinates>6.809210,46.575800</coordinates>
</Point>
</Placemark>
<Placemark id="pm160">
<name><![CDATA[Vuibroye, village]]></name>
<description><![CDATA[16 connections
]]></description>
<styleUrl>../style/style.kml#station_icon</styleUrl>
<Point>
<coordinates>6.805340,46.571900</coordinates>
</Point>
</Placemark>
<Placemark id="pm10080">
<name><![CDATA[Servion, Grange Rouge]]></name>
<description><![CDATA[16 connections
]]></description>
<styleUrl>../style/style.kml#station_icon</styleUrl>
<Point>
<coordinates>6.778950,46.571100</coordinates>
</Point>
</Placemark>
<Placemark id="pm4154">
<name><![CDATA[Auboranges, Café]]></name>
<description><![CDATA[6 connections
]]></description>
<styleUrl>../style/style.kml#station_icon</styleUrl>
<Point>
<coordinates>6.805560,46.581400</coordinates>
</Point>
</Placemark>
<Placemark id="pm4379">
<name><![CDATA[Servion, Le Zoo]]></name>
<description><![CDATA[2 connections
]]></description>
<styleUrl>../style/style.kml#station_icon</styleUrl>
<Point>
<coordinates>6.773780,46.566100</coordinates>
</Point>
</Placemark>
</Document>
</kml>
