<?xml version="1.0" encoding="UTF-8"?>
<!-- KML Regionator 303:340M -->
<kml xmlns="http://earth.google.com/kml/2.1">
<Document>
<name>1784 03210</name>
<Region>
<Lod>
<minLodPixels>256</minLodPixels>
<maxLodPixels>-1</maxLodPixels>
</Lod>
<LatLonAltBox>
<north>46.40625</north>
<south>46.0546875</south>
<east>9.4921875</east>
<west>9.140625</west>
</LatLonAltBox>
</Region>
<NetworkLink>
<name>032100</name>
<Region>
<Lod>
<minLodPixels>256</minLodPixels>
<maxLodPixels>-1</maxLodPixels>
</Lod>
<LatLonAltBox>
<north>46.40625</north>
<south>46.23046875</south>
<east>9.31640625</east>
<west>9.140625</west>
</LatLonAltBox>
</Region>
<Link>
<href>1785.kml</href>
<viewRefreshMode>onRegion</viewRefreshMode>
<viewFormat/>
</Link>
</NetworkLink>
<NetworkLink>
<name>032101</name>
<Region>
<Lod>
<minLodPixels>256</minLodPixels>
<maxLodPixels>-1</maxLodPixels>
</Lod>
<LatLonAltBox>
<north>46.40625</north>
<south>46.23046875</south>
<east>9.4921875</east>
<west>9.31640625</west>
</LatLonAltBox>
</Region>
<Link>
<href>1786.kml</href>
<viewRefreshMode>onRegion</viewRefreshMode>
<viewFormat/>
</Link>
</NetworkLink>
<NetworkLink>
<name>032102</name>
<Region>
<Lod>
<minLodPixels>256</minLodPixels>
<maxLodPixels>-1</maxLodPixels>
</Lod>
<LatLonAltBox>
<north>46.23046875</north>
<south>46.0546875</south>
<east>9.31640625</east>
<west>9.140625</west>
</LatLonAltBox>
</Region>
<Link>
<href>1787.kml</href>
<viewRefreshMode>onRegion</viewRefreshMode>
<viewFormat/>
</Link>
</NetworkLink>
<NetworkLink>
<name>032103</name>
<Region>
<Lod>
<minLodPixels>256</minLodPixels>
<maxLodPixels>-1</maxLodPixels>
</Lod>
<LatLonAltBox>
<north>46.23046875</north>
<south>46.0546875</south>
<east>9.4921875</east>
<west>9.31640625</west>
</LatLonAltBox>
</Region>
<Link>
<href>1788.kml</href>
<viewRefreshMode>onRegion</viewRefreshMode>
<viewFormat/>
</Link>
</NetworkLink>
<Placemark id="pm10845">
<name><![CDATA[Cabbiolo, Paese]]></name>
<description><![CDATA[94 connections
]]></description>
<styleUrl>../style/style.kml#station_icon</styleUrl>
<Point>
<coordinates>9.205170,46.329200</coordinates>
</Point>
</Placemark>
<Placemark id="pm4079">
<name><![CDATA[Cabbiolo, Ca del Fum]]></name>
<description><![CDATA[94 connections
]]></description>
<styleUrl>../style/style.kml#station_icon</styleUrl>
<Point>
<coordinates>9.203830,46.327900</coordinates>
</Point>
</Placemark>
<Placemark id="pm3517">
<name><![CDATA[Lostallo, Paese]]></name>
<description><![CDATA[94 connections
]]></description>
<styleUrl>../style/style.kml#station_icon</styleUrl>
<Point>
<coordinates>9.195870,46.312700</coordinates>
</Point>
</Placemark>
<Placemark id="pm12821">
<name><![CDATA[Lostallo, Posta]]></name>
<description><![CDATA[94 connections
]]></description>
<styleUrl>../style/style.kml#station_icon</styleUrl>
<Point>
<coordinates>9.193840,46.310100</coordinates>
</Point>
</Placemark>
<Placemark id="pm1126">
<name><![CDATA[Sorte]]></name>
<description><![CDATA[94 connections
]]></description>
<styleUrl>../style/style.kml#station_icon</styleUrl>
<Point>
<coordinates>9.179640,46.292200</coordinates>
</Point>
</Placemark>
<Placemark id="pm262">
<name><![CDATA[Cama, Piani di Verdabbio]]></name>
<description><![CDATA[94 connections
]]></description>
<styleUrl>../style/style.kml#station_icon</styleUrl>
<Point>
<coordinates>9.175920,46.287600</coordinates>
</Point>
</Placemark>
<Placemark id="pm12129">
<name><![CDATA[Soazza]]></name>
<description><![CDATA[88 connections
]]></description>
<styleUrl>../style/style.kml#station_icon</styleUrl>
<Point>
<coordinates>9.221980,46.366300</coordinates>
</Point>
</Placemark>
<Placemark id="pm3878">
<name><![CDATA[Sta. Maria in Calanca, Pozzo B]]></name>
<description><![CDATA[78 connections
]]></description>
<styleUrl>../style/style.kml#station_icon</styleUrl>
<Point>
<coordinates>9.143650,46.262200</coordinates>
</Point>
</Placemark>
<Placemark id="pm7800">
<name><![CDATA[Castaneda, Alla Leura]]></name>
<description><![CDATA[78 connections
]]></description>
<styleUrl>../style/style.kml#station_icon</styleUrl>
<Point>
<coordinates>9.140960,46.259100</coordinates>
</Point>
</Placemark>
<Placemark id="pm10302">
<name><![CDATA[Sta. Maria in Calanca, Posta]]></name>
<description><![CDATA[74 connections
]]></description>
<styleUrl>../style/style.kml#station_icon</styleUrl>
<Point>
<coordinates>9.142090,46.262200</coordinates>
</Point>
</Placemark>
<Placemark id="pm8666">
<name><![CDATA[Mesocco, Posta]]></name>
<description><![CDATA[50 connections
]]></description>
<styleUrl>../style/style.kml#station_icon</styleUrl>
<Point>
<coordinates>9.233230,46.392000</coordinates>
</Point>
</Placemark>
<Placemark id="pm5208">
<name><![CDATA[Mesocco, Nord]]></name>
<description><![CDATA[50 connections
]]></description>
<styleUrl>../style/style.kml#station_icon</styleUrl>
<Point>
<coordinates>9.232280,46.392900</coordinates>
</Point>
</Placemark>
<Placemark id="pm14666">
<name><![CDATA[Mesocco, Ponte Anzone]]></name>
<description><![CDATA[50 connections
]]></description>
<styleUrl>../style/style.kml#station_icon</styleUrl>
<Point>
<coordinates>9.230520,46.398800</coordinates>
</Point>
</Placemark>
<Placemark id="pm2321">
<name><![CDATA[Sta. Maria in Calanca, Paese]]></name>
<description><![CDATA[39 connections
]]></description>
<styleUrl>../style/style.kml#station_icon</styleUrl>
<Point>
<coordinates>9.144320,46.263100</coordinates>
</Point>
</Placemark>
<Placemark id="pm7388">
<name><![CDATA[Villa di Chiavenna]]></name>
<description><![CDATA[30 connections
]]></description>
<styleUrl>../style/style.kml#station_icon</styleUrl>
<Point>
<coordinates>9.488470,46.330700</coordinates>
</Point>
</Placemark>
<Placemark id="pm6926">
<name><![CDATA[S. Croce]]></name>
<description><![CDATA[30 connections
]]></description>
<styleUrl>../style/style.kml#station_icon</styleUrl>
<Point>
<coordinates>9.456310,46.325200</coordinates>
</Point>
</Placemark>
</Document>
</kml>
