<?xml version="1.0" encoding="UTF-8"?>
<!-- KML Regionator 303:340M -->
<kml xmlns="http://earth.google.com/kml/2.1">
<Document>
<name>203 0210130</name>
<Region>
<Lod>
<minLodPixels>256</minLodPixels>
<maxLodPixels>-1</maxLodPixels>
</Lod>
<LatLonAltBox>
<north>47.63671875</north>
<south>47.548828125</south>
<east>7.646484375</east>
<west>7.55859375</west>
</LatLonAltBox>
</Region>
<Placemark id="pm2115">
<name><![CDATA[Basel Theater]]></name>
<description><![CDATA[218 connections
]]></description>
<styleUrl>../style/style.kml#station_icon</styleUrl>
<Point>
<coordinates>7.589970,47.553800</coordinates>
</Point>
</Placemark>
<Placemark id="pm14753">
<name><![CDATA[Basel, Schifflände]]></name>
<description><![CDATA[211 connections
]]></description>
<styleUrl>../style/style.kml#station_icon</styleUrl>
<Point>
<coordinates>7.588460,47.559500</coordinates>
</Point>
</Placemark>
<Placemark id="pm15118">
<name><![CDATA[Basel, Bethesda-Spital]]></name>
<description><![CDATA[208 connections
]]></description>
<styleUrl>../style/style.kml#station_icon</styleUrl>
<Point>
<coordinates>7.617690,47.549000</coordinates>
</Point>
</Placemark>
<Placemark id="pm6272">
<name><![CDATA[Basel Claraplatz]]></name>
<description><![CDATA[176 connections
]]></description>
<styleUrl>../style/style.kml#station_icon</styleUrl>
<Point>
<coordinates>7.593200,47.561700</coordinates>
</Point>
</Placemark>
<Placemark id="pm5659">
<name><![CDATA[Basel Barfüsserplatz BLT]]></name>
<description><![CDATA[176 connections
]]></description>
<styleUrl>../style/style.kml#station_icon</styleUrl>
<Point>
<coordinates>7.589290,47.554800</coordinates>
</Point>
</Placemark>
<Placemark id="pm13057">
<name><![CDATA[Basel Wiesenplatz]]></name>
<description><![CDATA[88 connections
]]></description>
<styleUrl>../style/style.kml#station_icon</styleUrl>
<Point>
<coordinates>7.591590,47.577300</coordinates>
</Point>
</Placemark>
<Placemark id="pm6286">
<name><![CDATA[Basel Bankverein]]></name>
<description><![CDATA[42 connections
]]></description>
<styleUrl>../style/style.kml#station_icon</styleUrl>
<Point>
<coordinates>7.592250,47.553600</coordinates>
</Point>
</Placemark>
<Placemark id="pm1213">
<name><![CDATA[Basel Markthalle]]></name>
<description><![CDATA[42 connections
]]></description>
<styleUrl>../style/style.kml#station_icon</styleUrl>
<Point>
<coordinates>7.586420,47.548900</coordinates>
</Point>
</Placemark>
<Placemark id="pm9987">
<name><![CDATA[Weil am Rhein Center]]></name>
<description><![CDATA[14 connections
]]></description>
<styleUrl>../style/style.kml#station_icon</styleUrl>
<Point>
<coordinates>7.594490,47.601500</coordinates>
</Point>
</Placemark>
<Placemark id="pm10324">
<name><![CDATA[Huningue BPG]]></name>
<description><![CDATA[14 connections
]]></description>
<styleUrl>../style/style.kml#station_icon</styleUrl>
<Point>
<coordinates>7.589970,47.593700</coordinates>
</Point>
</Placemark>
<Placemark id="pm3754">
<name><![CDATA[Basel Rheinhafen/Dreiländereck]]></name>
<description><![CDATA[13 connections
]]></description>
<styleUrl>../style/style.kml#station_icon</styleUrl>
<Point>
<coordinates>7.589120,47.587800</coordinates>
</Point>
</Placemark>
<Placemark id="pm13591">
<name><![CDATA[Basel St. Albantal]]></name>
<description><![CDATA[10 connections
]]></description>
<styleUrl>../style/style.kml#station_icon</styleUrl>
<Point>
<coordinates>7.600970,47.555200</coordinates>
</Point>
</Placemark>
<Placemark id="pm11182">
<name><![CDATA[Muttenz BPG]]></name>
<description><![CDATA[8 connections
]]></description>
<styleUrl>../style/style.kml#station_icon</styleUrl>
<Point>
<coordinates>7.646330,47.549400</coordinates>
</Point>
</Placemark>
<Placemark id="pm14182">
<name><![CDATA[Birsfelden BPG]]></name>
<description><![CDATA[8 connections
]]></description>
<styleUrl>../style/style.kml#station_icon</styleUrl>
<Point>
<coordinates>7.619360,47.558200</coordinates>
</Point>
</Placemark>
<Placemark id="pm4189">
<name><![CDATA[Basel Museum Jean Tinguely]]></name>
<description><![CDATA[8 connections
]]></description>
<styleUrl>../style/style.kml#station_icon</styleUrl>
<Point>
<coordinates>7.614120,47.557100</coordinates>
</Point>
</Placemark>
</Document>
</kml>
