<?xml version="1.0" encoding="UTF-8"?>
<!-- KML Regionator 303:340M -->
<kml xmlns="http://earth.google.com/kml/2.1">
<Document>
<name>215 0210200</name>
<Region>
<Lod>
<minLodPixels>256</minLodPixels>
<maxLodPixels>-1</maxLodPixels>
</Lod>
<LatLonAltBox>
<north>47.4609375</north>
<south>47.373046875</south>
<east>7.119140625</east>
<west>7.03125</west>
</LatLonAltBox>
</Region>
<NetworkLink>
<name>02102000</name>
<Region>
<Lod>
<minLodPixels>256</minLodPixels>
<maxLodPixels>-1</maxLodPixels>
</Lod>
<LatLonAltBox>
<north>47.4609375</north>
<south>47.4169921875</south>
<east>7.0751953125</east>
<west>7.03125</west>
</LatLonAltBox>
</Region>
<Link>
<href>216.kml</href>
<viewRefreshMode>onRegion</viewRefreshMode>
<viewFormat/>
</Link>
</NetworkLink>
<NetworkLink>
<name>02102001</name>
<Region>
<Lod>
<minLodPixels>256</minLodPixels>
<maxLodPixels>-1</maxLodPixels>
</Lod>
<LatLonAltBox>
<north>47.4609375</north>
<south>47.4169921875</south>
<east>7.119140625</east>
<west>7.0751953125</west>
</LatLonAltBox>
</Region>
<Link>
<href>217.kml</href>
<viewRefreshMode>onRegion</viewRefreshMode>
<viewFormat/>
</Link>
</NetworkLink>
<NetworkLink>
<name>02102002</name>
<Region>
<Lod>
<minLodPixels>256</minLodPixels>
<maxLodPixels>-1</maxLodPixels>
</Lod>
<LatLonAltBox>
<north>47.4169921875</north>
<south>47.373046875</south>
<east>7.0751953125</east>
<west>7.03125</west>
</LatLonAltBox>
</Region>
<Link>
<href>218.kml</href>
<viewRefreshMode>onRegion</viewRefreshMode>
<viewFormat/>
</Link>
</NetworkLink>
<Placemark id="pm13388">
<name><![CDATA[Porrentruy, Chaumont]]></name>
<description><![CDATA[46 connections
]]></description>
<styleUrl>../style/style.kml#station_icon</styleUrl>
<Point>
<coordinates>7.078900,47.412800</coordinates>
</Point>
</Placemark>
<Placemark id="pm5286">
<name><![CDATA[Porrentruy, bif. de Beaupré]]></name>
<description><![CDATA[46 connections
]]></description>
<styleUrl>../style/style.kml#station_icon</styleUrl>
<Point>
<coordinates>7.066550,47.417700</coordinates>
</Point>
</Placemark>
<Placemark id="pm2148">
<name><![CDATA[Porrentruy, Haut de la Presse]]></name>
<description><![CDATA[46 connections
]]></description>
<styleUrl>../style/style.kml#station_icon</styleUrl>
<Point>
<coordinates>7.055360,47.425800</coordinates>
</Point>
</Placemark>
<Placemark id="pm10294">
<name><![CDATA[Fontenais, sur Les Rochets]]></name>
<description><![CDATA[32 connections
]]></description>
<styleUrl>../style/style.kml#station_icon</styleUrl>
<Point>
<coordinates>7.080300,47.402100</coordinates>
</Point>
</Placemark>
<Placemark id="pm12375">
<name><![CDATA[Fontenais, poste]]></name>
<description><![CDATA[32 connections
]]></description>
<styleUrl>../style/style.kml#station_icon</styleUrl>
<Point>
<coordinates>7.079890,47.403900</coordinates>
</Point>
</Placemark>
<Placemark id="pm11285">
<name><![CDATA[Coeuve, poste]]></name>
<description><![CDATA[22 connections
]]></description>
<styleUrl>../style/style.kml#station_icon</styleUrl>
<Point>
<coordinates>7.098650,47.452900</coordinates>
</Point>
</Placemark>
<Placemark id="pm7836">
<name><![CDATA[Coeuve, rte de Porrentruy]]></name>
<description><![CDATA[22 connections
]]></description>
<styleUrl>../style/style.kml#station_icon</styleUrl>
<Point>
<coordinates>7.098010,47.450000</coordinates>
</Point>
</Placemark>
<Placemark id="pm152">
<name><![CDATA[Porrentruy, Hôpital croisée]]></name>
<description><![CDATA[22 connections
]]></description>
<styleUrl>../style/style.kml#station_icon</styleUrl>
<Point>
<coordinates>7.060970,47.419600</coordinates>
</Point>
</Placemark>
<Placemark id="pm11003">
<name><![CDATA[Courtedoux, poste]]></name>
<description><![CDATA[22 connections
]]></description>
<styleUrl>../style/style.kml#station_icon</styleUrl>
<Point>
<coordinates>7.041830,47.409600</coordinates>
</Point>
</Placemark>
<Placemark id="pm11811">
<name><![CDATA[Courtedoux, Combatte]]></name>
<description><![CDATA[21 connections
]]></description>
<styleUrl>../style/style.kml#station_icon</styleUrl>
<Point>
<coordinates>7.049580,47.400700</coordinates>
</Point>
</Placemark>
<Placemark id="pm8431">
<name><![CDATA[Porrentruy, Mont Terri]]></name>
<description><![CDATA[20 connections
]]></description>
<styleUrl>../style/style.kml#station_icon</styleUrl>
<Point>
<coordinates>7.066320,47.412100</coordinates>
</Point>
</Placemark>
<Placemark id="pm13981">
<name><![CDATA[Porrentruy, Belle-Croix]]></name>
<description><![CDATA[20 connections
]]></description>
<styleUrl>../style/style.kml#station_icon</styleUrl>
<Point>
<coordinates>7.059660,47.417300</coordinates>
</Point>
</Placemark>
<Placemark id="pm2655">
<name><![CDATA[Bressaucourt, bas du village]]></name>
<description><![CDATA[20 connections
]]></description>
<styleUrl>../style/style.kml#station_icon</styleUrl>
<Point>
<coordinates>7.041720,47.388500</coordinates>
</Point>
</Placemark>
<Placemark id="pm4986">
<name><![CDATA[Bressaucourt, poste]]></name>
<description><![CDATA[20 connections
]]></description>
<styleUrl>../style/style.kml#station_icon</styleUrl>
<Point>
<coordinates>7.034980,47.386900</coordinates>
</Point>
</Placemark>
<Placemark id="pm7683">
<name><![CDATA[Porrentruy, St. Germain]]></name>
<description><![CDATA[18 connections
]]></description>
<styleUrl>../style/style.kml#station_icon</styleUrl>
<Point>
<coordinates>7.078620,47.416000</coordinates>
</Point>
</Placemark>
<Placemark id="pm791">
<name><![CDATA[Villars-sur-Fontenais]]></name>
<description><![CDATA[16 connections
]]></description>
<styleUrl>../style/style.kml#station_icon</styleUrl>
<Point>
<coordinates>7.080260,47.387600</coordinates>
</Point>
</Placemark>
</Document>
</kml>
