<?xml version="1.0" encoding="UTF-8"?>
<!-- KML Regionator 303:340M -->
<kml xmlns="http://earth.google.com/kml/2.1">
<Document>
<name>270 0210310</name>
<Region>
<Lod>
<minLodPixels>256</minLodPixels>
<maxLodPixels>-1</maxLodPixels>
</Lod>
<LatLonAltBox>
<north>47.4609375</north>
<south>47.373046875</south>
<east>7.646484375</east>
<west>7.55859375</west>
</LatLonAltBox>
</Region>
<NetworkLink>
<name>02103100</name>
<Region>
<Lod>
<minLodPixels>256</minLodPixels>
<maxLodPixels>-1</maxLodPixels>
</Lod>
<LatLonAltBox>
<north>47.4609375</north>
<south>47.4169921875</south>
<east>7.6025390625</east>
<west>7.55859375</west>
</LatLonAltBox>
</Region>
<Link>
<href>271.kml</href>
<viewRefreshMode>onRegion</viewRefreshMode>
<viewFormat/>
</Link>
</NetworkLink>
<NetworkLink>
<name>02103101</name>
<Region>
<Lod>
<minLodPixels>256</minLodPixels>
<maxLodPixels>-1</maxLodPixels>
</Lod>
<LatLonAltBox>
<north>47.4609375</north>
<south>47.4169921875</south>
<east>7.646484375</east>
<west>7.6025390625</west>
</LatLonAltBox>
</Region>
<Link>
<href>272.kml</href>
<viewRefreshMode>onRegion</viewRefreshMode>
<viewFormat/>
</Link>
</NetworkLink>
<NetworkLink>
<name>02103102</name>
<Region>
<Lod>
<minLodPixels>256</minLodPixels>
<maxLodPixels>-1</maxLodPixels>
</Lod>
<LatLonAltBox>
<north>47.4169921875</north>
<south>47.373046875</south>
<east>7.6025390625</east>
<west>7.55859375</west>
</LatLonAltBox>
</Region>
<Link>
<href>273.kml</href>
<viewRefreshMode>onRegion</viewRefreshMode>
<viewFormat/>
</Link>
</NetworkLink>
<NetworkLink>
<name>02103103</name>
<Region>
<Lod>
<minLodPixels>256</minLodPixels>
<maxLodPixels>-1</maxLodPixels>
</Lod>
<LatLonAltBox>
<north>47.4169921875</north>
<south>47.373046875</south>
<east>7.646484375</east>
<west>7.6025390625</west>
</LatLonAltBox>
</Region>
<Link>
<href>274.kml</href>
<viewRefreshMode>onRegion</viewRefreshMode>
<viewFormat/>
</Link>
</NetworkLink>
<Placemark id="pm8852">
<name><![CDATA[Duggingen]]></name>
<description><![CDATA[168 connections
]]></description>
<styleUrl>../style/style.kml#station_icon</styleUrl>
<Point>
<coordinates>7.603460,47.453400</coordinates>
</Point>
</Placemark>
<Placemark id="pm3253">
<name><![CDATA[Grellingen]]></name>
<description><![CDATA[168 connections
]]></description>
<styleUrl>../style/style.kml#station_icon</styleUrl>
<Point>
<coordinates>7.591990,47.441300</coordinates>
</Point>
</Placemark>
<Placemark id="pm9942">
<name><![CDATA[Pfeffingen, Bergmattenweg]]></name>
<description><![CDATA[159 connections
]]></description>
<styleUrl>../style/style.kml#station_icon</styleUrl>
<Point>
<coordinates>7.583190,47.459200</coordinates>
</Point>
</Placemark>
<Placemark id="pm9295">
<name><![CDATA[Nunningen, Oberkirch]]></name>
<description><![CDATA[152 connections
]]></description>
<styleUrl>../style/style.kml#station_icon</styleUrl>
<Point>
<coordinates>7.612470,47.391500</coordinates>
</Point>
</Placemark>
<Placemark id="pm13644">
<name><![CDATA[Zullwil, Post]]></name>
<description><![CDATA[152 connections
]]></description>
<styleUrl>../style/style.kml#station_icon</styleUrl>
<Point>
<coordinates>7.600220,47.390800</coordinates>
</Point>
</Placemark>
<Placemark id="pm6186">
<name><![CDATA[Zullwil, Gilgenberg]]></name>
<description><![CDATA[152 connections
]]></description>
<styleUrl>../style/style.kml#station_icon</styleUrl>
<Point>
<coordinates>7.596250,47.392200</coordinates>
</Point>
</Placemark>
<Placemark id="pm12165">
<name><![CDATA[Meltingen, Post]]></name>
<description><![CDATA[152 connections
]]></description>
<styleUrl>../style/style.kml#station_icon</styleUrl>
<Point>
<coordinates>7.590280,47.389700</coordinates>
</Point>
</Placemark>
<Placemark id="pm13606">
<name><![CDATA[Meltingen, Gemeindezentrum]]></name>
<description><![CDATA[152 connections
]]></description>
<styleUrl>../style/style.kml#station_icon</styleUrl>
<Point>
<coordinates>7.588950,47.387700</coordinates>
</Point>
</Placemark>
<Placemark id="pm1372">
<name><![CDATA[Fehren, Steinenbühlhöhe]]></name>
<description><![CDATA[152 connections
]]></description>
<styleUrl>../style/style.kml#station_icon</styleUrl>
<Point>
<coordinates>7.584000,47.394000</coordinates>
</Point>
</Placemark>
<Placemark id="pm553">
<name><![CDATA[Fehren, Post]]></name>
<description><![CDATA[150 connections
]]></description>
<styleUrl>../style/style.kml#station_icon</styleUrl>
<Point>
<coordinates>7.578380,47.397100</coordinates>
</Point>
</Placemark>
<Placemark id="pm13752">
<name><![CDATA[Breitenbach, TCS Rastplatz]]></name>
<description><![CDATA[150 connections
]]></description>
<styleUrl>../style/style.kml#station_icon</styleUrl>
<Point>
<coordinates>7.568790,47.401700</coordinates>
</Point>
</Placemark>
<Placemark id="pm3434">
<name><![CDATA[Bretzwil, Sabelhöhe]]></name>
<description><![CDATA[124 connections
]]></description>
<styleUrl>../style/style.kml#station_icon</styleUrl>
<Point>
<coordinates>7.640630,47.396200</coordinates>
</Point>
</Placemark>
<Placemark id="pm10674">
<name><![CDATA[Seewen SO, Bödeli]]></name>
<description><![CDATA[124 connections
]]></description>
<styleUrl>../style/style.kml#station_icon</styleUrl>
<Point>
<coordinates>7.638120,47.431200</coordinates>
</Point>
</Placemark>
<Placemark id="pm8075">
<name><![CDATA[Seewen SO, Seetalhöhe]]></name>
<description><![CDATA[124 connections
]]></description>
<styleUrl>../style/style.kml#station_icon</styleUrl>
<Point>
<coordinates>7.629160,47.429500</coordinates>
</Point>
</Placemark>
<Placemark id="pm12525">
<name><![CDATA[Nunningen, Riseten]]></name>
<description><![CDATA[124 connections
]]></description>
<styleUrl>../style/style.kml#station_icon</styleUrl>
<Point>
<coordinates>7.621420,47.393500</coordinates>
</Point>
</Placemark>
<Placemark id="pm5749">
<name><![CDATA[Duggingen, Seewenstrasse]]></name>
<description><![CDATA[124 connections
]]></description>
<styleUrl>../style/style.kml#station_icon</styleUrl>
<Point>
<coordinates>7.601360,47.440700</coordinates>
</Point>
</Placemark>
</Document>
</kml>
