<?xml version="1.0" encoding="UTF-8"?>
<!-- KML Regionator 303:340M -->
<kml xmlns="http://earth.google.com/kml/2.1">
<Document>
<name>309 0210333</name>
<Region>
<Lod>
<minLodPixels>256</minLodPixels>
<maxLodPixels>-1</maxLodPixels>
</Lod>
<LatLonAltBox>
<north>47.197265625</north>
<south>47.109375</south>
<east>7.734375</east>
<west>7.646484375</west>
</LatLonAltBox>
</Region>
<Placemark id="pm6478">
<name><![CDATA[Oberönz, Kreuz]]></name>
<description><![CDATA[76 connections
]]></description>
<styleUrl>../style/style.kml#station_icon</styleUrl>
<Point>
<coordinates>7.694560,47.179300</coordinates>
</Point>
</Placemark>
<Placemark id="pm790">
<name><![CDATA[Seeberg BE, Stalderhof]]></name>
<description><![CDATA[74 connections
]]></description>
<styleUrl>../style/style.kml#station_icon</styleUrl>
<Point>
<coordinates>7.668070,47.154100</coordinates>
</Point>
</Placemark>
<Placemark id="pm8488">
<name><![CDATA[Hermiswil, Brücke]]></name>
<description><![CDATA[72 connections
]]></description>
<styleUrl>../style/style.kml#station_icon</styleUrl>
<Point>
<coordinates>7.695750,47.151400</coordinates>
</Point>
</Placemark>
<Placemark id="pm2577">
<name><![CDATA[Grasswil, Oberdorf]]></name>
<description><![CDATA[72 connections
]]></description>
<styleUrl>../style/style.kml#station_icon</styleUrl>
<Point>
<coordinates>7.668020,47.141600</coordinates>
</Point>
</Placemark>
<Placemark id="pm12517">
<name><![CDATA[Riedtwil, Bahnhof]]></name>
<description><![CDATA[68 connections
]]></description>
<styleUrl>../style/style.kml#station_icon</styleUrl>
<Point>
<coordinates>7.693060,47.139700</coordinates>
</Point>
</Placemark>
<Placemark id="pm12104">
<name><![CDATA[Thörigen, Post]]></name>
<description><![CDATA[54 connections
]]></description>
<styleUrl>../style/style.kml#station_icon</styleUrl>
<Point>
<coordinates>7.728830,47.172900</coordinates>
</Point>
</Placemark>
<Placemark id="pm6432">
<name><![CDATA[Bettenhausen, Post]]></name>
<description><![CDATA[54 connections
]]></description>
<styleUrl>../style/style.kml#station_icon</styleUrl>
<Point>
<coordinates>7.711680,47.172900</coordinates>
</Point>
</Placemark>
<Placemark id="pm8052">
<name><![CDATA[Bollodingen, Dorf]]></name>
<description><![CDATA[54 connections
]]></description>
<styleUrl>../style/style.kml#station_icon</styleUrl>
<Point>
<coordinates>7.709020,47.167500</coordinates>
</Point>
</Placemark>
<Placemark id="pm4724">
<name><![CDATA[Winistorf, Rest. Traube]]></name>
<description><![CDATA[18 connections
]]></description>
<styleUrl>../style/style.kml#station_icon</styleUrl>
<Point>
<coordinates>7.649600,47.151500</coordinates>
</Point>
</Placemark>
<Placemark id="pm15042">
<name><![CDATA[Steinhof SO]]></name>
<description><![CDATA[8 connections
]]></description>
<styleUrl>../style/style.kml#station_icon</styleUrl>
<Point>
<coordinates>7.686570,47.161300</coordinates>
</Point>
</Placemark>
<Placemark id="pm5958">
<name><![CDATA[Herzogenbuchsee, Sonnenplatz]]></name>
<description><![CDATA[4 connections
]]></description>
<styleUrl>../style/style.kml#station_icon</styleUrl>
<Point>
<coordinates>7.705160,47.188200</coordinates>
</Point>
</Placemark>
<Placemark id="pm13135">
<name><![CDATA[Seeberg BE, Schlüssel]]></name>
<description><![CDATA[2 connections
]]></description>
<styleUrl>../style/style.kml#station_icon</styleUrl>
<Point>
<coordinates>7.666560,47.161800</coordinates>
</Point>
</Placemark>
<Placemark id="pm12090">
<name><![CDATA[Hellsau, Dorfmitte]]></name>
<description><![CDATA[2 connections
]]></description>
<styleUrl>../style/style.kml#station_icon</styleUrl>
<Point>
<coordinates>7.647680,47.146300</coordinates>
</Point>
</Placemark>
</Document>
</kml>
