<?xml version="1.0" encoding="UTF-8"?>
<!-- KML Regionator 303:340M -->
<kml xmlns="http://earth.google.com/kml/2.1">
<Document>
<name>312 021102</name>
<Region>
<Lod>
<minLodPixels>256</minLodPixels>
<maxLodPixels>-1</maxLodPixels>
</Lod>
<LatLonAltBox>
<north>47.63671875</north>
<south>47.4609375</south>
<east>7.91015625</east>
<west>7.734375</west>
</LatLonAltBox>
</Region>
<NetworkLink>
<name>0211020</name>
<Region>
<Lod>
<minLodPixels>256</minLodPixels>
<maxLodPixels>-1</maxLodPixels>
</Lod>
<LatLonAltBox>
<north>47.63671875</north>
<south>47.548828125</south>
<east>7.822265625</east>
<west>7.734375</west>
</LatLonAltBox>
</Region>
<Link>
<href>313.kml</href>
<viewRefreshMode>onRegion</viewRefreshMode>
<viewFormat/>
</Link>
</NetworkLink>
<NetworkLink>
<name>0211021</name>
<Region>
<Lod>
<minLodPixels>256</minLodPixels>
<maxLodPixels>-1</maxLodPixels>
</Lod>
<LatLonAltBox>
<north>47.63671875</north>
<south>47.548828125</south>
<east>7.91015625</east>
<west>7.822265625</west>
</LatLonAltBox>
</Region>
<Link>
<href>314.kml</href>
<viewRefreshMode>onRegion</viewRefreshMode>
<viewFormat/>
</Link>
</NetworkLink>
<NetworkLink>
<name>0211022</name>
<Region>
<Lod>
<minLodPixels>256</minLodPixels>
<maxLodPixels>-1</maxLodPixels>
</Lod>
<LatLonAltBox>
<north>47.548828125</north>
<south>47.4609375</south>
<east>7.822265625</east>
<west>7.734375</west>
</LatLonAltBox>
</Region>
<Link>
<href>315.kml</href>
<viewRefreshMode>onRegion</viewRefreshMode>
<viewFormat/>
</Link>
</NetworkLink>
<NetworkLink>
<name>0211023</name>
<Region>
<Lod>
<minLodPixels>256</minLodPixels>
<maxLodPixels>-1</maxLodPixels>
</Lod>
<LatLonAltBox>
<north>47.548828125</north>
<south>47.4609375</south>
<east>7.91015625</east>
<west>7.822265625</west>
</LatLonAltBox>
</Region>
<Link>
<href>320.kml</href>
<viewRefreshMode>onRegion</viewRefreshMode>
<viewFormat/>
</Link>
</NetworkLink>
<Placemark id="pm7912">
<name><![CDATA[Gelterkinden]]></name>
<description><![CDATA[254 connections
]]></description>
<styleUrl>../style/style.kml#station_icon</styleUrl>
<Point>
<coordinates>7.847660,47.465900</coordinates>
</Point>
</Placemark>
<Placemark id="pm10358">
<name><![CDATA[Rheinfelden, Post]]></name>
<description><![CDATA[250 connections
]]></description>
<styleUrl>../style/style.kml#station_icon</styleUrl>
<Point>
<coordinates>7.794670,47.552700</coordinates>
</Point>
</Placemark>
<Placemark id="pm12861">
<name><![CDATA[Möhlin, Obermatt]]></name>
<description><![CDATA[244 connections
]]></description>
<styleUrl>../style/style.kml#station_icon</styleUrl>
<Point>
<coordinates>7.849480,47.553700</coordinates>
</Point>
</Placemark>
<Placemark id="pm9059">
<name><![CDATA[Möhlin, Aeschengasse]]></name>
<description><![CDATA[244 connections
]]></description>
<styleUrl>../style/style.kml#station_icon</styleUrl>
<Point>
<coordinates>7.846500,47.555700</coordinates>
</Point>
</Placemark>
<Placemark id="pm13775">
<name><![CDATA[Möhlin, Kanzleistrasse]]></name>
<description><![CDATA[244 connections
]]></description>
<styleUrl>../style/style.kml#station_icon</styleUrl>
<Point>
<coordinates>7.842860,47.557500</coordinates>
</Point>
</Placemark>
<Placemark id="pm6232">
<name><![CDATA[Liestal, Wasserturmpl. Engel]]></name>
<description><![CDATA[238 connections
]]></description>
<styleUrl>../style/style.kml#station_icon</styleUrl>
<Point>
<coordinates>7.735830,47.482700</coordinates>
</Point>
</Placemark>
<Placemark id="pm14200">
<name><![CDATA[Möhlin, Post]]></name>
<description><![CDATA[212 connections
]]></description>
<styleUrl>../style/style.kml#station_icon</styleUrl>
<Point>
<coordinates>7.842550,47.560500</coordinates>
</Point>
</Placemark>
<Placemark id="pm1562">
<name><![CDATA[Magden, Post]]></name>
<description><![CDATA[197 connections
]]></description>
<styleUrl>../style/style.kml#station_icon</styleUrl>
<Point>
<coordinates>7.812760,47.527500</coordinates>
</Point>
</Placemark>
<Placemark id="pm9505">
<name><![CDATA[Rheinfelden, Bahnhof]]></name>
<description><![CDATA[188 connections
]]></description>
<styleUrl>../style/style.kml#station_icon</styleUrl>
<Point>
<coordinates>7.791820,47.551500</coordinates>
</Point>
</Placemark>
<Placemark id="pm7662">
<name><![CDATA[Gelterkinden, Rünenbergerbr.]]></name>
<description><![CDATA[184 connections
]]></description>
<styleUrl>../style/style.kml#station_icon</styleUrl>
<Point>
<coordinates>7.858060,47.463300</coordinates>
</Point>
</Placemark>
<Placemark id="pm1725">
<name><![CDATA[Möhlin]]></name>
<description><![CDATA[182 connections
]]></description>
<styleUrl>../style/style.kml#station_icon</styleUrl>
<Point>
<coordinates>7.833860,47.561900</coordinates>
</Point>
</Placemark>
<Placemark id="pm8032">
<name><![CDATA[Möhlin, Schallen]]></name>
<description><![CDATA[180 connections
]]></description>
<styleUrl>../style/style.kml#station_icon</styleUrl>
<Point>
<coordinates>7.841580,47.562900</coordinates>
</Point>
</Placemark>
<Placemark id="pm1930">
<name><![CDATA[Giebenach, Lindenplatz]]></name>
<description><![CDATA[180 connections
]]></description>
<styleUrl>../style/style.kml#station_icon</styleUrl>
<Point>
<coordinates>7.747680,47.524500</coordinates>
</Point>
</Placemark>
<Placemark id="pm9093">
<name><![CDATA[Altmarkt]]></name>
<description><![CDATA[178 connections
]]></description>
<styleUrl>../style/style.kml#station_icon</styleUrl>
<Point>
<coordinates>7.744480,47.476700</coordinates>
</Point>
</Placemark>
<Placemark id="pm2912">
<name><![CDATA[Mumpf]]></name>
<description><![CDATA[176 connections
]]></description>
<styleUrl>../style/style.kml#station_icon</styleUrl>
<Point>
<coordinates>7.909620,47.547600</coordinates>
</Point>
</Placemark>
<Placemark id="pm8613">
<name><![CDATA[Zuzgen, Oberdorf]]></name>
<description><![CDATA[172 connections
]]></description>
<styleUrl>../style/style.kml#station_icon</styleUrl>
<Point>
<coordinates>7.901370,47.524500</coordinates>
</Point>
</Placemark>
</Document>
</kml>
