<?xml version="1.0" encoding="UTF-8"?>
<!-- KML Regionator 303:340M -->
<kml xmlns="http://earth.google.com/kml/2.1">
<Document>
<name>321 02110232</name>
<Region>
<Lod>
<minLodPixels>256</minLodPixels>
<maxLodPixels>-1</maxLodPixels>
</Lod>
<LatLonAltBox>
<north>47.5048828125</north>
<south>47.4609375</south>
<east>7.8662109375</east>
<west>7.822265625</west>
</LatLonAltBox>
</Region>
<Placemark id="pm9530">
<name><![CDATA[Buus, Buuseregg]]></name>
<description><![CDATA[160 connections
]]></description>
<styleUrl>../style/style.kml#station_icon</styleUrl>
<Point>
<coordinates>7.855660,47.495600</coordinates>
</Point>
</Placemark>
<Placemark id="pm14923">
<name><![CDATA[Buus, Tagungszentrum Waldegg]]></name>
<description><![CDATA[160 connections
]]></description>
<styleUrl>../style/style.kml#station_icon</styleUrl>
<Point>
<coordinates>7.852330,47.493000</coordinates>
</Point>
</Placemark>
<Placemark id="pm12781">
<name><![CDATA[Gelterkinden, Rickenbacherstr.]]></name>
<description><![CDATA[160 connections
]]></description>
<styleUrl>../style/style.kml#station_icon</styleUrl>
<Point>
<coordinates>7.851120,47.466200</coordinates>
</Point>
</Placemark>
<Placemark id="pm8146">
<name><![CDATA[Rickenbach BL, Post]]></name>
<description><![CDATA[160 connections
]]></description>
<styleUrl>../style/style.kml#station_icon</styleUrl>
<Point>
<coordinates>7.850920,47.482400</coordinates>
</Point>
</Placemark>
<Placemark id="pm11733">
<name><![CDATA[Gelterkinden, Mühlestett]]></name>
<description><![CDATA[160 connections
]]></description>
<styleUrl>../style/style.kml#station_icon</styleUrl>
<Point>
<coordinates>7.850810,47.468900</coordinates>
</Point>
</Placemark>
<Placemark id="pm2588">
<name><![CDATA[Rickenbach BL, Hinterdorf]]></name>
<description><![CDATA[160 connections
]]></description>
<styleUrl>../style/style.kml#station_icon</styleUrl>
<Point>
<coordinates>7.849950,47.485800</coordinates>
</Point>
</Placemark>
<Placemark id="pm1599">
<name><![CDATA[Böckten]]></name>
<description><![CDATA[76 connections
]]></description>
<styleUrl>../style/style.kml#station_icon</styleUrl>
<Point>
<coordinates>7.835180,47.462200</coordinates>
</Point>
</Placemark>
<Placemark id="pm11071">
<name><![CDATA[Wintersingen, Blumatt]]></name>
<description><![CDATA[42 connections
]]></description>
<styleUrl>../style/style.kml#station_icon</styleUrl>
<Point>
<coordinates>7.825160,47.500300</coordinates>
</Point>
</Placemark>
</Document>
</kml>
