<?xml version="1.0" encoding="UTF-8"?>
<!-- KML Regionator 303:340M -->
<kml xmlns="http://earth.google.com/kml/2.1">
<Document>
<name>345 02111230</name>
<Region>
<Lod>
<minLodPixels>256</minLodPixels>
<maxLodPixels>-1</maxLodPixels>
</Lod>
<LatLonAltBox>
<north>47.548828125</north>
<south>47.5048828125</south>
<east>8.2177734375</east>
<west>8.173828125</west>
</LatLonAltBox>
</Region>
<Placemark id="pm3380">
<name><![CDATA[Villigen, Post]]></name>
<description><![CDATA[150 connections
]]></description>
<styleUrl>../style/style.kml#station_icon</styleUrl>
<Point>
<coordinates>8.215700,47.522800</coordinates>
</Point>
</Placemark>
<Placemark id="pm388">
<name><![CDATA[Villigen, Vor Tor]]></name>
<description><![CDATA[148 connections
]]></description>
<styleUrl>../style/style.kml#station_icon</styleUrl>
<Point>
<coordinates>8.214780,47.527800</coordinates>
</Point>
</Placemark>
<Placemark id="pm8123">
<name><![CDATA[Remigen, Stig]]></name>
<description><![CDATA[128 connections
]]></description>
<styleUrl>../style/style.kml#station_icon</styleUrl>
<Point>
<coordinates>8.191650,47.511700</coordinates>
</Point>
</Placemark>
<Placemark id="pm1920">
<name><![CDATA[Rüfenach AG, Schulhaus]]></name>
<description><![CDATA[126 connections
]]></description>
<styleUrl>../style/style.kml#station_icon</styleUrl>
<Point>
<coordinates>8.209850,47.508000</coordinates>
</Point>
</Placemark>
<Placemark id="pm49">
<name><![CDATA[Rüfenach AG, Post]]></name>
<description><![CDATA[126 connections
]]></description>
<styleUrl>../style/style.kml#station_icon</styleUrl>
<Point>
<coordinates>8.205550,47.509600</coordinates>
</Point>
</Placemark>
<Placemark id="pm485">
<name><![CDATA[Mandach, Dorf]]></name>
<description><![CDATA[37 connections
]]></description>
<styleUrl>../style/style.kml#station_icon</styleUrl>
<Point>
<coordinates>8.185830,47.546800</coordinates>
</Point>
</Placemark>
</Document>
</kml>
