<?xml version="1.0" encoding="UTF-8"?>
<!-- KML Regionator 303:340M -->
<kml xmlns="http://earth.google.com/kml/2.1">
<Document>
<name>358 0211200</name>
<Region>
<Lod>
<minLodPixels>256</minLodPixels>
<maxLodPixels>-1</maxLodPixels>
</Lod>
<LatLonAltBox>
<north>47.4609375</north>
<south>47.373046875</south>
<east>7.822265625</east>
<west>7.734375</west>
</LatLonAltBox>
</Region>
<NetworkLink>
<name>02112000</name>
<Region>
<Lod>
<minLodPixels>256</minLodPixels>
<maxLodPixels>-1</maxLodPixels>
</Lod>
<LatLonAltBox>
<north>47.4609375</north>
<south>47.4169921875</south>
<east>7.7783203125</east>
<west>7.734375</west>
</LatLonAltBox>
</Region>
<Link>
<href>359.kml</href>
<viewRefreshMode>onRegion</viewRefreshMode>
<viewFormat/>
</Link>
</NetworkLink>
<NetworkLink>
<name>02112001</name>
<Region>
<Lod>
<minLodPixels>256</minLodPixels>
<maxLodPixels>-1</maxLodPixels>
</Lod>
<LatLonAltBox>
<north>47.4609375</north>
<south>47.4169921875</south>
<east>7.822265625</east>
<west>7.7783203125</west>
</LatLonAltBox>
</Region>
<Link>
<href>360.kml</href>
<viewRefreshMode>onRegion</viewRefreshMode>
<viewFormat/>
</Link>
</NetworkLink>
<NetworkLink>
<name>02112002</name>
<Region>
<Lod>
<minLodPixels>256</minLodPixels>
<maxLodPixels>-1</maxLodPixels>
</Lod>
<LatLonAltBox>
<north>47.4169921875</north>
<south>47.373046875</south>
<east>7.7783203125</east>
<west>7.734375</west>
</LatLonAltBox>
</Region>
<Link>
<href>361.kml</href>
<viewRefreshMode>onRegion</viewRefreshMode>
<viewFormat/>
</Link>
</NetworkLink>
<NetworkLink>
<name>02112003</name>
<Region>
<Lod>
<minLodPixels>256</minLodPixels>
<maxLodPixels>-1</maxLodPixels>
</Lod>
<LatLonAltBox>
<north>47.4169921875</north>
<south>47.373046875</south>
<east>7.822265625</east>
<west>7.7783203125</west>
</LatLonAltBox>
</Region>
<Link>
<href>362.kml</href>
<viewRefreshMode>onRegion</viewRefreshMode>
<viewFormat/>
</Link>
</NetworkLink>
<Placemark id="pm7717">
<name><![CDATA[Hölstein]]></name>
<description><![CDATA[178 connections
]]></description>
<styleUrl>../style/style.kml#station_icon</styleUrl>
<Point>
<coordinates>7.767960,47.422800</coordinates>
</Point>
</Placemark>
<Placemark id="pm7460">
<name><![CDATA[Hölstein Süd]]></name>
<description><![CDATA[178 connections
]]></description>
<styleUrl>../style/style.kml#station_icon</styleUrl>
<Point>
<coordinates>7.763690,47.418800</coordinates>
</Point>
</Placemark>
<Placemark id="pm9517">
<name><![CDATA[Lampenberg-Ramlinsburg]]></name>
<description><![CDATA[178 connections
]]></description>
<styleUrl>../style/style.kml#station_icon</styleUrl>
<Point>
<coordinates>7.760920,47.442400</coordinates>
</Point>
</Placemark>
<Placemark id="pm14747">
<name><![CDATA[Hölstein Weidbächli]]></name>
<description><![CDATA[178 connections
]]></description>
<styleUrl>../style/style.kml#station_icon</styleUrl>
<Point>
<coordinates>7.757960,47.413000</coordinates>
</Point>
</Placemark>
<Placemark id="pm11304">
<name><![CDATA[Hirschlang]]></name>
<description><![CDATA[178 connections
]]></description>
<styleUrl>../style/style.kml#station_icon</styleUrl>
<Point>
<coordinates>7.755490,47.410200</coordinates>
</Point>
</Placemark>
<Placemark id="pm2252">
<name><![CDATA[Talhaus]]></name>
<description><![CDATA[178 connections
]]></description>
<styleUrl>../style/style.kml#station_icon</styleUrl>
<Point>
<coordinates>7.749700,47.451200</coordinates>
</Point>
</Placemark>
<Placemark id="pm369">
<name><![CDATA[Oberdorf BL Winkelweg]]></name>
<description><![CDATA[178 connections
]]></description>
<styleUrl>../style/style.kml#station_icon</styleUrl>
<Point>
<coordinates>7.748920,47.395700</coordinates>
</Point>
</Placemark>
<Placemark id="pm12582">
<name><![CDATA[Oberdorf BL]]></name>
<description><![CDATA[178 connections
]]></description>
<styleUrl>../style/style.kml#station_icon</styleUrl>
<Point>
<coordinates>7.748700,47.392600</coordinates>
</Point>
</Placemark>
<Placemark id="pm1450">
<name><![CDATA[Niederdorf]]></name>
<description><![CDATA[178 connections
]]></description>
<styleUrl>../style/style.kml#station_icon</styleUrl>
<Point>
<coordinates>7.745320,47.403700</coordinates>
</Point>
</Placemark>
<Placemark id="pm12803">
<name><![CDATA[Bubendorf]]></name>
<description><![CDATA[178 connections
]]></description>
<styleUrl>../style/style.kml#station_icon</styleUrl>
<Point>
<coordinates>7.741070,47.459800</coordinates>
</Point>
</Placemark>
<Placemark id="pm8437">
<name><![CDATA[Eptingen, Gemeindeplatz]]></name>
<description><![CDATA[148 connections
]]></description>
<styleUrl>../style/style.kml#station_icon</styleUrl>
<Point>
<coordinates>7.820040,47.385800</coordinates>
</Point>
</Placemark>
<Placemark id="pm5994">
<name><![CDATA[Waldenburg, Revue Thommen]]></name>
<description><![CDATA[134 connections
]]></description>
<styleUrl>../style/style.kml#station_icon</styleUrl>
<Point>
<coordinates>7.747180,47.381500</coordinates>
</Point>
</Placemark>
<Placemark id="pm5567">
<name><![CDATA[Waldenburg, Post]]></name>
<description><![CDATA[122 connections
]]></description>
<styleUrl>../style/style.kml#station_icon</styleUrl>
<Point>
<coordinates>7.749180,47.384000</coordinates>
</Point>
</Placemark>
<Placemark id="pm12507">
<name><![CDATA[Waldenburg, Bürgerschopf]]></name>
<description><![CDATA[122 connections
]]></description>
<styleUrl>../style/style.kml#station_icon</styleUrl>
<Point>
<coordinates>7.746830,47.378200</coordinates>
</Point>
</Placemark>
<Placemark id="pm2091">
<name><![CDATA[Waldenburg, Bahnhof]]></name>
<description><![CDATA[98 connections
]]></description>
<styleUrl>../style/style.kml#station_icon</styleUrl>
<Point>
<coordinates>7.749200,47.386700</coordinates>
</Point>
</Placemark>
<Placemark id="pm12678">
<name><![CDATA[Waldenburg]]></name>
<description><![CDATA[89 connections
]]></description>
<styleUrl>../style/style.kml#station_icon</styleUrl>
<Point>
<coordinates>7.748800,47.386700</coordinates>
</Point>
</Placemark>
</Document>
</kml>
