<?xml version="1.0" encoding="UTF-8"?>
<!-- KML Regionator 303:340M -->
<kml xmlns="http://earth.google.com/kml/2.1">
<Document>
<name>385 02112122</name>
<Region>
<Lod>
<minLodPixels>256</minLodPixels>
<maxLodPixels>-1</maxLodPixels>
</Lod>
<LatLonAltBox>
<north>47.3291015625</north>
<south>47.28515625</south>
<east>7.9541015625</east>
<west>7.91015625</west>
</LatLonAltBox>
</Region>
<NetworkLink>
<name>021121222</name>
<Region>
<Lod>
<minLodPixels>256</minLodPixels>
<maxLodPixels>-1</maxLodPixels>
</Lod>
<LatLonAltBox>
<north>47.30712890625</north>
<south>47.28515625</south>
<east>7.93212890625</east>
<west>7.91015625</west>
</LatLonAltBox>
</Region>
<Link>
<href>386.kml</href>
<viewRefreshMode>onRegion</viewRefreshMode>
<viewFormat/>
</Link>
</NetworkLink>
<NetworkLink>
<name>021121223</name>
<Region>
<Lod>
<minLodPixels>256</minLodPixels>
<maxLodPixels>-1</maxLodPixels>
</Lod>
<LatLonAltBox>
<north>47.30712890625</north>
<south>47.28515625</south>
<east>7.9541015625</east>
<west>7.93212890625</west>
</LatLonAltBox>
</Region>
<Link>
<href>387.kml</href>
<viewRefreshMode>onRegion</viewRefreshMode>
<viewFormat/>
</Link>
</NetworkLink>
<Placemark id="pm7627">
<name><![CDATA[Oftringen, Coop/Post]]></name>
<description><![CDATA[184 connections
]]></description>
<styleUrl>../style/style.kml#station_icon</styleUrl>
<Point>
<coordinates>7.922050,47.316400</coordinates>
</Point>
</Placemark>
<Placemark id="pm11014">
<name><![CDATA[Oftringen, Baslerstrasse]]></name>
<description><![CDATA[184 connections
]]></description>
<styleUrl>../style/style.kml#station_icon</styleUrl>
<Point>
<coordinates>7.918720,47.313900</coordinates>
</Point>
</Placemark>
<Placemark id="pm8334">
<name><![CDATA[Oftringen, Eggenscheide]]></name>
<description><![CDATA[184 connections
]]></description>
<styleUrl>../style/style.kml#station_icon</styleUrl>
<Point>
<coordinates>7.913790,47.316900</coordinates>
</Point>
</Placemark>
<Placemark id="pm732">
<name><![CDATA[Zofingen, Spitalgasse]]></name>
<description><![CDATA[170 connections
]]></description>
<styleUrl>../style/style.kml#station_icon</styleUrl>
<Point>
<coordinates>7.943630,47.291100</coordinates>
</Point>
</Placemark>
<Placemark id="pm2549">
<name><![CDATA[Oftringen, Ruhbank]]></name>
<description><![CDATA[170 connections
]]></description>
<styleUrl>../style/style.kml#station_icon</styleUrl>
<Point>
<coordinates>7.937390,47.295200</coordinates>
</Point>
</Placemark>
<Placemark id="pm11939">
<name><![CDATA[Oftringen, Lerchenfeld]]></name>
<description><![CDATA[170 connections
]]></description>
<styleUrl>../style/style.kml#station_icon</styleUrl>
<Point>
<coordinates>7.933470,47.300400</coordinates>
</Point>
</Placemark>
<Placemark id="pm4833">
<name><![CDATA[Oftringen, Wirtsh체sli]]></name>
<description><![CDATA[170 connections
]]></description>
<styleUrl>../style/style.kml#station_icon</styleUrl>
<Point>
<coordinates>7.930870,47.304400</coordinates>
</Point>
</Placemark>
<Placemark id="pm10163">
<name><![CDATA[Oftringen, Tychboden]]></name>
<description><![CDATA[170 connections
]]></description>
<styleUrl>../style/style.kml#station_icon</styleUrl>
<Point>
<coordinates>7.926930,47.308100</coordinates>
</Point>
</Placemark>
<Placemark id="pm10451">
<name><![CDATA[Oftringen, (eo)]]></name>
<description><![CDATA[170 connections
]]></description>
<styleUrl>../style/style.kml#station_icon</styleUrl>
<Point>
<coordinates>7.921010,47.311700</coordinates>
</Point>
</Placemark>
<Placemark id="pm10566">
<name><![CDATA[Oftringen, Perry-Center]]></name>
<description><![CDATA[170 connections
]]></description>
<styleUrl>../style/style.kml#station_icon</styleUrl>
<Point>
<coordinates>7.914070,47.311300</coordinates>
</Point>
</Placemark>
<Placemark id="pm3807">
<name><![CDATA[Oftringen, alte Strasse]]></name>
<description><![CDATA[170 connections
]]></description>
<styleUrl>../style/style.kml#station_icon</styleUrl>
<Point>
<coordinates>7.911400,47.309000</coordinates>
</Point>
</Placemark>
<Placemark id="pm5359">
<name><![CDATA[K체ngoldingen]]></name>
<description><![CDATA[98 connections
]]></description>
<styleUrl>../style/style.kml#station_icon</styleUrl>
<Point>
<coordinates>7.941990,47.307500</coordinates>
</Point>
</Placemark>
<Placemark id="pm11411">
<name><![CDATA[Zofingen, Tagblatt]]></name>
<description><![CDATA[62 connections
]]></description>
<styleUrl>../style/style.kml#station_icon</styleUrl>
<Point>
<coordinates>7.936980,47.286900</coordinates>
</Point>
</Placemark>
<Placemark id="pm10595">
<name><![CDATA[Strengelbach, Sch체rliweg]]></name>
<description><![CDATA[62 connections
]]></description>
<styleUrl>../style/style.kml#station_icon</styleUrl>
<Point>
<coordinates>7.933010,47.285500</coordinates>
</Point>
</Placemark>
<Placemark id="pm9945">
<name><![CDATA[Strengelbach, Hard]]></name>
<description><![CDATA[62 connections
]]></description>
<styleUrl>../style/style.kml#station_icon</styleUrl>
<Point>
<coordinates>7.930370,47.286000</coordinates>
</Point>
</Placemark>
<Placemark id="pm9558">
<name><![CDATA[Strengelbach, S채getstrasse]]></name>
<description><![CDATA[62 connections
]]></description>
<styleUrl>../style/style.kml#station_icon</styleUrl>
<Point>
<coordinates>7.925740,47.286000</coordinates>
</Point>
</Placemark>
</Document>
</kml>
