<?xml version="1.0" encoding="UTF-8"?>
<!-- KML Regionator 303:340M -->
<kml xmlns="http://earth.google.com/kml/2.1">
<Document>
<name>444 0211310</name>
<Region>
<Lod>
<minLodPixels>256</minLodPixels>
<maxLodPixels>-1</maxLodPixels>
</Lod>
<LatLonAltBox>
<north>47.4609375</north>
<south>47.373046875</south>
<east>8.349609375</east>
<west>8.26171875</west>
</LatLonAltBox>
</Region>
<NetworkLink>
<name>02113100</name>
<Region>
<Lod>
<minLodPixels>256</minLodPixels>
<maxLodPixels>-1</maxLodPixels>
</Lod>
<LatLonAltBox>
<north>47.4609375</north>
<south>47.4169921875</south>
<east>8.3056640625</east>
<west>8.26171875</west>
</LatLonAltBox>
</Region>
<Link>
<href>445.kml</href>
<viewRefreshMode>onRegion</viewRefreshMode>
<viewFormat/>
</Link>
</NetworkLink>
<NetworkLink>
<name>02113102</name>
<Region>
<Lod>
<minLodPixels>256</minLodPixels>
<maxLodPixels>-1</maxLodPixels>
</Lod>
<LatLonAltBox>
<north>47.4169921875</north>
<south>47.373046875</south>
<east>8.3056640625</east>
<west>8.26171875</west>
</LatLonAltBox>
</Region>
<Link>
<href>446.kml</href>
<viewRefreshMode>onRegion</viewRefreshMode>
<viewFormat/>
</Link>
</NetworkLink>
<NetworkLink>
<name>02113103</name>
<Region>
<Lod>
<minLodPixels>256</minLodPixels>
<maxLodPixels>-1</maxLodPixels>
</Lod>
<LatLonAltBox>
<north>47.4169921875</north>
<south>47.373046875</south>
<east>8.349609375</east>
<west>8.3056640625</west>
</LatLonAltBox>
</Region>
<Link>
<href>447.kml</href>
<viewRefreshMode>onRegion</viewRefreshMode>
<viewFormat/>
</Link>
</NetworkLink>
<Placemark id="pm13158">
<name><![CDATA[Oberrohrdorf, Brüggliacher]]></name>
<description><![CDATA[272 connections
]]></description>
<styleUrl>../style/style.kml#station_icon</styleUrl>
<Point>
<coordinates>8.313960,47.421800</coordinates>
</Point>
</Placemark>
<Placemark id="pm14117">
<name><![CDATA[Staretschwil, Badenerstrasse]]></name>
<description><![CDATA[272 connections
]]></description>
<styleUrl>../style/style.kml#station_icon</styleUrl>
<Point>
<coordinates>8.311360,47.424700</coordinates>
</Point>
</Placemark>
<Placemark id="pm12565">
<name><![CDATA[Niederrohrdorf, Fohrhölzli]]></name>
<description><![CDATA[271 connections
]]></description>
<styleUrl>../style/style.kml#station_icon</styleUrl>
<Point>
<coordinates>8.304470,47.429300</coordinates>
</Point>
</Placemark>
<Placemark id="pm531">
<name><![CDATA[Fislisbach, Monopol]]></name>
<description><![CDATA[254 connections
]]></description>
<styleUrl>../style/style.kml#station_icon</styleUrl>
<Point>
<coordinates>8.297660,47.438100</coordinates>
</Point>
</Placemark>
<Placemark id="pm14919">
<name><![CDATA[Stetten AG, Künterstrasse]]></name>
<description><![CDATA[236 connections
]]></description>
<styleUrl>../style/style.kml#station_icon</styleUrl>
<Point>
<coordinates>8.309960,47.400200</coordinates>
</Point>
</Placemark>
<Placemark id="pm14839">
<name><![CDATA[Niederwil AG, Post]]></name>
<description><![CDATA[202 connections
]]></description>
<styleUrl>../style/style.kml#station_icon</styleUrl>
<Point>
<coordinates>8.295360,47.377600</coordinates>
</Point>
</Placemark>
<Placemark id="pm5481">
<name><![CDATA[Nesselnbach, Unterdorf]]></name>
<description><![CDATA[202 connections
]]></description>
<styleUrl>../style/style.kml#station_icon</styleUrl>
<Point>
<coordinates>8.293570,47.389800</coordinates>
</Point>
</Placemark>
<Placemark id="pm6367">
<name><![CDATA[Nesselnbach, Mitteldorf]]></name>
<description><![CDATA[202 connections
]]></description>
<styleUrl>../style/style.kml#station_icon</styleUrl>
<Point>
<coordinates>8.290900,47.388700</coordinates>
</Point>
</Placemark>
<Placemark id="pm5970">
<name><![CDATA[Oberrohrdorf, Friedhof]]></name>
<description><![CDATA[200 connections
]]></description>
<styleUrl>../style/style.kml#station_icon</styleUrl>
<Point>
<coordinates>8.312600,47.419600</coordinates>
</Point>
</Placemark>
<Placemark id="pm10201">
<name><![CDATA[Niederrohrdorf, Oberdorf]]></name>
<description><![CDATA[200 connections
]]></description>
<styleUrl>../style/style.kml#station_icon</styleUrl>
<Point>
<coordinates>8.309310,47.421200</coordinates>
</Point>
</Placemark>
<Placemark id="pm4276">
<name><![CDATA[Neuenhof]]></name>
<description><![CDATA[170 connections
]]></description>
<styleUrl>../style/style.kml#station_icon</styleUrl>
<Point>
<coordinates>8.331230,47.450700</coordinates>
</Point>
</Placemark>
<Placemark id="pm10841">
<name><![CDATA[Fislisbach, Sportanlage Esp]]></name>
<description><![CDATA[166 connections
]]></description>
<styleUrl>../style/style.kml#station_icon</styleUrl>
<Point>
<coordinates>8.295400,47.442200</coordinates>
</Point>
</Placemark>
<Placemark id="pm3411">
<name><![CDATA[Büblikon, Reusstal]]></name>
<description><![CDATA[162 connections
]]></description>
<styleUrl>../style/style.kml#station_icon</styleUrl>
<Point>
<coordinates>8.261940,47.421700</coordinates>
</Point>
</Placemark>
<Placemark id="pm6003">
<name><![CDATA[Bellikon, Rehaklinik]]></name>
<description><![CDATA[158 connections
]]></description>
<styleUrl>../style/style.kml#station_icon</styleUrl>
<Point>
<coordinates>8.344200,47.388300</coordinates>
</Point>
</Placemark>
<Placemark id="pm5321">
<name><![CDATA[Busslingen, Stetterstrasse]]></name>
<description><![CDATA[156 connections
]]></description>
<styleUrl>../style/style.kml#station_icon</styleUrl>
<Point>
<coordinates>8.316040,47.407600</coordinates>
</Point>
</Placemark>
<Placemark id="pm9925">
<name><![CDATA[Stetten AG, Dörndler]]></name>
<description><![CDATA[156 connections
]]></description>
<styleUrl>../style/style.kml#station_icon</styleUrl>
<Point>
<coordinates>8.311670,47.403200</coordinates>
</Point>
</Placemark>
</Document>
</kml>
