<?xml version="1.0" encoding="UTF-8"?>
<!-- KML Regionator 303:340M -->
<kml xmlns="http://earth.google.com/kml/2.1">
<Document>
<name>479 0211323</name>
<Region>
<Lod>
<minLodPixels>256</minLodPixels>
<maxLodPixels>-1</maxLodPixels>
</Lod>
<LatLonAltBox>
<north>47.197265625</north>
<south>47.109375</south>
<east>8.26171875</east>
<west>8.173828125</west>
</LatLonAltBox>
</Region>
<Placemark id="pm12320">
<name><![CDATA[Sempach Stadt, Meierhöfli]]></name>
<description><![CDATA[244 connections
]]></description>
<styleUrl>../style/style.kml#station_icon</styleUrl>
<Point>
<coordinates>8.189690,47.138000</coordinates>
</Point>
</Placemark>
<Placemark id="pm11383">
<name><![CDATA[Sempach Stadt, Seemätteli]]></name>
<description><![CDATA[244 connections
]]></description>
<styleUrl>../style/style.kml#station_icon</styleUrl>
<Point>
<coordinates>8.180010,47.152900</coordinates>
</Point>
</Placemark>
<Placemark id="pm7377">
<name><![CDATA[Eich, Seematt]]></name>
<description><![CDATA[244 connections
]]></description>
<styleUrl>../style/style.kml#station_icon</styleUrl>
<Point>
<coordinates>8.174000,47.147300</coordinates>
</Point>
</Placemark>
<Placemark id="pm7263">
<name><![CDATA[Sempach-Neuenkirch]]></name>
<description><![CDATA[158 connections
]]></description>
<styleUrl>../style/style.kml#station_icon</styleUrl>
<Point>
<coordinates>8.195970,47.116100</coordinates>
</Point>
</Placemark>
<Placemark id="pm2319">
<name><![CDATA[Rain, Post]]></name>
<description><![CDATA[157 connections
]]></description>
<styleUrl>../style/style.kml#station_icon</styleUrl>
<Point>
<coordinates>8.257120,47.129900</coordinates>
</Point>
</Placemark>
<Placemark id="pm7021">
<name><![CDATA[Sempach Station]]></name>
<description><![CDATA[130 connections
]]></description>
<styleUrl>../style/style.kml#station_icon</styleUrl>
<Point>
<coordinates>8.196300,47.116300</coordinates>
</Point>
</Placemark>
<Placemark id="pm14374">
<name><![CDATA[Römerswil LU, Gosperdingen]]></name>
<description><![CDATA[88 connections
]]></description>
<styleUrl>../style/style.kml#station_icon</styleUrl>
<Point>
<coordinates>8.261490,47.156800</coordinates>
</Point>
</Placemark>
<Placemark id="pm4413">
<name><![CDATA[Römerswil LU, Williswil]]></name>
<description><![CDATA[88 connections
]]></description>
<styleUrl>../style/style.kml#station_icon</styleUrl>
<Point>
<coordinates>8.250920,47.155100</coordinates>
</Point>
</Placemark>
<Placemark id="pm5358">
<name><![CDATA[Römerswil LU, Dorf]]></name>
<description><![CDATA[88 connections
]]></description>
<styleUrl>../style/style.kml#station_icon</styleUrl>
<Point>
<coordinates>8.247170,47.168600</coordinates>
</Point>
</Placemark>
<Placemark id="pm6244">
<name><![CDATA[Herlisberg, Oberreinach]]></name>
<description><![CDATA[88 connections
]]></description>
<styleUrl>../style/style.kml#station_icon</styleUrl>
<Point>
<coordinates>8.236260,47.188900</coordinates>
</Point>
</Placemark>
</Document>
</kml>
