<?xml version="1.0" encoding="UTF-8"?>
<!-- KML Regionator 303:340M -->
<kml xmlns="http://earth.google.com/kml/2.1">
<Document>
<name>481 0211330</name>
<Region>
<Lod>
<minLodPixels>256</minLodPixels>
<maxLodPixels>-1</maxLodPixels>
</Lod>
<LatLonAltBox>
<north>47.28515625</north>
<south>47.197265625</south>
<east>8.349609375</east>
<west>8.26171875</west>
</LatLonAltBox>
</Region>
<NetworkLink>
<name>02113300</name>
<Region>
<Lod>
<minLodPixels>256</minLodPixels>
<maxLodPixels>-1</maxLodPixels>
</Lod>
<LatLonAltBox>
<north>47.28515625</north>
<south>47.2412109375</south>
<east>8.3056640625</east>
<west>8.26171875</west>
</LatLonAltBox>
</Region>
<Link>
<href>482.kml</href>
<viewRefreshMode>onRegion</viewRefreshMode>
<viewFormat/>
</Link>
</NetworkLink>
<NetworkLink>
<name>02113301</name>
<Region>
<Lod>
<minLodPixels>256</minLodPixels>
<maxLodPixels>-1</maxLodPixels>
</Lod>
<LatLonAltBox>
<north>47.28515625</north>
<south>47.2412109375</south>
<east>8.349609375</east>
<west>8.3056640625</west>
</LatLonAltBox>
</Region>
<Link>
<href>483.kml</href>
<viewRefreshMode>onRegion</viewRefreshMode>
<viewFormat/>
</Link>
</NetworkLink>
<NetworkLink>
<name>02113302</name>
<Region>
<Lod>
<minLodPixels>256</minLodPixels>
<maxLodPixels>-1</maxLodPixels>
</Lod>
<LatLonAltBox>
<north>47.2412109375</north>
<south>47.197265625</south>
<east>8.3056640625</east>
<west>8.26171875</west>
</LatLonAltBox>
</Region>
<Link>
<href>484.kml</href>
<viewRefreshMode>onRegion</viewRefreshMode>
<viewFormat/>
</Link>
</NetworkLink>
<NetworkLink>
<name>02113303</name>
<Region>
<Lod>
<minLodPixels>256</minLodPixels>
<maxLodPixels>-1</maxLodPixels>
</Lod>
<LatLonAltBox>
<north>47.2412109375</north>
<south>47.197265625</south>
<east>8.349609375</east>
<west>8.3056640625</west>
</LatLonAltBox>
</Region>
<Link>
<href>485.kml</href>
<viewRefreshMode>onRegion</viewRefreshMode>
<viewFormat/>
</Link>
</NetworkLink>
<Placemark id="pm3468">
<name><![CDATA[Muri AG]]></name>
<description><![CDATA[155 connections
]]></description>
<styleUrl>../style/style.kml#station_icon</styleUrl>
<Point>
<coordinates>8.339800,47.276700</coordinates>
</Point>
</Placemark>
<Placemark id="pm3648">
<name><![CDATA[Gelfingen]]></name>
<description><![CDATA[112 connections
]]></description>
<styleUrl>../style/style.kml#station_icon</styleUrl>
<Point>
<coordinates>8.264810,47.213600</coordinates>
</Point>
</Placemark>
<Placemark id="pm11795">
<name><![CDATA[Muri AG, Marktstrasse]]></name>
<description><![CDATA[96 connections
]]></description>
<styleUrl>../style/style.kml#station_icon</styleUrl>
<Point>
<coordinates>8.336670,47.275000</coordinates>
</Point>
</Placemark>
<Placemark id="pm3242">
<name><![CDATA[Muri AG, Wey]]></name>
<description><![CDATA[96 connections
]]></description>
<styleUrl>../style/style.kml#station_icon</styleUrl>
<Point>
<coordinates>8.333970,47.271900</coordinates>
</Point>
</Placemark>
<Placemark id="pm13435">
<name><![CDATA[Geltwil, Schulhaus]]></name>
<description><![CDATA[96 connections
]]></description>
<styleUrl>../style/style.kml#station_icon</styleUrl>
<Point>
<coordinates>8.328980,47.249900</coordinates>
</Point>
</Placemark>
<Placemark id="pm5824">
<name><![CDATA[Geltwil, Dorf]]></name>
<description><![CDATA[96 connections
]]></description>
<styleUrl>../style/style.kml#station_icon</styleUrl>
<Point>
<coordinates>8.322360,47.249300</coordinates>
</Point>
</Placemark>
<Placemark id="pm4128">
<name><![CDATA[Müswangen, Post]]></name>
<description><![CDATA[96 connections
]]></description>
<styleUrl>../style/style.kml#station_icon</styleUrl>
<Point>
<coordinates>8.288090,47.237400</coordinates>
</Point>
</Placemark>
<Placemark id="pm12705">
<name><![CDATA[Hämikon, Schulhaus]]></name>
<description><![CDATA[96 connections
]]></description>
<styleUrl>../style/style.kml#station_icon</styleUrl>
<Point>
<coordinates>8.274870,47.236400</coordinates>
</Point>
</Placemark>
<Placemark id="pm632">
<name><![CDATA[Hitzkirch, Dorf]]></name>
<description><![CDATA[96 connections
]]></description>
<styleUrl>../style/style.kml#station_icon</styleUrl>
<Point>
<coordinates>8.262790,47.224100</coordinates>
</Point>
</Placemark>
<Placemark id="pm8557">
<name><![CDATA[Beinwil (Freiamt), Unterdorf]]></name>
<description><![CDATA[94 connections
]]></description>
<styleUrl>../style/style.kml#station_icon</styleUrl>
<Point>
<coordinates>8.346500,47.231300</coordinates>
</Point>
</Placemark>
<Placemark id="pm9939">
<name><![CDATA[Muri AG, Luzernstrasse]]></name>
<description><![CDATA[90 connections
]]></description>
<styleUrl>../style/style.kml#station_icon</styleUrl>
<Point>
<coordinates>8.342550,47.271400</coordinates>
</Point>
</Placemark>
<Placemark id="pm11433">
<name><![CDATA[Schongau, Erlebnispark]]></name>
<description><![CDATA[84 connections
]]></description>
<styleUrl>../style/style.kml#station_icon</styleUrl>
<Point>
<coordinates>8.279090,47.269600</coordinates>
</Point>
</Placemark>
<Placemark id="pm7416">
<name><![CDATA[Schongau, Kreuz]]></name>
<description><![CDATA[84 connections
]]></description>
<styleUrl>../style/style.kml#station_icon</styleUrl>
<Point>
<coordinates>8.265320,47.267900</coordinates>
</Point>
</Placemark>
<Placemark id="pm12442">
<name><![CDATA[Schongau, Mettmenschongau]]></name>
<description><![CDATA[84 connections
]]></description>
<styleUrl>../style/style.kml#station_icon</styleUrl>
<Point>
<coordinates>8.263200,47.267500</coordinates>
</Point>
</Placemark>
<Placemark id="pm5074">
<name><![CDATA[Buttwil, Handlung Bartlome]]></name>
<description><![CDATA[82 connections
]]></description>
<styleUrl>../style/style.kml#station_icon</styleUrl>
<Point>
<coordinates>8.314740,47.267500</coordinates>
</Point>
</Placemark>
<Placemark id="pm626">
<name><![CDATA[Buttwil, Weinmatten]]></name>
<description><![CDATA[82 connections
]]></description>
<styleUrl>../style/style.kml#station_icon</styleUrl>
<Point>
<coordinates>8.312400,47.270100</coordinates>
</Point>
</Placemark>
</Document>
</kml>
