<?xml version="1.0" encoding="UTF-8"?>
<!-- KML Regionator 303:340M -->
<kml xmlns="http://earth.google.com/kml/2.1">
<Document>
<name>529 0212013</name>
<Region>
<Lod>
<minLodPixels>256</minLodPixels>
<maxLodPixels>-1</maxLodPixels>
</Lod>
<LatLonAltBox>
<north>47.021484375</north>
<south>46.93359375</south>
<east>7.3828125</east>
<west>7.294921875</west>
</LatLonAltBox>
</Region>
<NetworkLink>
<name>02120130</name>
<Region>
<Lod>
<minLodPixels>256</minLodPixels>
<maxLodPixels>-1</maxLodPixels>
</Lod>
<LatLonAltBox>
<north>47.021484375</north>
<south>46.9775390625</south>
<east>7.3388671875</east>
<west>7.294921875</west>
</LatLonAltBox>
</Region>
<Link>
<href>530.kml</href>
<viewRefreshMode>onRegion</viewRefreshMode>
<viewFormat/>
</Link>
</NetworkLink>
<NetworkLink>
<name>02120131</name>
<Region>
<Lod>
<minLodPixels>256</minLodPixels>
<maxLodPixels>-1</maxLodPixels>
</Lod>
<LatLonAltBox>
<north>47.021484375</north>
<south>46.9775390625</south>
<east>7.3828125</east>
<west>7.3388671875</west>
</LatLonAltBox>
</Region>
<Link>
<href>531.kml</href>
<viewRefreshMode>onRegion</viewRefreshMode>
<viewFormat/>
</Link>
</NetworkLink>
<NetworkLink>
<name>02120132</name>
<Region>
<Lod>
<minLodPixels>256</minLodPixels>
<maxLodPixels>-1</maxLodPixels>
</Lod>
<LatLonAltBox>
<north>46.9775390625</north>
<south>46.93359375</south>
<east>7.3388671875</east>
<west>7.294921875</west>
</LatLonAltBox>
</Region>
<Link>
<href>532.kml</href>
<viewRefreshMode>onRegion</viewRefreshMode>
<viewFormat/>
</Link>
</NetworkLink>
<NetworkLink>
<name>02120133</name>
<Region>
<Lod>
<minLodPixels>256</minLodPixels>
<maxLodPixels>-1</maxLodPixels>
</Lod>
<LatLonAltBox>
<north>46.9775390625</north>
<south>46.93359375</south>
<east>7.3828125</east>
<west>7.3388671875</west>
</LatLonAltBox>
</Region>
<Link>
<href>533.kml</href>
<viewRefreshMode>onRegion</viewRefreshMode>
<viewFormat/>
</Link>
</NetworkLink>
<Placemark id="pm13257">
<name><![CDATA[Kappelenring, Nord]]></name>
<description><![CDATA[136 connections
]]></description>
<styleUrl>../style/style.kml#station_icon</styleUrl>
<Point>
<coordinates>7.375620,46.967200</coordinates>
</Point>
</Placemark>
<Placemark id="pm12007">
<name><![CDATA[Kappelenring, West]]></name>
<description><![CDATA[136 connections
]]></description>
<styleUrl>../style/style.kml#station_icon</styleUrl>
<Point>
<coordinates>7.372730,46.965200</coordinates>
</Point>
</Placemark>
<Placemark id="pm1844">
<name><![CDATA[Niederbottigen, Chäs und Brot]]></name>
<description><![CDATA[134 connections
]]></description>
<styleUrl>../style/style.kml#station_icon</styleUrl>
<Point>
<coordinates>7.361160,46.936300</coordinates>
</Point>
</Placemark>
<Placemark id="pm14386">
<name><![CDATA[Oberbottigen, Dorf]]></name>
<description><![CDATA[134 connections
]]></description>
<styleUrl>../style/style.kml#station_icon</styleUrl>
<Point>
<coordinates>7.349990,46.935500</coordinates>
</Point>
</Placemark>
<Placemark id="pm6995">
<name><![CDATA[Oberbottigen, Flühli]]></name>
<description><![CDATA[134 connections
]]></description>
<styleUrl>../style/style.kml#station_icon</styleUrl>
<Point>
<coordinates>7.342110,46.936600</coordinates>
</Point>
</Placemark>
<Placemark id="pm956">
<name><![CDATA[Niederbottigen, Abzw.]]></name>
<description><![CDATA[133 connections
]]></description>
<styleUrl>../style/style.kml#station_icon</styleUrl>
<Point>
<coordinates>7.371660,46.937600</coordinates>
</Point>
</Placemark>
<Placemark id="pm6878">
<name><![CDATA[Bümpliz, Rehhaghölzli]]></name>
<description><![CDATA[132 connections
]]></description>
<styleUrl>../style/style.kml#station_icon</styleUrl>
<Point>
<coordinates>7.378230,46.937600</coordinates>
</Point>
</Placemark>
<Placemark id="pm7641">
<name><![CDATA[Uettligen, Schule]]></name>
<description><![CDATA[130 connections
]]></description>
<styleUrl>../style/style.kml#station_icon</styleUrl>
<Point>
<coordinates>7.381950,46.985400</coordinates>
</Point>
</Placemark>
<Placemark id="pm1859">
<name><![CDATA[Riedhaus]]></name>
<description><![CDATA[130 connections
]]></description>
<styleUrl>../style/style.kml#station_icon</styleUrl>
<Point>
<coordinates>7.370150,46.981800</coordinates>
</Point>
</Placemark>
<Placemark id="pm12574">
<name><![CDATA[Wohlen b. Bern, Schaufelacker]]></name>
<description><![CDATA[130 connections
]]></description>
<styleUrl>../style/style.kml#station_icon</styleUrl>
<Point>
<coordinates>7.362410,46.976200</coordinates>
</Point>
</Placemark>
<Placemark id="pm4109">
<name><![CDATA[Oberwohlen BE]]></name>
<description><![CDATA[130 connections
]]></description>
<styleUrl>../style/style.kml#station_icon</styleUrl>
<Point>
<coordinates>7.357760,46.973400</coordinates>
</Point>
</Placemark>
<Placemark id="pm12524">
<name><![CDATA[Frauenkappelen, Post]]></name>
<description><![CDATA[128 connections
]]></description>
<styleUrl>../style/style.kml#station_icon</styleUrl>
<Point>
<coordinates>7.338800,46.953700</coordinates>
</Point>
</Placemark>
<Placemark id="pm4262">
<name><![CDATA[Bethlehem b. Bern, Holenacker]]></name>
<description><![CDATA[125 connections
]]></description>
<styleUrl>../style/style.kml#station_icon</styleUrl>
<Point>
<coordinates>7.382690,46.948600</coordinates>
</Point>
</Placemark>
<Placemark id="pm5673">
<name><![CDATA[Innerberg BE, Post]]></name>
<description><![CDATA[121 connections
]]></description>
<styleUrl>../style/style.kml#station_icon</styleUrl>
<Point>
<coordinates>7.308190,46.992100</coordinates>
</Point>
</Placemark>
<Placemark id="pm1406">
<name><![CDATA[Innerberg BE, Weidhaus]]></name>
<description><![CDATA[121 connections
]]></description>
<styleUrl>../style/style.kml#station_icon</styleUrl>
<Point>
<coordinates>7.304260,46.995100</coordinates>
</Point>
</Placemark>
<Placemark id="pm12963">
<name><![CDATA[Bethlehem b. Bern, Riedernrain]]></name>
<description><![CDATA[120 connections
]]></description>
<styleUrl>../style/style.kml#station_icon</styleUrl>
<Point>
<coordinates>7.369020,46.947500</coordinates>
</Point>
</Placemark>
</Document>
</kml>
