<?xml version="1.0" encoding="UTF-8"?>
<!-- KML Regionator 303:340M -->
<kml xmlns="http://earth.google.com/kml/2.1">
<Document>
<name>574 0212102</name>
<Region>
<Lod>
<minLodPixels>256</minLodPixels>
<maxLodPixels>-1</maxLodPixels>
</Lod>
<LatLonAltBox>
<north>47.021484375</north>
<south>46.93359375</south>
<east>7.470703125</east>
<west>7.3828125</west>
</LatLonAltBox>
</Region>
<NetworkLink>
<name>02121020</name>
<Region>
<Lod>
<minLodPixels>256</minLodPixels>
<maxLodPixels>-1</maxLodPixels>
</Lod>
<LatLonAltBox>
<north>47.021484375</north>
<south>46.9775390625</south>
<east>7.4267578125</east>
<west>7.3828125</west>
</LatLonAltBox>
</Region>
<Link>
<href>575.kml</href>
<viewRefreshMode>onRegion</viewRefreshMode>
<viewFormat/>
</Link>
</NetworkLink>
<NetworkLink>
<name>02121021</name>
<Region>
<Lod>
<minLodPixels>256</minLodPixels>
<maxLodPixels>-1</maxLodPixels>
</Lod>
<LatLonAltBox>
<north>47.021484375</north>
<south>46.9775390625</south>
<east>7.470703125</east>
<west>7.4267578125</west>
</LatLonAltBox>
</Region>
<Link>
<href>576.kml</href>
<viewRefreshMode>onRegion</viewRefreshMode>
<viewFormat/>
</Link>
</NetworkLink>
<NetworkLink>
<name>02121022</name>
<Region>
<Lod>
<minLodPixels>256</minLodPixels>
<maxLodPixels>-1</maxLodPixels>
</Lod>
<LatLonAltBox>
<north>46.9775390625</north>
<south>46.93359375</south>
<east>7.4267578125</east>
<west>7.3828125</west>
</LatLonAltBox>
</Region>
<Link>
<href>580.kml</href>
<viewRefreshMode>onRegion</viewRefreshMode>
<viewFormat/>
</Link>
</NetworkLink>
<NetworkLink>
<name>02121023</name>
<Region>
<Lod>
<minLodPixels>256</minLodPixels>
<maxLodPixels>-1</maxLodPixels>
</Lod>
<LatLonAltBox>
<north>46.9775390625</north>
<south>46.93359375</south>
<east>7.470703125</east>
<west>7.4267578125</west>
</LatLonAltBox>
</Region>
<Link>
<href>581.kml</href>
<viewRefreshMode>onRegion</viewRefreshMode>
<viewFormat/>
</Link>
</NetworkLink>
<Placemark id="pm7419">
<name><![CDATA[Bern, Wankdorfplatz]]></name>
<description><![CDATA[366 connections
]]></description>
<styleUrl>../style/style.kml#station_icon</styleUrl>
<Point>
<coordinates>7.468200,46.965000</coordinates>
</Point>
</Placemark>
<Placemark id="pm12626">
<name><![CDATA[Bern, Guisanplatz/BEA EXPO]]></name>
<description><![CDATA[362 connections
]]></description>
<styleUrl>../style/style.kml#station_icon</styleUrl>
<Point>
<coordinates>7.462980,46.958100</coordinates>
</Point>
</Placemark>
<Placemark id="pm6551">
<name><![CDATA[Bern, Wankdorf Center]]></name>
<description><![CDATA[340 connections
]]></description>
<styleUrl>../style/style.kml#station_icon</styleUrl>
<Point>
<coordinates>7.465900,46.961600</coordinates>
</Point>
</Placemark>
<Placemark id="pm71">
<name><![CDATA[Bern Zytglogge]]></name>
<description><![CDATA[339 connections
]]></description>
<styleUrl>../style/style.kml#station_icon</styleUrl>
<Point>
<coordinates>7.447960,46.947200</coordinates>
</Point>
</Placemark>
<Placemark id="pm7408">
<name><![CDATA[Unterzollikofen, Bahnhof]]></name>
<description><![CDATA[326 connections
]]></description>
<styleUrl>../style/style.kml#station_icon</styleUrl>
<Point>
<coordinates>7.457040,46.991600</coordinates>
</Point>
</Placemark>
<Placemark id="pm105">
<name><![CDATA[Bern Bümpliz Nord]]></name>
<description><![CDATA[316 connections
]]></description>
<styleUrl>../style/style.kml#station_icon</styleUrl>
<Point>
<coordinates>7.389750,46.945800</coordinates>
</Point>
</Placemark>
<Placemark id="pm6725">
<name><![CDATA[Bern Weissenbühl]]></name>
<description><![CDATA[300 connections
]]></description>
<styleUrl>../style/style.kml#station_icon</styleUrl>
<Point>
<coordinates>7.430020,46.935800</coordinates>
</Point>
</Placemark>
<Placemark id="pm12905">
<name><![CDATA[Zollikofen, Erlachplatz]]></name>
<description><![CDATA[296 connections
]]></description>
<styleUrl>../style/style.kml#station_icon</styleUrl>
<Point>
<coordinates>7.446540,46.998700</coordinates>
</Point>
</Placemark>
<Placemark id="pm14249">
<name><![CDATA[Zollikofen, Geisshubel]]></name>
<description><![CDATA[296 connections
]]></description>
<styleUrl>../style/style.kml#station_icon</styleUrl>
<Point>
<coordinates>7.442480,46.999700</coordinates>
</Point>
</Placemark>
<Placemark id="pm12398">
<name><![CDATA[Bern Tiefenau]]></name>
<description><![CDATA[292 connections
]]></description>
<styleUrl>../style/style.kml#station_icon</styleUrl>
<Point>
<coordinates>7.450200,46.972700</coordinates>
</Point>
</Placemark>
<Placemark id="pm2182">
<name><![CDATA[Bern Felsenau]]></name>
<description><![CDATA[292 connections
]]></description>
<styleUrl>../style/style.kml#station_icon</styleUrl>
<Point>
<coordinates>7.444250,46.968500</coordinates>
</Point>
</Placemark>
<Placemark id="pm635">
<name><![CDATA[Münchenbuchsee, Waldegg]]></name>
<description><![CDATA[282 connections
]]></description>
<styleUrl>../style/style.kml#station_icon</styleUrl>
<Point>
<coordinates>7.460700,47.009600</coordinates>
</Point>
</Placemark>
<Placemark id="pm1911">
<name><![CDATA[Münchenbuchsee, Hofwilstrasse]]></name>
<description><![CDATA[282 connections
]]></description>
<styleUrl>../style/style.kml#station_icon</styleUrl>
<Point>
<coordinates>7.456470,47.015600</coordinates>
</Point>
</Placemark>
<Placemark id="pm499">
<name><![CDATA[Münchenbuchsee, Coop]]></name>
<description><![CDATA[282 connections
]]></description>
<styleUrl>../style/style.kml#station_icon</styleUrl>
<Point>
<coordinates>7.445570,47.020200</coordinates>
</Point>
</Placemark>
<Placemark id="pm12091">
<name><![CDATA[Münchenbuchsee, Hüslimoos]]></name>
<description><![CDATA[282 connections
]]></description>
<styleUrl>../style/style.kml#station_icon</styleUrl>
<Point>
<coordinates>7.437120,47.020000</coordinates>
</Point>
</Placemark>
<Placemark id="pm3244">
<name><![CDATA[Bethlehem b. Bern, Kirche]]></name>
<description><![CDATA[280 connections
]]></description>
<styleUrl>../style/style.kml#station_icon</styleUrl>
<Point>
<coordinates>7.393140,46.949100</coordinates>
</Point>
</Placemark>
</Document>
</kml>
