<?xml version="1.0" encoding="UTF-8"?>
<!-- KML Regionator 303:340M -->
<kml xmlns="http://earth.google.com/kml/2.1">
<Document>
<name>581 02121023</name>
<Region>
<Lod>
<minLodPixels>256</minLodPixels>
<maxLodPixels>-1</maxLodPixels>
</Lod>
<LatLonAltBox>
<north>46.9775390625</north>
<south>46.93359375</south>
<east>7.470703125</east>
<west>7.4267578125</west>
</LatLonAltBox>
</Region>
<NetworkLink>
<name>021210230</name>
<Region>
<Lod>
<minLodPixels>256</minLodPixels>
<maxLodPixels>-1</maxLodPixels>
</Lod>
<LatLonAltBox>
<north>46.9775390625</north>
<south>46.95556640625</south>
<east>7.44873046875</east>
<west>7.4267578125</west>
</LatLonAltBox>
</Region>
<Link>
<href>582.kml</href>
<viewRefreshMode>onRegion</viewRefreshMode>
<viewFormat/>
</Link>
</NetworkLink>
<NetworkLink>
<name>021210231</name>
<Region>
<Lod>
<minLodPixels>256</minLodPixels>
<maxLodPixels>-1</maxLodPixels>
</Lod>
<LatLonAltBox>
<north>46.9775390625</north>
<south>46.95556640625</south>
<east>7.470703125</east>
<west>7.44873046875</west>
</LatLonAltBox>
</Region>
<Link>
<href>583.kml</href>
<viewRefreshMode>onRegion</viewRefreshMode>
<viewFormat/>
</Link>
</NetworkLink>
<NetworkLink>
<name>021210232</name>
<Region>
<Lod>
<minLodPixels>256</minLodPixels>
<maxLodPixels>-1</maxLodPixels>
</Lod>
<LatLonAltBox>
<north>46.95556640625</north>
<south>46.93359375</south>
<east>7.44873046875</east>
<west>7.4267578125</west>
</LatLonAltBox>
</Region>
<Link>
<href>584.kml</href>
<viewRefreshMode>onRegion</viewRefreshMode>
<viewFormat/>
</Link>
</NetworkLink>
<NetworkLink>
<name>021210233</name>
<Region>
<Lod>
<minLodPixels>256</minLodPixels>
<maxLodPixels>-1</maxLodPixels>
</Lod>
<LatLonAltBox>
<north>46.95556640625</north>
<south>46.93359375</south>
<east>7.470703125</east>
<west>7.44873046875</west>
</LatLonAltBox>
</Region>
<Link>
<href>585.kml</href>
<viewRefreshMode>onRegion</viewRefreshMode>
<viewFormat/>
</Link>
</NetworkLink>
<Placemark id="pm3851">
<name><![CDATA[Bern, Kasernenstrasse]]></name>
<description><![CDATA[250 connections
]]></description>
<styleUrl>../style/style.kml#station_icon</styleUrl>
<Point>
<coordinates>7.460090,46.954900</coordinates>
</Point>
</Placemark>
<Placemark id="pm15061">
<name><![CDATA[Bern, City West]]></name>
<description><![CDATA[250 connections
]]></description>
<styleUrl>../style/style.kml#station_icon</styleUrl>
<Point>
<coordinates>7.435910,46.947300</coordinates>
</Point>
</Placemark>
<Placemark id="pm13573">
<name><![CDATA[Bern, Burgernziel]]></name>
<description><![CDATA[196 connections
]]></description>
<styleUrl>../style/style.kml#station_icon</styleUrl>
<Point>
<coordinates>7.467190,46.942100</coordinates>
</Point>
</Placemark>
<Placemark id="pm4030">
<name><![CDATA[Bern, Schosshalde]]></name>
<description><![CDATA[196 connections
]]></description>
<styleUrl>../style/style.kml#station_icon</styleUrl>
<Point>
<coordinates>7.465810,46.947800</coordinates>
</Point>
</Placemark>
<Placemark id="pm13850">
<name><![CDATA[Bern, Rosengarten]]></name>
<description><![CDATA[196 connections
]]></description>
<styleUrl>../style/style.kml#station_icon</styleUrl>
<Point>
<coordinates>7.461260,46.952100</coordinates>
</Point>
</Placemark>
<Placemark id="pm12670">
<name><![CDATA[Bern, Löchligut]]></name>
<description><![CDATA[140 connections
]]></description>
<styleUrl>../style/style.kml#station_icon</styleUrl>
<Point>
<coordinates>7.469950,46.971000</coordinates>
</Point>
</Placemark>
<Placemark id="pm3385">
<name><![CDATA[Worblaufen, Sandhof]]></name>
<description><![CDATA[140 connections
]]></description>
<styleUrl>../style/style.kml#station_icon</styleUrl>
<Point>
<coordinates>7.465030,46.977300</coordinates>
</Point>
</Placemark>
<Placemark id="pm8385">
<name><![CDATA[Bern, Wylerholz]]></name>
<description><![CDATA[140 connections
]]></description>
<styleUrl>../style/style.kml#station_icon</styleUrl>
<Point>
<coordinates>7.463810,46.969500</coordinates>
</Point>
</Placemark>
<Placemark id="pm543">
<name><![CDATA[Bern, Schlachthof]]></name>
<description><![CDATA[140 connections
]]></description>
<styleUrl>../style/style.kml#station_icon</styleUrl>
<Point>
<coordinates>7.458160,46.966700</coordinates>
</Point>
</Placemark>
<Placemark id="pm2891">
<name><![CDATA[Bern, Stauffacherbrücke]]></name>
<description><![CDATA[140 connections
]]></description>
<styleUrl>../style/style.kml#station_icon</styleUrl>
<Point>
<coordinates>7.455320,46.966100</coordinates>
</Point>
</Placemark>
<Placemark id="pm9345">
<name><![CDATA[Bern, Winkelriedstrasse]]></name>
<description><![CDATA[140 connections
]]></description>
<styleUrl>../style/style.kml#station_icon</styleUrl>
<Point>
<coordinates>7.455190,46.963200</coordinates>
</Point>
</Placemark>
<Placemark id="pm342">
<name><![CDATA[Bern, Bahnhofplatz]]></name>
<description><![CDATA[110 connections
]]></description>
<styleUrl>../style/style.kml#station_icon</styleUrl>
<Point>
<coordinates>7.440170,46.948100</coordinates>
</Point>
</Placemark>
<Placemark id="pm3569">
<name><![CDATA[Bremgarten BE, Chutze]]></name>
<description><![CDATA[108 connections
]]></description>
<styleUrl>../style/style.kml#station_icon</styleUrl>
<Point>
<coordinates>7.437940,46.973000</coordinates>
</Point>
</Placemark>
<Placemark id="pm5978">
<name><![CDATA[Bremgarten BE, Kalchacker]]></name>
<description><![CDATA[108 connections
]]></description>
<styleUrl>../style/style.kml#station_icon</styleUrl>
<Point>
<coordinates>7.437930,46.975500</coordinates>
</Point>
</Placemark>
<Placemark id="pm9811">
<name><![CDATA[Bern, Schönburg]]></name>
<description><![CDATA[98 connections
]]></description>
<styleUrl>../style/style.kml#station_icon</styleUrl>
<Point>
<coordinates>7.457700,46.953600</coordinates>
</Point>
</Placemark>
<Placemark id="pm3043">
<name><![CDATA[Bern, Salem]]></name>
<description><![CDATA[98 connections
]]></description>
<styleUrl>../style/style.kml#station_icon</styleUrl>
<Point>
<coordinates>7.454900,46.953800</coordinates>
</Point>
</Placemark>
</Document>
</kml>
