<?xml version="1.0" encoding="UTF-8"?>
<!-- KML Regionator 303:340M -->
<kml xmlns="http://earth.google.com/kml/2.1">
<Document>
<name>647 02121323</name>
<Region>
<Lod>
<minLodPixels>256</minLodPixels>
<maxLodPixels>-1</maxLodPixels>
</Lod>
<LatLonAltBox>
<north>46.8017578125</north>
<south>46.7578125</south>
<east>7.646484375</east>
<west>7.6025390625</west>
</LatLonAltBox>
</Region>
<Placemark id="pm10388">
<name><![CDATA[Fahrni b. Thun, Lueg]]></name>
<description><![CDATA[58 connections
]]></description>
<styleUrl>../style/style.kml#station_icon</styleUrl>
<Point>
<coordinates>7.636430,46.798000</coordinates>
</Point>
</Placemark>
<Placemark id="pm13833">
<name><![CDATA[Unter Emberg, Pinte]]></name>
<description><![CDATA[46 connections
]]></description>
<styleUrl>../style/style.kml#station_icon</styleUrl>
<Point>
<coordinates>7.641610,46.782700</coordinates>
</Point>
</Placemark>
<Placemark id="pm11628">
<name><![CDATA[Steffisburg, Ziegelei]]></name>
<description><![CDATA[12 connections
]]></description>
<styleUrl>../style/style.kml#station_icon</styleUrl>
<Point>
<coordinates>7.630760,46.770600</coordinates>
</Point>
</Placemark>
<Placemark id="pm2829">
<name><![CDATA[Thun, Berntor]]></name>
<description><![CDATA[12 connections
]]></description>
<styleUrl>../style/style.kml#station_icon</styleUrl>
<Point>
<coordinates>7.629090,46.761300</coordinates>
</Point>
</Placemark>
<Placemark id="pm6697">
<name><![CDATA[Thun, Marktplatz/Sternenplatz]]></name>
<description><![CDATA[12 connections
]]></description>
<styleUrl>../style/style.kml#station_icon</styleUrl>
<Point>
<coordinates>7.629090,46.759300</coordinates>
</Point>
</Placemark>
<Placemark id="pm11349">
<name><![CDATA[Heimberg, Garage]]></name>
<description><![CDATA[8 connections
]]></description>
<styleUrl>../style/style.kml#station_icon</styleUrl>
<Point>
<coordinates>7.607580,46.789500</coordinates>
</Point>
</Placemark>
</Document>
</kml>
