<?xml version="1.0" encoding="UTF-8"?>
<!-- KML Regionator 303:340M -->
<kml xmlns="http://earth.google.com/kml/2.1">
<Document>
<name>657 0212202</name>
<Region>
<Lod>
<minLodPixels>256</minLodPixels>
<maxLodPixels>-1</maxLodPixels>
</Lod>
<LatLonAltBox>
<north>46.669921875</north>
<south>46.58203125</south>
<east>7.119140625</east>
<west>7.03125</west>
</LatLonAltBox>
</Region>
<NetworkLink>
<name>02122020</name>
<Region>
<Lod>
<minLodPixels>256</minLodPixels>
<maxLodPixels>-1</maxLodPixels>
</Lod>
<LatLonAltBox>
<north>46.669921875</north>
<south>46.6259765625</south>
<east>7.0751953125</east>
<west>7.03125</west>
</LatLonAltBox>
</Region>
<Link>
<href>658.kml</href>
<viewRefreshMode>onRegion</viewRefreshMode>
<viewFormat/>
</Link>
</NetworkLink>
<NetworkLink>
<name>02122021</name>
<Region>
<Lod>
<minLodPixels>256</minLodPixels>
<maxLodPixels>-1</maxLodPixels>
</Lod>
<LatLonAltBox>
<north>46.669921875</north>
<south>46.6259765625</south>
<east>7.119140625</east>
<west>7.0751953125</west>
</LatLonAltBox>
</Region>
<Link>
<href>659.kml</href>
<viewRefreshMode>onRegion</viewRefreshMode>
<viewFormat/>
</Link>
</NetworkLink>
<NetworkLink>
<name>02122022</name>
<Region>
<Lod>
<minLodPixels>256</minLodPixels>
<maxLodPixels>-1</maxLodPixels>
</Lod>
<LatLonAltBox>
<north>46.6259765625</north>
<south>46.58203125</south>
<east>7.0751953125</east>
<west>7.03125</west>
</LatLonAltBox>
</Region>
<Link>
<href>660.kml</href>
<viewRefreshMode>onRegion</viewRefreshMode>
<viewFormat/>
</Link>
</NetworkLink>
<NetworkLink>
<name>02122023</name>
<Region>
<Lod>
<minLodPixels>256</minLodPixels>
<maxLodPixels>-1</maxLodPixels>
</Lod>
<LatLonAltBox>
<north>46.6259765625</north>
<south>46.58203125</south>
<east>7.119140625</east>
<west>7.0751953125</west>
</LatLonAltBox>
</Region>
<Link>
<href>661.kml</href>
<viewRefreshMode>onRegion</viewRefreshMode>
<viewFormat/>
</Link>
</NetworkLink>
<Placemark id="pm13537">
<name><![CDATA[Broc-Village, gare]]></name>
<description><![CDATA[86 connections
]]></description>
<styleUrl>../style/style.kml#station_icon</styleUrl>
<Point>
<coordinates>7.097990,46.603300</coordinates>
</Point>
</Placemark>
<Placemark id="pm6208">
<name><![CDATA[Hauteville, poste]]></name>
<description><![CDATA[82 connections
]]></description>
<styleUrl>../style/style.kml#station_icon</styleUrl>
<Point>
<coordinates>7.109330,46.669900</coordinates>
</Point>
</Placemark>
<Placemark id="pm13056">
<name><![CDATA[Planchy]]></name>
<description><![CDATA[70 connections
]]></description>
<styleUrl>../style/style.kml#station_icon</styleUrl>
<Point>
<coordinates>7.035650,46.621500</coordinates>
</Point>
</Placemark>
<Placemark id="pm5067">
<name><![CDATA[Gruyères]]></name>
<description><![CDATA[68 connections
]]></description>
<styleUrl>../style/style.kml#station_icon</styleUrl>
<Point>
<coordinates>7.073130,46.582900</coordinates>
</Point>
</Placemark>
<Placemark id="pm6326">
<name><![CDATA[La Tour-de-Trême]]></name>
<description><![CDATA[68 connections
]]></description>
<styleUrl>../style/style.kml#station_icon</styleUrl>
<Point>
<coordinates>7.061300,46.605700</coordinates>
</Point>
</Placemark>
<Placemark id="pm2983">
<name><![CDATA[Le Pâquier-Montbarry]]></name>
<description><![CDATA[68 connections
]]></description>
<styleUrl>../style/style.kml#station_icon</styleUrl>
<Point>
<coordinates>7.059810,46.594700</coordinates>
</Point>
</Placemark>
<Placemark id="pm920">
<name><![CDATA[Corbières, poste]]></name>
<description><![CDATA[66 connections
]]></description>
<styleUrl>../style/style.kml#station_icon</styleUrl>
<Point>
<coordinates>7.100250,46.659100</coordinates>
</Point>
</Placemark>
<Placemark id="pm11362">
<name><![CDATA[Broc-Village]]></name>
<description><![CDATA[62 connections
]]></description>
<styleUrl>../style/style.kml#station_icon</styleUrl>
<Point>
<coordinates>7.098750,46.604100</coordinates>
</Point>
</Placemark>
<Placemark id="pm6235">
<name><![CDATA[Les Marches]]></name>
<description><![CDATA[62 connections
]]></description>
<styleUrl>../style/style.kml#station_icon</styleUrl>
<Point>
<coordinates>7.091400,46.602900</coordinates>
</Point>
</Placemark>
<Placemark id="pm6345">
<name><![CDATA[Epagny]]></name>
<description><![CDATA[62 connections
]]></description>
<styleUrl>../style/style.kml#station_icon</styleUrl>
<Point>
<coordinates>7.071260,46.604500</coordinates>
</Point>
</Placemark>
<Placemark id="pm11145">
<name><![CDATA[La Tour-Village]]></name>
<description><![CDATA[62 connections
]]></description>
<styleUrl>../style/style.kml#station_icon</styleUrl>
<Point>
<coordinates>7.064230,46.608400</coordinates>
</Point>
</Placemark>
<Placemark id="pm11616">
<name><![CDATA[Botterens, bif.]]></name>
<description><![CDATA[58 connections
]]></description>
<styleUrl>../style/style.kml#station_icon</styleUrl>
<Point>
<coordinates>7.113560,46.618700</coordinates>
</Point>
</Placemark>
<Placemark id="pm13326">
<name><![CDATA[Botterens, poste]]></name>
<description><![CDATA[54 connections
]]></description>
<styleUrl>../style/style.kml#station_icon</styleUrl>
<Point>
<coordinates>7.112250,46.619600</coordinates>
</Point>
</Placemark>
<Placemark id="pm9097">
<name><![CDATA[Villarvolard, village]]></name>
<description><![CDATA[54 connections
]]></description>
<styleUrl>../style/style.kml#station_icon</styleUrl>
<Point>
<coordinates>7.106870,46.645600</coordinates>
</Point>
</Placemark>
<Placemark id="pm6645">
<name><![CDATA[Echarlens, poste]]></name>
<description><![CDATA[50 connections
]]></description>
<styleUrl>../style/style.kml#station_icon</styleUrl>
<Point>
<coordinates>7.076820,46.645600</coordinates>
</Point>
</Placemark>
<Placemark id="pm5209">
<name><![CDATA[Riaz, poste]]></name>
<description><![CDATA[50 connections
]]></description>
<styleUrl>../style/style.kml#station_icon</styleUrl>
<Point>
<coordinates>7.063800,46.640100</coordinates>
</Point>
</Placemark>
</Document>
</kml>
