<?xml version="1.0" encoding="UTF-8"?>
<!-- KML Regionator 303:340M -->
<kml xmlns="http://earth.google.com/kml/2.1">
<Document>
<name>719 02130130</name>
<Region>
<Lod>
<minLodPixels>256</minLodPixels>
<maxLodPixels>-1</maxLodPixels>
</Lod>
<LatLonAltBox>
<north>47.021484375</north>
<south>46.9775390625</south>
<east>8.0419921875</east>
<west>7.998046875</west>
</LatLonAltBox>
</Region>
<Placemark id="pm3428">
<name><![CDATA[Doppleschwand, Brüggweid]]></name>
<description><![CDATA[40 connections
]]></description>
<styleUrl>../style/style.kml#station_icon</styleUrl>
<Point>
<coordinates>8.038050,47.016800</coordinates>
</Point>
</Placemark>
<Placemark id="pm5299">
<name><![CDATA[Romoos, Flühboden]]></name>
<description><![CDATA[40 connections
]]></description>
<styleUrl>../style/style.kml#station_icon</styleUrl>
<Point>
<coordinates>8.029450,47.012100</coordinates>
</Point>
</Placemark>
<Placemark id="pm14866">
<name><![CDATA[Romoos, Post]]></name>
<description><![CDATA[25 connections
]]></description>
<styleUrl>../style/style.kml#station_icon</styleUrl>
<Point>
<coordinates>8.027140,47.011000</coordinates>
</Point>
</Placemark>
<Placemark id="pm9841">
<name><![CDATA[Romoos, Abzw. Hinterwald]]></name>
<description><![CDATA[10 connections
]]></description>
<styleUrl>../style/style.kml#station_icon</styleUrl>
<Point>
<coordinates>8.021850,47.008300</coordinates>
</Point>
</Placemark>
<Placemark id="pm7436">
<name><![CDATA[Romoos, Studen]]></name>
<description><![CDATA[10 connections
]]></description>
<styleUrl>../style/style.kml#station_icon</styleUrl>
<Point>
<coordinates>8.018180,47.003100</coordinates>
</Point>
</Placemark>
<Placemark id="pm6933">
<name><![CDATA[Romoos, Adlisberg]]></name>
<description><![CDATA[10 connections
]]></description>
<styleUrl>../style/style.kml#station_icon</styleUrl>
<Point>
<coordinates>8.016140,46.997300</coordinates>
</Point>
</Placemark>
<Placemark id="pm9336">
<name><![CDATA[Romoos, Schmitteli]]></name>
<description><![CDATA[10 connections
]]></description>
<styleUrl>../style/style.kml#station_icon</styleUrl>
<Point>
<coordinates>8.014490,46.996400</coordinates>
</Point>
</Placemark>
<Placemark id="pm9690">
<name><![CDATA[Romoos, Schwändi]]></name>
<description><![CDATA[10 connections
]]></description>
<styleUrl>../style/style.kml#station_icon</styleUrl>
<Point>
<coordinates>8.003670,46.998700</coordinates>
</Point>
</Placemark>
</Document>
</kml>
