<?xml version="1.0" encoding="UTF-8"?>
<!-- KML Regionator 303:340M -->
<kml xmlns="http://earth.google.com/kml/2.1">
<Document>
<name>767 0213132</name>
<Region>
<Lod>
<minLodPixels>256</minLodPixels>
<maxLodPixels>-1</maxLodPixels>
</Lod>
<LatLonAltBox>
<north>46.845703125</north>
<south>46.7578125</south>
<east>8.349609375</east>
<west>8.26171875</west>
</LatLonAltBox>
</Region>
<Placemark id="pm12197">
<name><![CDATA[Melchtal, Weidli]]></name>
<description><![CDATA[60 connections
]]></description>
<styleUrl>../style/style.kml#station_icon</styleUrl>
<Point>
<coordinates>8.292010,46.837700</coordinates>
</Point>
</Placemark>
<Placemark id="pm5815">
<name><![CDATA[Melchtal, Post]]></name>
<description><![CDATA[49 connections
]]></description>
<styleUrl>../style/style.kml#station_icon</styleUrl>
<Point>
<coordinates>8.289010,46.834400</coordinates>
</Point>
</Placemark>
<Placemark id="pm14540">
<name><![CDATA[Melchtal, Plätzli]]></name>
<description><![CDATA[38 connections
]]></description>
<styleUrl>../style/style.kml#station_icon</styleUrl>
<Point>
<coordinates>8.286680,46.831900</coordinates>
</Point>
</Placemark>
<Placemark id="pm2685">
<name><![CDATA[Melchtal, Durrenbach]]></name>
<description><![CDATA[38 connections
]]></description>
<styleUrl>../style/style.kml#station_icon</styleUrl>
<Point>
<coordinates>8.284460,46.815900</coordinates>
</Point>
</Placemark>
<Placemark id="pm3016">
<name><![CDATA[Innertkirchen, Schütziboden]]></name>
<description><![CDATA[24 connections
]]></description>
<styleUrl>../style/style.kml#station_icon</styleUrl>
<Point>
<coordinates>8.322960,46.766600</coordinates>
</Point>
</Placemark>
<Placemark id="pm7709">
<name><![CDATA[Stöckalp]]></name>
<description><![CDATA[19 connections
]]></description>
<styleUrl>../style/style.kml#station_icon</styleUrl>
<Point>
<coordinates>8.279010,46.802500</coordinates>
</Point>
</Placemark>
<Placemark id="pm14558">
<name><![CDATA[Engstlenalp]]></name>
<description><![CDATA[12 connections
]]></description>
<styleUrl>../style/style.kml#station_icon</styleUrl>
<Point>
<coordinates>8.344720,46.775700</coordinates>
</Point>
</Placemark>
</Document>
</kml>
