<?xml version="1.0" encoding="UTF-8"?>
<!-- KML Regionator 303:340M -->
<kml xmlns="http://earth.google.com/kml/2.1">
<Document>
<name>771 0213200</name>
<Region>
<Lod>
<minLodPixels>256</minLodPixels>
<maxLodPixels>-1</maxLodPixels>
</Lod>
<LatLonAltBox>
<north>46.7578125</north>
<south>46.669921875</south>
<east>7.822265625</east>
<west>7.734375</west>
</LatLonAltBox>
</Region>
<NetworkLink>
<name>02132002</name>
<Region>
<Lod>
<minLodPixels>256</minLodPixels>
<maxLodPixels>-1</maxLodPixels>
</Lod>
<LatLonAltBox>
<north>46.7138671875</north>
<south>46.669921875</south>
<east>7.7783203125</east>
<west>7.734375</west>
</LatLonAltBox>
</Region>
<Link>
<href>772.kml</href>
<viewRefreshMode>onRegion</viewRefreshMode>
<viewFormat/>
</Link>
</NetworkLink>
<NetworkLink>
<name>02132003</name>
<Region>
<Lod>
<minLodPixels>256</minLodPixels>
<maxLodPixels>-1</maxLodPixels>
</Lod>
<LatLonAltBox>
<north>46.7138671875</north>
<south>46.669921875</south>
<east>7.822265625</east>
<west>7.7783203125</west>
</LatLonAltBox>
</Region>
<Link>
<href>773.kml</href>
<viewRefreshMode>onRegion</viewRefreshMode>
<viewFormat/>
</Link>
</NetworkLink>
<Placemark id="pm7063">
<name><![CDATA[Beatenberg, Schorren]]></name>
<description><![CDATA[90 connections
]]></description>
<styleUrl>../style/style.kml#station_icon</styleUrl>
<Point>
<coordinates>7.806070,46.703600</coordinates>
</Point>
</Placemark>
<Placemark id="pm6907">
<name><![CDATA[Beatenberg, Mättli]]></name>
<description><![CDATA[90 connections
]]></description>
<styleUrl>../style/style.kml#station_icon</styleUrl>
<Point>
<coordinates>7.801470,46.700700</coordinates>
</Point>
</Placemark>
<Placemark id="pm8426">
<name><![CDATA[Beatenberg, Tourist-Center]]></name>
<description><![CDATA[90 connections
]]></description>
<styleUrl>../style/style.kml#station_icon</styleUrl>
<Point>
<coordinates>7.795250,46.698200</coordinates>
</Point>
</Placemark>
<Placemark id="pm5893">
<name><![CDATA[Beatenberg, Wydi]]></name>
<description><![CDATA[90 connections
]]></description>
<styleUrl>../style/style.kml#station_icon</styleUrl>
<Point>
<coordinates>7.793930,46.696900</coordinates>
</Point>
</Placemark>
<Placemark id="pm3761">
<name><![CDATA[Beatenberg, Post]]></name>
<description><![CDATA[90 connections
]]></description>
<styleUrl>../style/style.kml#station_icon</styleUrl>
<Point>
<coordinates>7.792290,46.696400</coordinates>
</Point>
</Placemark>
<Placemark id="pm11888">
<name><![CDATA[Beatenberg, Parkplatz Lood]]></name>
<description><![CDATA[90 connections
]]></description>
<styleUrl>../style/style.kml#station_icon</styleUrl>
<Point>
<coordinates>7.786380,46.692400</coordinates>
</Point>
</Placemark>
<Placemark id="pm9913">
<name><![CDATA[Beatenberg, Firnelicht]]></name>
<description><![CDATA[90 connections
]]></description>
<styleUrl>../style/style.kml#station_icon</styleUrl>
<Point>
<coordinates>7.779830,46.690400</coordinates>
</Point>
</Placemark>
<Placemark id="pm3200">
<name><![CDATA[Beatenberg, Hubel]]></name>
<description><![CDATA[90 connections
]]></description>
<styleUrl>../style/style.kml#station_icon</styleUrl>
<Point>
<coordinates>7.771990,46.689700</coordinates>
</Point>
</Placemark>
<Placemark id="pm10834">
<name><![CDATA[Waldegg (Beatenberg), Hohwald]]></name>
<description><![CDATA[78 connections
]]></description>
<styleUrl>../style/style.kml#station_icon</styleUrl>
<Point>
<coordinates>7.809670,46.703800</coordinates>
</Point>
</Placemark>
<Placemark id="pm10896">
<name><![CDATA[Beatenberg]]></name>
<description><![CDATA[77 connections
]]></description>
<styleUrl>../style/style.kml#station_icon</styleUrl>
<Point>
<coordinates>7.765400,46.690600</coordinates>
</Point>
</Placemark>
<Placemark id="pm316">
<name><![CDATA[Beatenbucht TBB]]></name>
<description><![CDATA[77 connections
]]></description>
<styleUrl>../style/style.kml#station_icon</styleUrl>
<Point>
<coordinates>7.747120,46.685500</coordinates>
</Point>
</Placemark>
<Placemark id="pm5265">
<name><![CDATA[Beatenbucht ThS]]></name>
<description><![CDATA[68 connections
]]></description>
<styleUrl>../style/style.kml#station_icon</styleUrl>
<Point>
<coordinates>7.746020,46.686600</coordinates>
</Point>
</Placemark>
<Placemark id="pm5940">
<name><![CDATA[Merligen ThS]]></name>
<description><![CDATA[68 connections
]]></description>
<styleUrl>../style/style.kml#station_icon</styleUrl>
<Point>
<coordinates>7.737150,46.696400</coordinates>
</Point>
</Placemark>
<Placemark id="pm9795">
<name><![CDATA[Unterseen, Luegibrüggli]]></name>
<description><![CDATA[66 connections
]]></description>
<styleUrl>../style/style.kml#station_icon</styleUrl>
<Point>
<coordinates>7.817550,46.688800</coordinates>
</Point>
</Placemark>
<Placemark id="pm13345">
<name><![CDATA[Waldegg (Beatenberg), Hohlen]]></name>
<description><![CDATA[66 connections
]]></description>
<styleUrl>../style/style.kml#station_icon</styleUrl>
<Point>
<coordinates>7.811860,46.690000</coordinates>
</Point>
</Placemark>
<Placemark id="pm13378">
<name><![CDATA[Waldegg (Beatenberg), Ramsern]]></name>
<description><![CDATA[66 connections
]]></description>
<styleUrl>../style/style.kml#station_icon</styleUrl>
<Point>
<coordinates>7.811210,46.700300</coordinates>
</Point>
</Placemark>
</Document>
</kml>
