<?xml version="1.0" encoding="UTF-8"?>
<!-- KML Regionator 303:340M -->
<kml xmlns="http://earth.google.com/kml/2.1">
<Document>
<name>81 020313</name>
<Region>
<Lod>
<minLodPixels>256</minLodPixels>
<maxLodPixels>-1</maxLodPixels>
</Lod>
<LatLonAltBox>
<north>46.93359375</north>
<south>46.7578125</south>
<east>7.03125</east>
<west>6.85546875</west>
</LatLonAltBox>
</Region>
<NetworkLink>
<name>0203130</name>
<Region>
<Lod>
<minLodPixels>256</minLodPixels>
<maxLodPixels>-1</maxLodPixels>
</Lod>
<LatLonAltBox>
<north>46.93359375</north>
<south>46.845703125</south>
<east>6.943359375</east>
<west>6.85546875</west>
</LatLonAltBox>
</Region>
<Link>
<href>82.kml</href>
<viewRefreshMode>onRegion</viewRefreshMode>
<viewFormat/>
</Link>
</NetworkLink>
<NetworkLink>
<name>0203131</name>
<Region>
<Lod>
<minLodPixels>256</minLodPixels>
<maxLodPixels>-1</maxLodPixels>
</Lod>
<LatLonAltBox>
<north>46.93359375</north>
<south>46.845703125</south>
<east>7.03125</east>
<west>6.943359375</west>
</LatLonAltBox>
</Region>
<Link>
<href>83.kml</href>
<viewRefreshMode>onRegion</viewRefreshMode>
<viewFormat/>
</Link>
</NetworkLink>
<NetworkLink>
<name>0203132</name>
<Region>
<Lod>
<minLodPixels>256</minLodPixels>
<maxLodPixels>-1</maxLodPixels>
</Lod>
<LatLonAltBox>
<north>46.845703125</north>
<south>46.7578125</south>
<east>6.943359375</east>
<west>6.85546875</west>
</LatLonAltBox>
</Region>
<Link>
<href>87.kml</href>
<viewRefreshMode>onRegion</viewRefreshMode>
<viewFormat/>
</Link>
</NetworkLink>
<NetworkLink>
<name>0203133</name>
<Region>
<Lod>
<minLodPixels>256</minLodPixels>
<maxLodPixels>-1</maxLodPixels>
</Lod>
<LatLonAltBox>
<north>46.845703125</north>
<south>46.7578125</south>
<east>7.03125</east>
<west>6.943359375</west>
</LatLonAltBox>
</Region>
<Link>
<href>92.kml</href>
<viewRefreshMode>onRegion</viewRefreshMode>
<viewFormat/>
</Link>
</NetworkLink>
<Placemark id="pm3840">
<name><![CDATA[Cugy FR]]></name>
<description><![CDATA[96 connections
]]></description>
<styleUrl>../style/style.kml#station_icon</styleUrl>
<Point>
<coordinates>6.889170,46.816000</coordinates>
</Point>
</Placemark>
<Placemark id="pm2430">
<name><![CDATA[Léchelles]]></name>
<description><![CDATA[80 connections
]]></description>
<styleUrl>../style/style.kml#station_icon</styleUrl>
<Point>
<coordinates>7.011620,46.828400</coordinates>
</Point>
</Placemark>
<Placemark id="pm6360">
<name><![CDATA[Cousset]]></name>
<description><![CDATA[80 connections
]]></description>
<styleUrl>../style/style.kml#station_icon</styleUrl>
<Point>
<coordinates>6.977490,46.818600</coordinates>
</Point>
</Placemark>
<Placemark id="pm11042">
<name><![CDATA[Corcelles-Sud]]></name>
<description><![CDATA[80 connections
]]></description>
<styleUrl>../style/style.kml#station_icon</styleUrl>
<Point>
<coordinates>6.957190,46.828800</coordinates>
</Point>
</Placemark>
<Placemark id="pm3921">
<name><![CDATA[Domdidier]]></name>
<description><![CDATA[76 connections
]]></description>
<styleUrl>../style/style.kml#station_icon</styleUrl>
<Point>
<coordinates>7.011380,46.868500</coordinates>
</Point>
</Placemark>
<Placemark id="pm4215">
<name><![CDATA[Dompierre]]></name>
<description><![CDATA[76 connections
]]></description>
<styleUrl>../style/style.kml#station_icon</styleUrl>
<Point>
<coordinates>6.985360,46.854400</coordinates>
</Point>
</Placemark>
<Placemark id="pm3358">
<name><![CDATA[Corcelles-Nord]]></name>
<description><![CDATA[76 connections
]]></description>
<styleUrl>../style/style.kml#station_icon</styleUrl>
<Point>
<coordinates>6.960290,46.835300</coordinates>
</Point>
</Placemark>
<Placemark id="pm2605">
<name><![CDATA[Granges-Marnand]]></name>
<description><![CDATA[72 connections
]]></description>
<styleUrl>../style/style.kml#station_icon</styleUrl>
<Point>
<coordinates>6.894290,46.758800</coordinates>
</Point>
</Placemark>
<Placemark id="pm6101">
<name><![CDATA[Payerne, gare]]></name>
<description><![CDATA[68 connections
]]></description>
<styleUrl>../style/style.kml#station_icon</styleUrl>
<Point>
<coordinates>6.940030,46.819600</coordinates>
</Point>
</Placemark>
<Placemark id="pm6925">
<name><![CDATA[Rueyres-les-Prés, village]]></name>
<description><![CDATA[58 connections
]]></description>
<styleUrl>../style/style.kml#station_icon</styleUrl>
<Point>
<coordinates>6.916050,46.859900</coordinates>
</Point>
</Placemark>
<Placemark id="pm9178">
<name><![CDATA[Morens FR, croisée]]></name>
<description><![CDATA[58 connections
]]></description>
<styleUrl>../style/style.kml#station_icon</styleUrl>
<Point>
<coordinates>6.906370,46.843700</coordinates>
</Point>
</Placemark>
<Placemark id="pm3396">
<name><![CDATA[Bussy FR, poste]]></name>
<description><![CDATA[58 connections
]]></description>
<styleUrl>../style/style.kml#station_icon</styleUrl>
<Point>
<coordinates>6.888770,46.834600</coordinates>
</Point>
</Placemark>
<Placemark id="pm501">
<name><![CDATA[Middes, bif.]]></name>
<description><![CDATA[54 connections
]]></description>
<styleUrl>../style/style.kml#station_icon</styleUrl>
<Point>
<coordinates>6.949350,46.767200</coordinates>
</Point>
</Placemark>
<Placemark id="pm10185">
<name><![CDATA[St-Aubin FR, bif.]]></name>
<description><![CDATA[53 connections
]]></description>
<styleUrl>../style/style.kml#station_icon</styleUrl>
<Point>
<coordinates>6.982040,46.887200</coordinates>
</Point>
</Placemark>
<Placemark id="pm8553">
<name><![CDATA[Vallon, village]]></name>
<description><![CDATA[52 connections
]]></description>
<styleUrl>../style/style.kml#station_icon</styleUrl>
<Point>
<coordinates>6.952550,46.883900</coordinates>
</Point>
</Placemark>
<Placemark id="pm8913">
<name><![CDATA[Payerne, croisée de Cugy]]></name>
<description><![CDATA[52 connections
]]></description>
<styleUrl>../style/style.kml#station_icon</styleUrl>
<Point>
<coordinates>6.930200,46.819100</coordinates>
</Point>
</Placemark>
</Document>
</kml>
