<?xml version="1.0" encoding="UTF-8"?>
<!-- KML Regionator 303:340M -->
<kml xmlns="http://earth.google.com/kml/2.1">
<Document>
<name>82 0203130</name>
<Region>
<Lod>
<minLodPixels>256</minLodPixels>
<maxLodPixels>-1</maxLodPixels>
</Lod>
<LatLonAltBox>
<north>46.93359375</north>
<south>46.845703125</south>
<east>6.943359375</east>
<west>6.85546875</west>
</LatLonAltBox>
</Region>
<Placemark id="pm9352">
<name><![CDATA[Grandcour, poste]]></name>
<description><![CDATA[48 connections
]]></description>
<styleUrl>../style/style.kml#station_icon</styleUrl>
<Point>
<coordinates>6.928390,46.871700</coordinates>
</Point>
</Placemark>
<Placemark id="pm10271">
<name><![CDATA[Rueyres-les-Prés, anc. poste]]></name>
<description><![CDATA[34 connections
]]></description>
<styleUrl>../style/style.kml#station_icon</styleUrl>
<Point>
<coordinates>6.916720,46.858600</coordinates>
</Point>
</Placemark>
<Placemark id="pm8698">
<name><![CDATA[Rueyres-les-Prés, croisée]]></name>
<description><![CDATA[34 connections
]]></description>
<styleUrl>../style/style.kml#station_icon</styleUrl>
<Point>
<coordinates>6.912710,46.865900</coordinates>
</Point>
</Placemark>
<Placemark id="pm10849">
<name><![CDATA[Rueyres-les-Prés, La Palud]]></name>
<description><![CDATA[34 connections
]]></description>
<styleUrl>../style/style.kml#station_icon</styleUrl>
<Point>
<coordinates>6.910850,46.855400</coordinates>
</Point>
</Placemark>
<Placemark id="pm8183">
<name><![CDATA[Gletterens, village]]></name>
<description><![CDATA[29 connections
]]></description>
<styleUrl>../style/style.kml#station_icon</styleUrl>
<Point>
<coordinates>6.936050,46.894200</coordinates>
</Point>
</Placemark>
<Placemark id="pm11821">
<name><![CDATA[Rueyres-Les-Prés, bif.]]></name>
<description><![CDATA[26 connections
]]></description>
<styleUrl>../style/style.kml#station_icon</styleUrl>
<Point>
<coordinates>6.912720,46.865300</coordinates>
</Point>
</Placemark>
<Placemark id="pm5531">
<name><![CDATA[Gletterens, école]]></name>
<description><![CDATA[24 connections
]]></description>
<styleUrl>../style/style.kml#station_icon</styleUrl>
<Point>
<coordinates>6.936960,46.895100</coordinates>
</Point>
</Placemark>
<Placemark id="pm3513">
<name><![CDATA[Chevroux, village]]></name>
<description><![CDATA[24 connections
]]></description>
<styleUrl>../style/style.kml#station_icon</styleUrl>
<Point>
<coordinates>6.906590,46.888200</coordinates>
</Point>
</Placemark>
<Placemark id="pm4125">
<name><![CDATA[Chevroux, port]]></name>
<description><![CDATA[24 connections
]]></description>
<styleUrl>../style/style.kml#station_icon</styleUrl>
<Point>
<coordinates>6.905910,46.890500</coordinates>
</Point>
</Placemark>
<Placemark id="pm5658">
<name><![CDATA[Les Planches FR]]></name>
<description><![CDATA[22 connections
]]></description>
<styleUrl>../style/style.kml#station_icon</styleUrl>
<Point>
<coordinates>6.904790,46.871600</coordinates>
</Point>
</Placemark>
<Placemark id="pm7293">
<name><![CDATA[Forel FR, village]]></name>
<description><![CDATA[22 connections
]]></description>
<styleUrl>../style/style.kml#station_icon</styleUrl>
<Point>
<coordinates>6.887690,46.876000</coordinates>
</Point>
</Placemark>
<Placemark id="pm11619">
<name><![CDATA[Montbrelloz, village]]></name>
<description><![CDATA[22 connections
]]></description>
<styleUrl>../style/style.kml#station_icon</styleUrl>
<Point>
<coordinates>6.886610,46.853500</coordinates>
</Point>
</Placemark>
<Placemark id="pm10707">
<name><![CDATA[Montbrelloz, bif.]]></name>
<description><![CDATA[22 connections
]]></description>
<styleUrl>../style/style.kml#station_icon</styleUrl>
<Point>
<coordinates>6.881310,46.858900</coordinates>
</Point>
</Placemark>
<Placemark id="pm3103">
<name><![CDATA[Autavaux, bif.]]></name>
<description><![CDATA[22 connections
]]></description>
<styleUrl>../style/style.kml#station_icon</styleUrl>
<Point>
<coordinates>6.881260,46.863400</coordinates>
</Point>
</Placemark>
<Placemark id="pm3267">
<name><![CDATA[Chevroux]]></name>
<description><![CDATA[8 connections
]]></description>
<styleUrl>../style/style.kml#station_icon</styleUrl>
<Point>
<coordinates>6.896660,46.899700</coordinates>
</Point>
</Placemark>
</Document>
</kml>
