<?xml version="1.0" encoding="UTF-8"?>
<!-- KML Regionator 303:340M -->
<kml xmlns="http://earth.google.com/kml/2.1">
<Document>
<name>876 023000</name>
<Region>
<Lod>
<minLodPixels>256</minLodPixels>
<maxLodPixels>-1</maxLodPixels>
</Lod>
<LatLonAltBox>
<north>46.40625</north>
<south>46.23046875</south>
<east>7.20703125</east>
<west>7.03125</west>
</LatLonAltBox>
</Region>
<NetworkLink>
<name>0230000</name>
<Region>
<Lod>
<minLodPixels>256</minLodPixels>
<maxLodPixels>-1</maxLodPixels>
</Lod>
<LatLonAltBox>
<north>46.40625</north>
<south>46.318359375</south>
<east>7.119140625</east>
<west>7.03125</west>
</LatLonAltBox>
</Region>
<Link>
<href>877.kml</href>
<viewRefreshMode>onRegion</viewRefreshMode>
<viewFormat/>
</Link>
</NetworkLink>
<NetworkLink>
<name>0230001</name>
<Region>
<Lod>
<minLodPixels>256</minLodPixels>
<maxLodPixels>-1</maxLodPixels>
</Lod>
<LatLonAltBox>
<north>46.40625</north>
<south>46.318359375</south>
<east>7.20703125</east>
<west>7.119140625</west>
</LatLonAltBox>
</Region>
<Link>
<href>879.kml</href>
<viewRefreshMode>onRegion</viewRefreshMode>
<viewFormat/>
</Link>
</NetworkLink>
<NetworkLink>
<name>0230002</name>
<Region>
<Lod>
<minLodPixels>256</minLodPixels>
<maxLodPixels>-1</maxLodPixels>
</Lod>
<LatLonAltBox>
<north>46.318359375</north>
<south>46.23046875</south>
<east>7.119140625</east>
<west>7.03125</west>
</LatLonAltBox>
</Region>
<Link>
<href>880.kml</href>
<viewRefreshMode>onRegion</viewRefreshMode>
<viewFormat/>
</Link>
</NetworkLink>
<NetworkLink>
<name>0230003</name>
<Region>
<Lod>
<minLodPixels>256</minLodPixels>
<maxLodPixels>-1</maxLodPixels>
</Lod>
<LatLonAltBox>
<north>46.318359375</north>
<south>46.23046875</south>
<east>7.20703125</east>
<west>7.119140625</west>
</LatLonAltBox>
</Region>
<Link>
<href>881.kml</href>
<viewRefreshMode>onRegion</viewRefreshMode>
<viewFormat/>
</Link>
</NetworkLink>
<Placemark id="pm14716">
<name><![CDATA[Villars-sur-Ollon]]></name>
<description><![CDATA[107 connections
]]></description>
<styleUrl>../style/style.kml#station_icon</styleUrl>
<Point>
<coordinates>7.056230,46.296200</coordinates>
</Point>
</Placemark>
<Placemark id="pm3895">
<name><![CDATA[La Barboleuse]]></name>
<description><![CDATA[82 connections
]]></description>
<styleUrl>../style/style.kml#station_icon</styleUrl>
<Point>
<coordinates>7.070490,46.282700</coordinates>
</Point>
</Placemark>
<Placemark id="pm10142">
<name><![CDATA[Col-de-Bretaye]]></name>
<description><![CDATA[72 connections
]]></description>
<styleUrl>../style/style.kml#station_icon</styleUrl>
<Point>
<coordinates>7.073610,46.321900</coordinates>
</Point>
</Placemark>
<Placemark id="pm7875">
<name><![CDATA[La Clairière]]></name>
<description><![CDATA[70 connections
]]></description>
<styleUrl>../style/style.kml#station_icon</styleUrl>
<Point>
<coordinates>7.067770,46.288200</coordinates>
</Point>
</Placemark>
<Placemark id="pm1966">
<name><![CDATA[Gryon Bois-Gentil]]></name>
<description><![CDATA[70 connections
]]></description>
<styleUrl>../style/style.kml#station_icon</styleUrl>
<Point>
<coordinates>7.067550,46.277700</coordinates>
</Point>
</Placemark>
<Placemark id="pm11118">
<name><![CDATA[Arveyes]]></name>
<description><![CDATA[70 connections
]]></description>
<styleUrl>../style/style.kml#station_icon</styleUrl>
<Point>
<coordinates>7.061200,46.293700</coordinates>
</Point>
</Placemark>
<Placemark id="pm2121">
<name><![CDATA[Vers-l'Eglise]]></name>
<description><![CDATA[68 connections
]]></description>
<styleUrl>../style/style.kml#station_icon</styleUrl>
<Point>
<coordinates>7.134140,46.353600</coordinates>
</Point>
</Placemark>
<Placemark id="pm8049">
<name><![CDATA[Les Aviolats]]></name>
<description><![CDATA[68 connections
]]></description>
<styleUrl>../style/style.kml#station_icon</styleUrl>
<Point>
<coordinates>7.113160,46.353000</coordinates>
</Point>
</Placemark>
<Placemark id="pm5131">
<name><![CDATA[Les Echenards]]></name>
<description><![CDATA[68 connections
]]></description>
<styleUrl>../style/style.kml#station_icon</styleUrl>
<Point>
<coordinates>7.085060,46.355300</coordinates>
</Point>
</Placemark>
<Placemark id="pm8676">
<name><![CDATA[Le Sépey]]></name>
<description><![CDATA[68 connections
]]></description>
<styleUrl>../style/style.kml#station_icon</styleUrl>
<Point>
<coordinates>7.052790,46.361200</coordinates>
</Point>
</Placemark>
<Placemark id="pm6914">
<name><![CDATA[Les Fontanelles]]></name>
<description><![CDATA[68 connections
]]></description>
<styleUrl>../style/style.kml#station_icon</styleUrl>
<Point>
<coordinates>7.045450,46.343100</coordinates>
</Point>
</Placemark>
<Placemark id="pm647">
<name><![CDATA[Exergillod]]></name>
<description><![CDATA[68 connections
]]></description>
<styleUrl>../style/style.kml#station_icon</styleUrl>
<Point>
<coordinates>7.038560,46.337000</coordinates>
</Point>
</Placemark>
<Placemark id="pm8465">
<name><![CDATA[Gryon]]></name>
<description><![CDATA[67 connections
]]></description>
<styleUrl>../style/style.kml#station_icon</styleUrl>
<Point>
<coordinates>7.059710,46.273600</coordinates>
</Point>
</Placemark>
<Placemark id="pm414">
<name><![CDATA[Le Sépey, gare/poste]]></name>
<description><![CDATA[67 connections
]]></description>
<styleUrl>../style/style.kml#station_icon</styleUrl>
<Point>
<coordinates>7.053380,46.361200</coordinates>
</Point>
</Placemark>
<Placemark id="pm5405">
<name><![CDATA[Fontannaz-Seulaz]]></name>
<description><![CDATA[64 connections
]]></description>
<styleUrl>../style/style.kml#station_icon</styleUrl>
<Point>
<coordinates>7.055850,46.267600</coordinates>
</Point>
</Placemark>
<Placemark id="pm7101">
<name><![CDATA[Les Posses]]></name>
<description><![CDATA[64 connections
]]></description>
<styleUrl>../style/style.kml#station_icon</styleUrl>
<Point>
<coordinates>7.050890,46.271100</coordinates>
</Point>
</Placemark>
</Document>
</kml>
