<?xml version="1.0" encoding="UTF-8"?>
<!-- KML Regionator 303:340M -->
<kml xmlns="http://earth.google.com/kml/2.1">
<Document>
<name>1032 030002</name>
<Region>
<Lod>
<minLodPixels>256</minLodPixels>
<maxLodPixels>-1</maxLodPixels>
</Lod>
<LatLonAltBox>
<north>47.63671875</north>
<south>47.4609375</south>
<east>8.61328125</east>
<west>8.4375</west>
</LatLonAltBox>
</Region>
<NetworkLink>
<name>0300020</name>
<Region>
<Lod>
<minLodPixels>256</minLodPixels>
<maxLodPixels>-1</maxLodPixels>
</Lod>
<LatLonAltBox>
<north>47.63671875</north>
<south>47.548828125</south>
<east>8.525390625</east>
<west>8.4375</west>
</LatLonAltBox>
</Region>
<Link>
<href>1033.kml</href>
<viewRefreshMode>onRegion</viewRefreshMode>
<viewFormat/>
</Link>
</NetworkLink>
<NetworkLink>
<name>0300021</name>
<Region>
<Lod>
<minLodPixels>256</minLodPixels>
<maxLodPixels>-1</maxLodPixels>
</Lod>
<LatLonAltBox>
<north>47.63671875</north>
<south>47.548828125</south>
<east>8.61328125</east>
<west>8.525390625</west>
</LatLonAltBox>
</Region>
<Link>
<href>1037.kml</href>
<viewRefreshMode>onRegion</viewRefreshMode>
<viewFormat/>
</Link>
</NetworkLink>
<NetworkLink>
<name>0300022</name>
<Region>
<Lod>
<minLodPixels>256</minLodPixels>
<maxLodPixels>-1</maxLodPixels>
</Lod>
<LatLonAltBox>
<north>47.548828125</north>
<south>47.4609375</south>
<east>8.525390625</east>
<west>8.4375</west>
</LatLonAltBox>
</Region>
<Link>
<href>1041.kml</href>
<viewRefreshMode>onRegion</viewRefreshMode>
<viewFormat/>
</Link>
</NetworkLink>
<NetworkLink>
<name>0300023</name>
<Region>
<Lod>
<minLodPixels>256</minLodPixels>
<maxLodPixels>-1</maxLodPixels>
</Lod>
<LatLonAltBox>
<north>47.548828125</north>
<south>47.4609375</south>
<east>8.61328125</east>
<west>8.525390625</west>
</LatLonAltBox>
</Region>
<Link>
<href>1046.kml</href>
<viewRefreshMode>onRegion</viewRefreshMode>
<viewFormat/>
</Link>
</NetworkLink>
<Placemark id="pm14841">
<name><![CDATA[Oberembrach, Bächli]]></name>
<description><![CDATA[320 connections
]]></description>
<styleUrl>../style/style.kml#station_icon</styleUrl>
<Point>
<coordinates>8.606140,47.493800</coordinates>
</Point>
</Placemark>
<Placemark id="pm7098">
<name><![CDATA[Eglisau]]></name>
<description><![CDATA[314 connections
]]></description>
<styleUrl>../style/style.kml#station_icon</styleUrl>
<Point>
<coordinates>8.516530,47.572400</coordinates>
</Point>
</Placemark>
<Placemark id="pm14914">
<name><![CDATA[Embrach, Post]]></name>
<description><![CDATA[302 connections
]]></description>
<styleUrl>../style/style.kml#station_icon</styleUrl>
<Point>
<coordinates>8.593610,47.505800</coordinates>
</Point>
</Placemark>
<Placemark id="pm5460">
<name><![CDATA[Embrach, Altersheim]]></name>
<description><![CDATA[302 connections
]]></description>
<styleUrl>../style/style.kml#station_icon</styleUrl>
<Point>
<coordinates>8.591360,47.512500</coordinates>
</Point>
</Placemark>
<Placemark id="pm8408">
<name><![CDATA[Embrach, Illingerweg]]></name>
<description><![CDATA[302 connections
]]></description>
<styleUrl>../style/style.kml#station_icon</styleUrl>
<Point>
<coordinates>8.589600,47.515800</coordinates>
</Point>
</Placemark>
<Placemark id="pm10238">
<name><![CDATA[Flaach, Unterdorf]]></name>
<description><![CDATA[286 connections
]]></description>
<styleUrl>../style/style.kml#station_icon</styleUrl>
<Point>
<coordinates>8.603180,47.574600</coordinates>
</Point>
</Placemark>
<Placemark id="pm10312">
<name><![CDATA[Lufingen, Unterdorf]]></name>
<description><![CDATA[286 connections
]]></description>
<styleUrl>../style/style.kml#station_icon</styleUrl>
<Point>
<coordinates>8.596530,47.490600</coordinates>
</Point>
</Placemark>
<Placemark id="pm14121">
<name><![CDATA[Lufingen, Post]]></name>
<description><![CDATA[286 connections
]]></description>
<styleUrl>../style/style.kml#station_icon</styleUrl>
<Point>
<coordinates>8.593650,47.488700</coordinates>
</Point>
</Placemark>
<Placemark id="pm3573">
<name><![CDATA[Lufingen, Augwil]]></name>
<description><![CDATA[286 connections
]]></description>
<styleUrl>../style/style.kml#station_icon</styleUrl>
<Point>
<coordinates>8.592050,47.476900</coordinates>
</Point>
</Placemark>
<Placemark id="pm1267">
<name><![CDATA[Lufingen, Hintermarchlen]]></name>
<description><![CDATA[286 connections
]]></description>
<styleUrl>../style/style.kml#station_icon</styleUrl>
<Point>
<coordinates>8.589780,47.481800</coordinates>
</Point>
</Placemark>
<Placemark id="pm3872">
<name><![CDATA[Kloten, Freienberg]]></name>
<description><![CDATA[286 connections
]]></description>
<styleUrl>../style/style.kml#station_icon</styleUrl>
<Point>
<coordinates>8.583270,47.463100</coordinates>
</Point>
</Placemark>
<Placemark id="pm4648">
<name><![CDATA[Flaach, Post]]></name>
<description><![CDATA[273 connections
]]></description>
<styleUrl>../style/style.kml#station_icon</styleUrl>
<Point>
<coordinates>8.609330,47.575400</coordinates>
</Point>
</Placemark>
<Placemark id="pm13829">
<name><![CDATA[Embrach-Rorbas, Bahnhof]]></name>
<description><![CDATA[267 connections
]]></description>
<styleUrl>../style/style.kml#station_icon</styleUrl>
<Point>
<coordinates>8.587030,47.520700</coordinates>
</Point>
</Placemark>
<Placemark id="pm9786">
<name><![CDATA[Embrach, Embraport]]></name>
<description><![CDATA[264 connections
]]></description>
<styleUrl>../style/style.kml#station_icon</styleUrl>
<Point>
<coordinates>8.593920,47.518200</coordinates>
</Point>
</Placemark>
<Placemark id="pm5360">
<name><![CDATA[Embrach, Psych.-Zentrum Hard]]></name>
<description><![CDATA[264 connections
]]></description>
<styleUrl>../style/style.kml#station_icon</styleUrl>
<Point>
<coordinates>8.585560,47.522700</coordinates>
</Point>
</Placemark>
<Placemark id="pm7768">
<name><![CDATA[Rorbas, Aubrücke]]></name>
<description><![CDATA[264 connections
]]></description>
<styleUrl>../style/style.kml#station_icon</styleUrl>
<Point>
<coordinates>8.578890,47.525500</coordinates>
</Point>
</Placemark>
</Document>
</kml>
