<?xml version="1.0" encoding="UTF-8"?>
<!-- KML Regionator 303:340M -->
<kml xmlns="http://earth.google.com/kml/2.1">
<Document>
<name>1047 03000230</name>
<Region>
<Lod>
<minLodPixels>256</minLodPixels>
<maxLodPixels>-1</maxLodPixels>
</Lod>
<LatLonAltBox>
<north>47.548828125</north>
<south>47.5048828125</south>
<east>8.5693359375</east>
<west>8.525390625</west>
</LatLonAltBox>
</Region>
<NetworkLink>
<name>030002302</name>
<Region>
<Lod>
<minLodPixels>256</minLodPixels>
<maxLodPixels>-1</maxLodPixels>
</Lod>
<LatLonAltBox>
<north>47.52685546875</north>
<south>47.5048828125</south>
<east>8.54736328125</east>
<west>8.525390625</west>
</LatLonAltBox>
</Region>
<Link>
<href>1048.kml</href>
<viewRefreshMode>onRegion</viewRefreshMode>
<viewFormat/>
</Link>
</NetworkLink>
<NetworkLink>
<name>030002303</name>
<Region>
<Lod>
<minLodPixels>256</minLodPixels>
<maxLodPixels>-1</maxLodPixels>
</Lod>
<LatLonAltBox>
<north>47.52685546875</north>
<south>47.5048828125</south>
<east>8.5693359375</east>
<west>8.54736328125</west>
</LatLonAltBox>
</Region>
<Link>
<href>1049.kml</href>
<viewRefreshMode>onRegion</viewRefreshMode>
<viewFormat/>
</Link>
</NetworkLink>
<Placemark id="pm6163">
<name><![CDATA[Teufen ZH, Schulhaus]]></name>
<description><![CDATA[128 connections
]]></description>
<styleUrl>../style/style.kml#station_icon</styleUrl>
<Point>
<coordinates>8.568090,47.546900</coordinates>
</Point>
</Placemark>
<Placemark id="pm12250">
<name><![CDATA[Bülach, Spital]]></name>
<description><![CDATA[126 connections
]]></description>
<styleUrl>../style/style.kml#station_icon</styleUrl>
<Point>
<coordinates>8.533770,47.520800</coordinates>
</Point>
</Placemark>
<Placemark id="pm5833">
<name><![CDATA[Bülach, Hinterbirch]]></name>
<description><![CDATA[126 connections
]]></description>
<styleUrl>../style/style.kml#station_icon</styleUrl>
<Point>
<coordinates>8.528870,47.522100</coordinates>
</Point>
</Placemark>
<Placemark id="pm10184">
<name><![CDATA[Bülach, Stadthalle]]></name>
<description><![CDATA[122 connections
]]></description>
<styleUrl>../style/style.kml#station_icon</styleUrl>
<Point>
<coordinates>8.537100,47.515400</coordinates>
</Point>
</Placemark>
<Placemark id="pm7274">
<name><![CDATA[Bülach, Tiefengasse]]></name>
<description><![CDATA[122 connections
]]></description>
<styleUrl>../style/style.kml#station_icon</styleUrl>
<Point>
<coordinates>8.533250,47.514700</coordinates>
</Point>
</Placemark>
<Placemark id="pm6094">
<name><![CDATA[Bülach, Erachfeld]]></name>
<description><![CDATA[121 connections
]]></description>
<styleUrl>../style/style.kml#station_icon</styleUrl>
<Point>
<coordinates>8.534290,47.513300</coordinates>
</Point>
</Placemark>
<Placemark id="pm8979">
<name><![CDATA[Bülach, Feld-/Grenzstrasse]]></name>
<description><![CDATA[120 connections
]]></description>
<styleUrl>../style/style.kml#station_icon</styleUrl>
<Point>
<coordinates>8.541380,47.507600</coordinates>
</Point>
</Placemark>
<Placemark id="pm3375">
<name><![CDATA[Bülach, Engelwis]]></name>
<description><![CDATA[120 connections
]]></description>
<styleUrl>../style/style.kml#station_icon</styleUrl>
<Point>
<coordinates>8.536440,47.511600</coordinates>
</Point>
</Placemark>
<Placemark id="pm8837">
<name><![CDATA[Bülach, Grampenweg]]></name>
<description><![CDATA[108 connections
]]></description>
<styleUrl>../style/style.kml#station_icon</styleUrl>
<Point>
<coordinates>8.539240,47.516800</coordinates>
</Point>
</Placemark>
<Placemark id="pm10001">
<name><![CDATA[Bülach, Kreuzstrasse]]></name>
<description><![CDATA[106 connections
]]></description>
<styleUrl>../style/style.kml#station_icon</styleUrl>
<Point>
<coordinates>8.540900,47.519300</coordinates>
</Point>
</Placemark>
<Placemark id="pm2974">
<name><![CDATA[Bülach, Untere Frohalde]]></name>
<description><![CDATA[86 connections
]]></description>
<styleUrl>../style/style.kml#station_icon</styleUrl>
<Point>
<coordinates>8.551120,47.524600</coordinates>
</Point>
</Placemark>
<Placemark id="pm6836">
<name><![CDATA[Bülach, Obere Frohalde]]></name>
<description><![CDATA[86 connections
]]></description>
<styleUrl>../style/style.kml#station_icon</styleUrl>
<Point>
<coordinates>8.549410,47.526500</coordinates>
</Point>
</Placemark>
<Placemark id="pm4815">
<name><![CDATA[Bülach, Berglistrasse]]></name>
<description><![CDATA[86 connections
]]></description>
<styleUrl>../style/style.kml#station_icon</styleUrl>
<Point>
<coordinates>8.545740,47.524100</coordinates>
</Point>
</Placemark>
<Placemark id="pm7637">
<name><![CDATA[Bülach, Hohfuri]]></name>
<description><![CDATA[86 connections
]]></description>
<styleUrl>../style/style.kml#station_icon</styleUrl>
<Point>
<coordinates>8.544380,47.526400</coordinates>
</Point>
</Placemark>
<Placemark id="pm12425">
<name><![CDATA[Bülach, Schuemacher]]></name>
<description><![CDATA[86 connections
]]></description>
<styleUrl>../style/style.kml#station_icon</styleUrl>
<Point>
<coordinates>8.544330,47.529100</coordinates>
</Point>
</Placemark>
<Placemark id="pm1074">
<name><![CDATA[Bülach, Soligänter]]></name>
<description><![CDATA[86 connections
]]></description>
<styleUrl>../style/style.kml#station_icon</styleUrl>
<Point>
<coordinates>8.542030,47.528500</coordinates>
</Point>
</Placemark>
</Document>
</kml>
