<?xml version="1.0" encoding="UTF-8"?>
<!-- KML Regionator 303:340M -->
<kml xmlns="http://earth.google.com/kml/2.1">
<Document>
<name>1048 030002302</name>
<Region>
<Lod>
<minLodPixels>256</minLodPixels>
<maxLodPixels>-1</maxLodPixels>
</Lod>
<LatLonAltBox>
<north>47.52685546875</north>
<south>47.5048828125</south>
<east>8.54736328125</east>
<west>8.525390625</west>
</LatLonAltBox>
</Region>
<Placemark id="pm10960">
<name><![CDATA[Bülach, Soliboden]]></name>
<description><![CDATA[70 connections
]]></description>
<styleUrl>../style/style.kml#station_icon</styleUrl>
<Point>
<coordinates>8.539030,47.526600</coordinates>
</Point>
</Placemark>
<Placemark id="pm5477">
<name><![CDATA[Bülach, Bahnhof Ost]]></name>
<description><![CDATA[67 connections
]]></description>
<styleUrl>../style/style.kml#station_icon</styleUrl>
<Point>
<coordinates>8.537780,47.524200</coordinates>
</Point>
</Placemark>
<Placemark id="pm9068">
<name><![CDATA[Bülach, Einkaufszentrum Süd]]></name>
<description><![CDATA[60 connections
]]></description>
<styleUrl>../style/style.kml#station_icon</styleUrl>
<Point>
<coordinates>8.538000,47.510400</coordinates>
</Point>
</Placemark>
<Placemark id="pm12114">
<name><![CDATA[Bülach, Kantonsschule]]></name>
<description><![CDATA[52 connections
]]></description>
<styleUrl>../style/style.kml#station_icon</styleUrl>
<Point>
<coordinates>8.547220,47.517100</coordinates>
</Point>
</Placemark>
<Placemark id="pm4566">
<name><![CDATA[Bülach, Schwerzgrueb]]></name>
<description><![CDATA[52 connections
]]></description>
<styleUrl>../style/style.kml#station_icon</styleUrl>
<Point>
<coordinates>8.544060,47.515000</coordinates>
</Point>
</Placemark>
<Placemark id="pm10498">
<name><![CDATA[Bülach, Landi]]></name>
<description><![CDATA[48 connections
]]></description>
<styleUrl>../style/style.kml#station_icon</styleUrl>
<Point>
<coordinates>8.546490,47.520100</coordinates>
</Point>
</Placemark>
<Placemark id="pm8215">
<name><![CDATA[Bülach, Güterbahnhof]]></name>
<description><![CDATA[16 connections
]]></description>
<styleUrl>../style/style.kml#station_icon</styleUrl>
<Point>
<coordinates>8.537580,47.523800</coordinates>
</Point>
</Placemark>
</Document>
</kml>
