<?xml version="1.0" encoding="UTF-8"?>
<!-- KML Regionator 303:340M -->
<kml xmlns="http://earth.google.com/kml/2.1">
<Document>
<name>1133 03002032</name>
<Region>
<Lod>
<minLodPixels>256</minLodPixels>
<maxLodPixels>-1</maxLodPixels>
</Lod>
<LatLonAltBox>
<north>47.3291015625</north>
<south>47.28515625</south>
<east>8.5693359375</east>
<west>8.525390625</west>
</LatLonAltBox>
</Region>
<Placemark id="pm4106">
<name><![CDATA[Langnau-Gattikon]]></name>
<description><![CDATA[206 connections
]]></description>
<styleUrl>../style/style.kml#station_icon</styleUrl>
<Point>
<coordinates>8.544020,47.286900</coordinates>
</Point>
</Placemark>
<Placemark id="pm14844">
<name><![CDATA[Thalwil ZSG]]></name>
<description><![CDATA[144 connections
]]></description>
<styleUrl>../style/style.kml#station_icon</styleUrl>
<Point>
<coordinates>8.568050,47.296700</coordinates>
</Point>
</Placemark>
<Placemark id="pm6978">
<name><![CDATA[Langnau-Gattikon, Bahnhof]]></name>
<description><![CDATA[72 connections
]]></description>
<styleUrl>../style/style.kml#station_icon</styleUrl>
<Point>
<coordinates>8.544000,47.287300</coordinates>
</Point>
</Placemark>
<Placemark id="pm11368">
<name><![CDATA[Thalwil, Mühlebachplatz]]></name>
<description><![CDATA[60 connections
]]></description>
<styleUrl>../style/style.kml#station_icon</styleUrl>
<Point>
<coordinates>8.564880,47.291300</coordinates>
</Point>
</Placemark>
<Placemark id="pm9150">
<name><![CDATA[Thalwil, Feldstrasse]]></name>
<description><![CDATA[60 connections
]]></description>
<styleUrl>../style/style.kml#station_icon</styleUrl>
<Point>
<coordinates>8.558530,47.291300</coordinates>
</Point>
</Placemark>
<Placemark id="pm3074">
<name><![CDATA[Thalwil, Ebnet]]></name>
<description><![CDATA[60 connections
]]></description>
<styleUrl>../style/style.kml#station_icon</styleUrl>
<Point>
<coordinates>8.557190,47.288400</coordinates>
</Point>
</Placemark>
<Placemark id="pm3504">
<name><![CDATA[Thalwil, Gattikerhöhe]]></name>
<description><![CDATA[60 connections
]]></description>
<styleUrl>../style/style.kml#station_icon</styleUrl>
<Point>
<coordinates>8.555110,47.285700</coordinates>
</Point>
</Placemark>
<Placemark id="pm12267">
<name><![CDATA[Langnau am Albis, Dorf]]></name>
<description><![CDATA[60 connections
]]></description>
<styleUrl>../style/style.kml#station_icon</styleUrl>
<Point>
<coordinates>8.540880,47.288600</coordinates>
</Point>
</Placemark>
<Placemark id="pm8239">
<name><![CDATA[Langnau a.A.,Schwerzi-Wildpark]]></name>
<description><![CDATA[60 connections
]]></description>
<styleUrl>../style/style.kml#station_icon</styleUrl>
<Point>
<coordinates>8.533130,47.287800</coordinates>
</Point>
</Placemark>
<Placemark id="pm5685">
<name><![CDATA[Unteralbis]]></name>
<description><![CDATA[60 connections
]]></description>
<styleUrl>../style/style.kml#station_icon</styleUrl>
<Point>
<coordinates>8.527890,47.285800</coordinates>
</Point>
</Placemark>
<Placemark id="pm6438">
<name><![CDATA[Rüschlikon ZSG]]></name>
<description><![CDATA[56 connections
]]></description>
<styleUrl>../style/style.kml#station_icon</styleUrl>
<Point>
<coordinates>8.558380,47.309800</coordinates>
</Point>
</Placemark>
<Placemark id="pm7449">
<name><![CDATA[Kilchberg Bendlikon]]></name>
<description><![CDATA[55 connections
]]></description>
<styleUrl>../style/style.kml#station_icon</styleUrl>
<Point>
<coordinates>8.551780,47.322600</coordinates>
</Point>
</Placemark>
<Placemark id="pm1770">
<name><![CDATA[Thalwil, Bahnhof]]></name>
<description><![CDATA[30 connections
]]></description>
<styleUrl>../style/style.kml#station_icon</styleUrl>
<Point>
<coordinates>8.564350,47.296000</coordinates>
</Point>
</Placemark>
<Placemark id="pm11050">
<name><![CDATA[Thalwil, Zentrum]]></name>
<description><![CDATA[28 connections
]]></description>
<styleUrl>../style/style.kml#station_icon</styleUrl>
<Point>
<coordinates>8.564470,47.294900</coordinates>
</Point>
</Placemark>
</Document>
</kml>
