<?xml version="1.0" encoding="UTF-8"?>
<!-- KML Regionator 303:340M -->
<kml xmlns="http://earth.google.com/kml/2.1">
<Document>
<name>1134 03002033</name>
<Region>
<Lod>
<minLodPixels>256</minLodPixels>
<maxLodPixels>-1</maxLodPixels>
</Lod>
<LatLonAltBox>
<north>47.3291015625</north>
<south>47.28515625</south>
<east>8.61328125</east>
<west>8.5693359375</west>
</LatLonAltBox>
</Region>
<NetworkLink>
<name>030020331</name>
<Region>
<Lod>
<minLodPixels>256</minLodPixels>
<maxLodPixels>-1</maxLodPixels>
</Lod>
<LatLonAltBox>
<north>47.3291015625</north>
<south>47.30712890625</south>
<east>8.61328125</east>
<west>8.59130859375</west>
</LatLonAltBox>
</Region>
<Link>
<href>1135.kml</href>
<viewRefreshMode>onRegion</viewRefreshMode>
<viewFormat/>
</Link>
</NetworkLink>
<NetworkLink>
<name>030020332</name>
<Region>
<Lod>
<minLodPixels>256</minLodPixels>
<maxLodPixels>-1</maxLodPixels>
</Lod>
<LatLonAltBox>
<north>47.30712890625</north>
<south>47.28515625</south>
<east>8.59130859375</east>
<west>8.5693359375</west>
</LatLonAltBox>
</Region>
<Link>
<href>1136.kml</href>
<viewRefreshMode>onRegion</viewRefreshMode>
<viewFormat/>
</Link>
</NetworkLink>
<NetworkLink>
<name>030020333</name>
<Region>
<Lod>
<minLodPixels>256</minLodPixels>
<maxLodPixels>-1</maxLodPixels>
</Lod>
<LatLonAltBox>
<north>47.30712890625</north>
<south>47.28515625</south>
<east>8.61328125</east>
<west>8.59130859375</west>
</LatLonAltBox>
</Region>
<Link>
<href>1137.kml</href>
<viewRefreshMode>onRegion</viewRefreshMode>
<viewFormat/>
</Link>
</NetworkLink>
<Placemark id="pm1575">
<name><![CDATA[Erlenbach ZSG]]></name>
<description><![CDATA[146 connections
]]></description>
<styleUrl>../style/style.kml#station_icon</styleUrl>
<Point>
<coordinates>8.589300,47.303000</coordinates>
</Point>
</Placemark>
<Placemark id="pm2165">
<name><![CDATA[Küsnacht ZSG]]></name>
<description><![CDATA[113 connections
]]></description>
<styleUrl>../style/style.kml#station_icon</styleUrl>
<Point>
<coordinates>8.578420,47.319000</coordinates>
</Point>
</Placemark>
<Placemark id="pm2025">
<name><![CDATA[Küsnacht Heslibach]]></name>
<description><![CDATA[104 connections
]]></description>
<styleUrl>../style/style.kml#station_icon</styleUrl>
<Point>
<coordinates>8.572790,47.328200</coordinates>
</Point>
</Placemark>
<Placemark id="pm11294">
<name><![CDATA[Herrliberg, Schulhaus]]></name>
<description><![CDATA[92 connections
]]></description>
<styleUrl>../style/style.kml#station_icon</styleUrl>
<Point>
<coordinates>8.613190,47.288600</coordinates>
</Point>
</Placemark>
<Placemark id="pm306">
<name><![CDATA[Herrliberg, Vogtei]]></name>
<description><![CDATA[92 connections
]]></description>
<styleUrl>../style/style.kml#station_icon</styleUrl>
<Point>
<coordinates>8.609720,47.289700</coordinates>
</Point>
</Placemark>
<Placemark id="pm12336">
<name><![CDATA[Herrliberg, Pfarrgasse]]></name>
<description><![CDATA[92 connections
]]></description>
<styleUrl>../style/style.kml#station_icon</styleUrl>
<Point>
<coordinates>8.608910,47.287100</coordinates>
</Point>
</Placemark>
<Placemark id="pm10304">
<name><![CDATA[Herrliberg, Felsenau]]></name>
<description><![CDATA[92 connections
]]></description>
<styleUrl>../style/style.kml#station_icon</styleUrl>
<Point>
<coordinates>8.607600,47.288800</coordinates>
</Point>
</Placemark>
<Placemark id="pm13103">
<name><![CDATA[Erlenbach ZH, Pflugstein]]></name>
<description><![CDATA[88 connections
]]></description>
<styleUrl>../style/style.kml#station_icon</styleUrl>
<Point>
<coordinates>8.608670,47.296900</coordinates>
</Point>
</Placemark>
<Placemark id="pm10035">
<name><![CDATA[Herrliberg, Holzwies]]></name>
<description><![CDATA[88 connections
]]></description>
<styleUrl>../style/style.kml#station_icon</styleUrl>
<Point>
<coordinates>8.608330,47.293700</coordinates>
</Point>
</Placemark>
<Placemark id="pm11943">
<name><![CDATA[Erlenbach ZH, Im Streuli]]></name>
<description><![CDATA[88 connections
]]></description>
<styleUrl>../style/style.kml#station_icon</styleUrl>
<Point>
<coordinates>8.606400,47.297100</coordinates>
</Point>
</Placemark>
<Placemark id="pm197">
<name><![CDATA[Erlenbach ZH, Bindschädler]]></name>
<description><![CDATA[88 connections
]]></description>
<styleUrl>../style/style.kml#station_icon</styleUrl>
<Point>
<coordinates>8.603940,47.295600</coordinates>
</Point>
</Placemark>
<Placemark id="pm11076">
<name><![CDATA[Erlenbach ZH, Rebstrasse]]></name>
<description><![CDATA[88 connections
]]></description>
<styleUrl>../style/style.kml#station_icon</styleUrl>
<Point>
<coordinates>8.601770,47.299800</coordinates>
</Point>
</Placemark>
<Placemark id="pm3415">
<name><![CDATA[Erlenbach ZH, Schulhaus]]></name>
<description><![CDATA[88 connections
]]></description>
<styleUrl>../style/style.kml#station_icon</styleUrl>
<Point>
<coordinates>8.597900,47.302400</coordinates>
</Point>
</Placemark>
<Placemark id="pm10665">
<name><![CDATA[Erlenbach ZH,Kirchgemeindehaus]]></name>
<description><![CDATA[88 connections
]]></description>
<styleUrl>../style/style.kml#station_icon</styleUrl>
<Point>
<coordinates>8.593320,47.302800</coordinates>
</Point>
</Placemark>
<Placemark id="pm6192">
<name><![CDATA[Erlenbach ZH, Bahnhof]]></name>
<description><![CDATA[86 connections
]]></description>
<styleUrl>../style/style.kml#station_icon</styleUrl>
<Point>
<coordinates>8.591340,47.305700</coordinates>
</Point>
</Placemark>
<Placemark id="pm10937">
<name><![CDATA[Erlenbach ZH, Bahnhofstrasse]]></name>
<description><![CDATA[86 connections
]]></description>
<styleUrl>../style/style.kml#station_icon</styleUrl>
<Point>
<coordinates>8.591340,47.303800</coordinates>
</Point>
</Placemark>
</Document>
</kml>
