<?xml version="1.0" encoding="UTF-8"?>
<!-- KML Regionator 303:340M -->
<kml xmlns="http://earth.google.com/kml/2.1">
<Document>
<name>1141 03002101</name>
<Region>
<Lod>
<minLodPixels>256</minLodPixels>
<maxLodPixels>-1</maxLodPixels>
</Lod>
<LatLonAltBox>
<north>47.4609375</north>
<south>47.4169921875</south>
<east>8.701171875</east>
<west>8.6572265625</west>
</LatLonAltBox>
</Region>
<Placemark id="pm13445">
<name><![CDATA[Effretikon, Vogelbuckstrasse]]></name>
<description><![CDATA[100 connections
]]></description>
<styleUrl>../style/style.kml#station_icon</styleUrl>
<Point>
<coordinates>8.683330,47.434600</coordinates>
</Point>
</Placemark>
<Placemark id="pm12796">
<name><![CDATA[Winterberg ZH, Dorf]]></name>
<description><![CDATA[89 connections
]]></description>
<styleUrl>../style/style.kml#station_icon</styleUrl>
<Point>
<coordinates>8.693050,47.456400</coordinates>
</Point>
</Placemark>
<Placemark id="pm10879">
<name><![CDATA[Tagelswangen, Dorf]]></name>
<description><![CDATA[78 connections
]]></description>
<styleUrl>../style/style.kml#station_icon</styleUrl>
<Point>
<coordinates>8.671920,47.430400</coordinates>
</Point>
</Placemark>
<Placemark id="pm9720">
<name><![CDATA[Lindau, Dorf]]></name>
<description><![CDATA[78 connections
]]></description>
<styleUrl>../style/style.kml#station_icon</styleUrl>
<Point>
<coordinates>8.671490,47.441500</coordinates>
</Point>
</Placemark>
<Placemark id="pm4804">
<name><![CDATA[Effretikon, Langhag]]></name>
<description><![CDATA[14 connections
]]></description>
<styleUrl>../style/style.kml#station_icon</styleUrl>
<Point>
<coordinates>8.686280,47.437200</coordinates>
</Point>
</Placemark>
</Document>
</kml>
