<?xml version="1.0" encoding="UTF-8"?>
<!-- KML Regionator 303:340M -->
<kml xmlns="http://earth.google.com/kml/2.1">
<Document>
<name>1154 03002130</name>
<Region>
<Lod>
<minLodPixels>256</minLodPixels>
<maxLodPixels>-1</maxLodPixels>
</Lod>
<LatLonAltBox>
<north>47.373046875</north>
<south>47.3291015625</south>
<east>8.7451171875</east>
<west>8.701171875</west>
</LatLonAltBox>
</Region>
<NetworkLink>
<name>030021300</name>
<Region>
<Lod>
<minLodPixels>256</minLodPixels>
<maxLodPixels>-1</maxLodPixels>
</Lod>
<LatLonAltBox>
<north>47.373046875</north>
<south>47.35107421875</south>
<east>8.72314453125</east>
<west>8.701171875</west>
</LatLonAltBox>
</Region>
<Link>
<href>1155.kml</href>
<viewRefreshMode>onRegion</viewRefreshMode>
<viewFormat/>
</Link>
</NetworkLink>
<NetworkLink>
<name>030021301</name>
<Region>
<Lod>
<minLodPixels>256</minLodPixels>
<maxLodPixels>-1</maxLodPixels>
</Lod>
<LatLonAltBox>
<north>47.373046875</north>
<south>47.35107421875</south>
<east>8.7451171875</east>
<west>8.72314453125</west>
</LatLonAltBox>
</Region>
<Link>
<href>1156.kml</href>
<viewRefreshMode>onRegion</viewRefreshMode>
<viewFormat/>
</Link>
</NetworkLink>
<NetworkLink>
<name>030021302</name>
<Region>
<Lod>
<minLodPixels>256</minLodPixels>
<maxLodPixels>-1</maxLodPixels>
</Lod>
<LatLonAltBox>
<north>47.35107421875</north>
<south>47.3291015625</south>
<east>8.72314453125</east>
<west>8.701171875</west>
</LatLonAltBox>
</Region>
<Link>
<href>1157.kml</href>
<viewRefreshMode>onRegion</viewRefreshMode>
<viewFormat/>
</Link>
</NetworkLink>
<NetworkLink>
<name>030021303</name>
<Region>
<Lod>
<minLodPixels>256</minLodPixels>
<maxLodPixels>-1</maxLodPixels>
</Lod>
<LatLonAltBox>
<north>47.35107421875</north>
<south>47.3291015625</south>
<east>8.7451171875</east>
<west>8.72314453125</west>
</LatLonAltBox>
</Region>
<Link>
<href>1158.kml</href>
<viewRefreshMode>onRegion</viewRefreshMode>
<viewFormat/>
</Link>
</NetworkLink>
<Placemark id="pm1423">
<name><![CDATA[Riedikon, Dorf]]></name>
<description><![CDATA[242 connections
]]></description>
<styleUrl>../style/style.kml#station_icon</styleUrl>
<Point>
<coordinates>8.711330,47.332200</coordinates>
</Point>
</Placemark>
<Placemark id="pm990">
<name><![CDATA[Uster, Herracher]]></name>
<description><![CDATA[192 connections
]]></description>
<styleUrl>../style/style.kml#station_icon</styleUrl>
<Point>
<coordinates>8.732760,47.339100</coordinates>
</Point>
</Placemark>
<Placemark id="pm2533">
<name><![CDATA[Uster, Nossikon]]></name>
<description><![CDATA[192 connections
]]></description>
<styleUrl>../style/style.kml#station_icon</styleUrl>
<Point>
<coordinates>8.729540,47.340100</coordinates>
</Point>
</Placemark>
<Placemark id="pm667">
<name><![CDATA[Uster, Krone]]></name>
<description><![CDATA[192 connections
]]></description>
<styleUrl>../style/style.kml#station_icon</styleUrl>
<Point>
<coordinates>8.725660,47.341100</coordinates>
</Point>
</Placemark>
<Placemark id="pm5258">
<name><![CDATA[Uster, Burgstrasse]]></name>
<description><![CDATA[192 connections
]]></description>
<styleUrl>../style/style.kml#station_icon</styleUrl>
<Point>
<coordinates>8.720050,47.343100</coordinates>
</Point>
</Placemark>
<Placemark id="pm951">
<name><![CDATA[Uster, Burgreben]]></name>
<description><![CDATA[192 connections
]]></description>
<styleUrl>../style/style.kml#station_icon</styleUrl>
<Point>
<coordinates>8.717090,47.343900</coordinates>
</Point>
</Placemark>
<Placemark id="pm14956">
<name><![CDATA[Uster, Stadtpark]]></name>
<description><![CDATA[192 connections
]]></description>
<styleUrl>../style/style.kml#station_icon</styleUrl>
<Point>
<coordinates>8.715700,47.348200</coordinates>
</Point>
</Placemark>
<Placemark id="pm15085">
<name><![CDATA[Uster, Apothekerstrasse]]></name>
<description><![CDATA[192 connections
]]></description>
<styleUrl>../style/style.kml#station_icon</styleUrl>
<Point>
<coordinates>8.715070,47.346200</coordinates>
</Point>
</Placemark>
<Placemark id="pm12802">
<name><![CDATA[Uster, Mühleholz]]></name>
<description><![CDATA[180 connections
]]></description>
<styleUrl>../style/style.kml#station_icon</styleUrl>
<Point>
<coordinates>8.730810,47.360800</coordinates>
</Point>
</Placemark>
<Placemark id="pm759">
<name><![CDATA[Uster, Sportzentrum]]></name>
<description><![CDATA[180 connections
]]></description>
<styleUrl>../style/style.kml#station_icon</styleUrl>
<Point>
<coordinates>8.726770,47.356300</coordinates>
</Point>
</Placemark>
<Placemark id="pm11836">
<name><![CDATA[Uster, Spital]]></name>
<description><![CDATA[180 connections
]]></description>
<styleUrl>../style/style.kml#station_icon</styleUrl>
<Point>
<coordinates>8.723500,47.353900</coordinates>
</Point>
</Placemark>
<Placemark id="pm12130">
<name><![CDATA[Uster, Zentralstrasse]]></name>
<description><![CDATA[170 connections
]]></description>
<styleUrl>../style/style.kml#station_icon</styleUrl>
<Point>
<coordinates>8.717920,47.347300</coordinates>
</Point>
</Placemark>
<Placemark id="pm478">
<name><![CDATA[Uster, Talacker]]></name>
<description><![CDATA[170 connections
]]></description>
<styleUrl>../style/style.kml#station_icon</styleUrl>
<Point>
<coordinates>8.716080,47.343300</coordinates>
</Point>
</Placemark>
<Placemark id="pm12128">
<name><![CDATA[Uster, im Hölzli]]></name>
<description><![CDATA[170 connections
]]></description>
<styleUrl>../style/style.kml#station_icon</styleUrl>
<Point>
<coordinates>8.714360,47.339500</coordinates>
</Point>
</Placemark>
<Placemark id="pm7988">
<name><![CDATA[Uster, Brandschenke]]></name>
<description><![CDATA[168 connections
]]></description>
<styleUrl>../style/style.kml#station_icon</styleUrl>
<Point>
<coordinates>8.710740,47.361200</coordinates>
</Point>
</Placemark>
<Placemark id="pm7844">
<name><![CDATA[Wermatswil, Ledi]]></name>
<description><![CDATA[166 connections
]]></description>
<styleUrl>../style/style.kml#station_icon</styleUrl>
<Point>
<coordinates>8.736980,47.363400</coordinates>
</Point>
</Placemark>
</Document>
</kml>
