<?xml version="1.0" encoding="UTF-8"?>
<!-- KML Regionator 303:340M -->
<kml xmlns="http://earth.google.com/kml/2.1">
<Document>
<name>1183 0300230</name>
<Region>
<Lod>
<minLodPixels>256</minLodPixels>
<maxLodPixels>-1</maxLodPixels>
</Lod>
<LatLonAltBox>
<north>47.28515625</north>
<south>47.197265625</south>
<east>8.701171875</east>
<west>8.61328125</west>
</LatLonAltBox>
</Region>
<NetworkLink>
<name>03002300</name>
<Region>
<Lod>
<minLodPixels>256</minLodPixels>
<maxLodPixels>-1</maxLodPixels>
</Lod>
<LatLonAltBox>
<north>47.28515625</north>
<south>47.2412109375</south>
<east>8.6572265625</east>
<west>8.61328125</west>
</LatLonAltBox>
</Region>
<Link>
<href>1184.kml</href>
<viewRefreshMode>onRegion</viewRefreshMode>
<viewFormat/>
</Link>
</NetworkLink>
<NetworkLink>
<name>03002301</name>
<Region>
<Lod>
<minLodPixels>256</minLodPixels>
<maxLodPixels>-1</maxLodPixels>
</Lod>
<LatLonAltBox>
<north>47.28515625</north>
<south>47.2412109375</south>
<east>8.701171875</east>
<west>8.6572265625</west>
</LatLonAltBox>
</Region>
<Link>
<href>1185.kml</href>
<viewRefreshMode>onRegion</viewRefreshMode>
<viewFormat/>
</Link>
</NetworkLink>
<NetworkLink>
<name>03002302</name>
<Region>
<Lod>
<minLodPixels>256</minLodPixels>
<maxLodPixels>-1</maxLodPixels>
</Lod>
<LatLonAltBox>
<north>47.2412109375</north>
<south>47.197265625</south>
<east>8.6572265625</east>
<west>8.61328125</west>
</LatLonAltBox>
</Region>
<Link>
<href>1190.kml</href>
<viewRefreshMode>onRegion</viewRefreshMode>
<viewFormat/>
</Link>
</NetworkLink>
<NetworkLink>
<name>03002303</name>
<Region>
<Lod>
<minLodPixels>256</minLodPixels>
<maxLodPixels>-1</maxLodPixels>
</Lod>
<LatLonAltBox>
<north>47.2412109375</north>
<south>47.197265625</south>
<east>8.701171875</east>
<west>8.6572265625</west>
</LatLonAltBox>
</Region>
<Link>
<href>1191.kml</href>
<viewRefreshMode>onRegion</viewRefreshMode>
<viewFormat/>
</Link>
</NetworkLink>
<Placemark id="pm15048">
<name><![CDATA[Meilen]]></name>
<description><![CDATA[293 connections
]]></description>
<styleUrl>../style/style.kml#station_icon</styleUrl>
<Point>
<coordinates>8.644290,47.269800</coordinates>
</Point>
</Placemark>
<Placemark id="pm12773">
<name><![CDATA[Wädenswil, Feld]]></name>
<description><![CDATA[288 connections
]]></description>
<styleUrl>../style/style.kml#station_icon</styleUrl>
<Point>
<coordinates>8.664600,47.213600</coordinates>
</Point>
</Placemark>
<Placemark id="pm14259">
<name><![CDATA[Wädenswil, Beichlen]]></name>
<description><![CDATA[282 connections
]]></description>
<styleUrl>../style/style.kml#station_icon</styleUrl>
<Point>
<coordinates>8.663080,47.207300</coordinates>
</Point>
</Placemark>
<Placemark id="pm3465">
<name><![CDATA[Meilen, Beugen]]></name>
<description><![CDATA[268 connections
]]></description>
<styleUrl>../style/style.kml#station_icon</styleUrl>
<Point>
<coordinates>8.650710,47.267300</coordinates>
</Point>
</Placemark>
<Placemark id="pm77">
<name><![CDATA[Meilen Autoquai]]></name>
<description><![CDATA[257 connections
]]></description>
<styleUrl>../style/style.kml#station_icon</styleUrl>
<Point>
<coordinates>8.638480,47.268000</coordinates>
</Point>
</Placemark>
<Placemark id="pm3734">
<name><![CDATA[Schönenberg ZH, Tanne]]></name>
<description><![CDATA[256 connections
]]></description>
<styleUrl>../style/style.kml#station_icon</styleUrl>
<Point>
<coordinates>8.660150,47.202700</coordinates>
</Point>
</Placemark>
<Placemark id="pm5354">
<name><![CDATA[Schönenberg ZH, Mühlestalden]]></name>
<description><![CDATA[256 connections
]]></description>
<styleUrl>../style/style.kml#station_icon</styleUrl>
<Point>
<coordinates>8.655000,47.199700</coordinates>
</Point>
</Placemark>
<Placemark id="pm8520">
<name><![CDATA[Uetikon, Kleindorf]]></name>
<description><![CDATA[250 connections
]]></description>
<styleUrl>../style/style.kml#station_icon</styleUrl>
<Point>
<coordinates>8.682530,47.264300</coordinates>
</Point>
</Placemark>
<Placemark id="pm2817">
<name><![CDATA[Wädenswil, Krähbach]]></name>
<description><![CDATA[250 connections
]]></description>
<styleUrl>../style/style.kml#station_icon</styleUrl>
<Point>
<coordinates>8.664160,47.231000</coordinates>
</Point>
</Placemark>
<Placemark id="pm13426">
<name><![CDATA[Wädenswil, Hangenmoos]]></name>
<description><![CDATA[250 connections
]]></description>
<styleUrl>../style/style.kml#station_icon</styleUrl>
<Point>
<coordinates>8.653160,47.234300</coordinates>
</Point>
</Placemark>
<Placemark id="pm4287">
<name><![CDATA[Wädenswil, Winterberg]]></name>
<description><![CDATA[250 connections
]]></description>
<styleUrl>../style/style.kml#station_icon</styleUrl>
<Point>
<coordinates>8.646060,47.236900</coordinates>
</Point>
</Placemark>
<Placemark id="pm2893">
<name><![CDATA[Wädenswil, Hintere Rüti]]></name>
<description><![CDATA[250 connections
]]></description>
<styleUrl>../style/style.kml#station_icon</styleUrl>
<Point>
<coordinates>8.636180,47.235700</coordinates>
</Point>
</Placemark>
<Placemark id="pm13544">
<name><![CDATA[Wädenswil, Neubühl]]></name>
<description><![CDATA[230 connections
]]></description>
<styleUrl>../style/style.kml#station_icon</styleUrl>
<Point>
<coordinates>8.634380,47.232000</coordinates>
</Point>
</Placemark>
<Placemark id="pm6727">
<name><![CDATA[Männedorf, Kirchweg]]></name>
<description><![CDATA[224 connections
]]></description>
<styleUrl>../style/style.kml#station_icon</styleUrl>
<Point>
<coordinates>8.697780,47.253000</coordinates>
</Point>
</Placemark>
<Placemark id="pm9298">
<name><![CDATA[Männedorf, Dammstrasse]]></name>
<description><![CDATA[224 connections
]]></description>
<styleUrl>../style/style.kml#station_icon</styleUrl>
<Point>
<coordinates>8.691760,47.254800</coordinates>
</Point>
</Placemark>
<Placemark id="pm6366">
<name><![CDATA[Uetikon]]></name>
<description><![CDATA[221 connections
]]></description>
<styleUrl>../style/style.kml#station_icon</styleUrl>
<Point>
<coordinates>8.678770,47.259000</coordinates>
</Point>
</Placemark>
</Document>
</kml>
