<?xml version="1.0" encoding="UTF-8"?>
<!-- KML Regionator 303:340M -->
<kml xmlns="http://earth.google.com/kml/2.1">
<Document>
<name>1214 03002330</name>
<Region>
<Lod>
<minLodPixels>256</minLodPixels>
<maxLodPixels>-1</maxLodPixels>
</Lod>
<LatLonAltBox>
<north>47.197265625</north>
<south>47.1533203125</south>
<east>8.7451171875</east>
<west>8.701171875</west>
</LatLonAltBox>
</Region>
<NetworkLink>
<name>030023300</name>
<Region>
<Lod>
<minLodPixels>256</minLodPixels>
<maxLodPixels>-1</maxLodPixels>
</Lod>
<LatLonAltBox>
<north>47.197265625</north>
<south>47.17529296875</south>
<east>8.72314453125</east>
<west>8.701171875</west>
</LatLonAltBox>
</Region>
<Link>
<href>1215.kml</href>
<viewRefreshMode>onRegion</viewRefreshMode>
<viewFormat/>
</Link>
</NetworkLink>
<Placemark id="pm2544">
<name><![CDATA[Wollerau]]></name>
<description><![CDATA[140 connections
]]></description>
<styleUrl>../style/style.kml#station_icon</styleUrl>
<Point>
<coordinates>8.725000,47.195400</coordinates>
</Point>
</Placemark>
<Placemark id="pm13551">
<name><![CDATA[Wollerau, Sonnenberg]]></name>
<description><![CDATA[120 connections
]]></description>
<styleUrl>../style/style.kml#station_icon</styleUrl>
<Point>
<coordinates>8.718650,47.192700</coordinates>
</Point>
</Placemark>
<Placemark id="pm13020">
<name><![CDATA[Wollerau, Bahnhof]]></name>
<description><![CDATA[119 connections
]]></description>
<styleUrl>../style/style.kml#station_icon</styleUrl>
<Point>
<coordinates>8.725320,47.195800</coordinates>
</Point>
</Placemark>
<Placemark id="pm8823">
<name><![CDATA[Wollerau, Erlenmatte]]></name>
<description><![CDATA[93 connections
]]></description>
<styleUrl>../style/style.kml#station_icon</styleUrl>
<Point>
<coordinates>8.705980,47.192900</coordinates>
</Point>
</Placemark>
<Placemark id="pm9218">
<name><![CDATA[Riedmatt SZ]]></name>
<description><![CDATA[88 connections
]]></description>
<styleUrl>../style/style.kml#station_icon</styleUrl>
<Point>
<coordinates>8.712010,47.196800</coordinates>
</Point>
</Placemark>
<Placemark id="pm6282">
<name><![CDATA[Feusisberg, Feld]]></name>
<description><![CDATA[40 connections
]]></description>
<styleUrl>../style/style.kml#station_icon</styleUrl>
<Point>
<coordinates>8.742870,47.184800</coordinates>
</Point>
</Placemark>
<Placemark id="pm5044">
<name><![CDATA[Feusisberg, Hotel Panorama]]></name>
<description><![CDATA[40 connections
]]></description>
<styleUrl>../style/style.kml#station_icon</styleUrl>
<Point>
<coordinates>8.738240,47.184100</coordinates>
</Point>
</Placemark>
<Placemark id="pm2508">
<name><![CDATA[Feusisberg, Kreuzstrasse]]></name>
<description><![CDATA[40 connections
]]></description>
<styleUrl>../style/style.kml#station_icon</styleUrl>
<Point>
<coordinates>8.726980,47.182500</coordinates>
</Point>
</Placemark>
<Placemark id="pm677">
<name><![CDATA[Biberbrugg, Bahnhof]]></name>
<description><![CDATA[40 connections
]]></description>
<styleUrl>../style/style.kml#station_icon</styleUrl>
<Point>
<coordinates>8.723060,47.156700</coordinates>
</Point>
</Placemark>
<Placemark id="pm6738">
<name><![CDATA[Schindellegi, Pauli]]></name>
<description><![CDATA[40 connections
]]></description>
<styleUrl>../style/style.kml#station_icon</styleUrl>
<Point>
<coordinates>8.716120,47.183700</coordinates>
</Point>
</Placemark>
<Placemark id="pm9875">
<name><![CDATA[Schindellegi, Schulhaus]]></name>
<description><![CDATA[40 connections
]]></description>
<styleUrl>../style/style.kml#station_icon</styleUrl>
<Point>
<coordinates>8.714610,47.175600</coordinates>
</Point>
</Placemark>
<Placemark id="pm6430">
<name><![CDATA[Schindellegi, Post]]></name>
<description><![CDATA[40 connections
]]></description>
<styleUrl>../style/style.kml#station_icon</styleUrl>
<Point>
<coordinates>8.713610,47.175200</coordinates>
</Point>
</Placemark>
<Placemark id="pm11783">
<name><![CDATA[Schindellegi, Sihlegg]]></name>
<description><![CDATA[40 connections
]]></description>
<styleUrl>../style/style.kml#station_icon</styleUrl>
<Point>
<coordinates>8.710190,47.184000</coordinates>
</Point>
</Placemark>
<Placemark id="pm9539">
<name><![CDATA[Schindellegi, Schwandweg]]></name>
<description><![CDATA[40 connections
]]></description>
<styleUrl>../style/style.kml#station_icon</styleUrl>
<Point>
<coordinates>8.710160,47.182400</coordinates>
</Point>
</Placemark>
<Placemark id="pm11447">
<name><![CDATA[Schindellegi, Aesch]]></name>
<description><![CDATA[40 connections
]]></description>
<styleUrl>../style/style.kml#station_icon</styleUrl>
<Point>
<coordinates>8.707180,47.182000</coordinates>
</Point>
</Placemark>
<Placemark id="pm1695">
<name><![CDATA[Schindellegi, Sunnestrahl]]></name>
<description><![CDATA[40 connections
]]></description>
<styleUrl>../style/style.kml#station_icon</styleUrl>
<Point>
<coordinates>8.705800,47.179600</coordinates>
</Point>
</Placemark>
</Document>
</kml>
