<?xml version="1.0" encoding="UTF-8"?>
<!-- KML Regionator 303:340M -->
<kml xmlns="http://earth.google.com/kml/2.1">
<Document>
<name>1236 0300303</name>
<Region>
<Lod>
<minLodPixels>256</minLodPixels>
<maxLodPixels>-1</maxLodPixels>
</Lod>
<LatLonAltBox>
<north>47.373046875</north>
<south>47.28515625</south>
<east>8.96484375</east>
<west>8.876953125</west>
</LatLonAltBox>
</Region>
<NetworkLink>
<name>03003030</name>
<Region>
<Lod>
<minLodPixels>256</minLodPixels>
<maxLodPixels>-1</maxLodPixels>
</Lod>
<LatLonAltBox>
<north>47.373046875</north>
<south>47.3291015625</south>
<east>8.9208984375</east>
<west>8.876953125</west>
</LatLonAltBox>
</Region>
<Link>
<href>1237.kml</href>
<viewRefreshMode>onRegion</viewRefreshMode>
<viewFormat/>
</Link>
</NetworkLink>
<Placemark id="pm2692">
<name><![CDATA[Bauma]]></name>
<description><![CDATA[165 connections
]]></description>
<styleUrl>../style/style.kml#station_icon</styleUrl>
<Point>
<coordinates>8.878210,47.368800</coordinates>
</Point>
</Placemark>
<Placemark id="pm8085">
<name><![CDATA[Bauma, Bahnhof]]></name>
<description><![CDATA[128 connections
]]></description>
<styleUrl>../style/style.kml#station_icon</styleUrl>
<Point>
<coordinates>8.878780,47.368500</coordinates>
</Point>
</Placemark>
<Placemark id="pm1992">
<name><![CDATA[Steg]]></name>
<description><![CDATA[116 connections
]]></description>
<styleUrl>../style/style.kml#station_icon</styleUrl>
<Point>
<coordinates>8.932360,47.353900</coordinates>
</Point>
</Placemark>
<Placemark id="pm9497">
<name><![CDATA[Fischenthal]]></name>
<description><![CDATA[116 connections
]]></description>
<styleUrl>../style/style.kml#station_icon</styleUrl>
<Point>
<coordinates>8.923270,47.333300</coordinates>
</Point>
</Placemark>
<Placemark id="pm13442">
<name><![CDATA[Gibswil]]></name>
<description><![CDATA[116 connections
]]></description>
<styleUrl>../style/style.kml#station_icon</styleUrl>
<Point>
<coordinates>8.915490,47.313700</coordinates>
</Point>
</Placemark>
<Placemark id="pm2241">
<name><![CDATA[Bauma, Hörnen]]></name>
<description><![CDATA[40 connections
]]></description>
<styleUrl>../style/style.kml#station_icon</styleUrl>
<Point>
<coordinates>8.887330,47.369600</coordinates>
</Point>
</Placemark>
<Placemark id="pm1322">
<name><![CDATA[Fischenthal, Bahnhof]]></name>
<description><![CDATA[36 connections
]]></description>
<styleUrl>../style/style.kml#station_icon</styleUrl>
<Point>
<coordinates>8.923430,47.333400</coordinates>
</Point>
</Placemark>
<Placemark id="pm3809">
<name><![CDATA[Gibswil, Bahnhof]]></name>
<description><![CDATA[36 connections
]]></description>
<styleUrl>../style/style.kml#station_icon</styleUrl>
<Point>
<coordinates>8.915700,47.313700</coordinates>
</Point>
</Placemark>
<Placemark id="pm12539">
<name><![CDATA[Steg ZH, Bahnhof]]></name>
<description><![CDATA[35 connections
]]></description>
<styleUrl>../style/style.kml#station_icon</styleUrl>
<Point>
<coordinates>8.932220,47.353900</coordinates>
</Point>
</Placemark>
<Placemark id="pm4928">
<name><![CDATA[Wald ZH, Dieterswil]]></name>
<description><![CDATA[26 connections
]]></description>
<styleUrl>../style/style.kml#station_icon</styleUrl>
<Point>
<coordinates>8.907210,47.287600</coordinates>
</Point>
</Placemark>
<Placemark id="pm11267">
<name><![CDATA[Steg im Tösstal, Boden]]></name>
<description><![CDATA[16 connections
]]></description>
<styleUrl>../style/style.kml#station_icon</styleUrl>
<Point>
<coordinates>8.934500,47.349700</coordinates>
</Point>
</Placemark>
<Placemark id="pm7236">
<name><![CDATA[Fischenthal, Schmittenbach]]></name>
<description><![CDATA[16 connections
]]></description>
<styleUrl>../style/style.kml#station_icon</styleUrl>
<Point>
<coordinates>8.929480,47.344100</coordinates>
</Point>
</Placemark>
<Placemark id="pm4994">
<name><![CDATA[Fischenthal, Bodmen]]></name>
<description><![CDATA[16 connections
]]></description>
<styleUrl>../style/style.kml#station_icon</styleUrl>
<Point>
<coordinates>8.925620,47.338300</coordinates>
</Point>
</Placemark>
<Placemark id="pm873">
<name><![CDATA[Bauma, Lipperschwändi]]></name>
<description><![CDATA[16 connections
]]></description>
<styleUrl>../style/style.kml#station_icon</styleUrl>
<Point>
<coordinates>8.920100,47.359600</coordinates>
</Point>
</Placemark>
<Placemark id="pm14463">
<name><![CDATA[Wald ZH, Jonatal]]></name>
<description><![CDATA[16 connections
]]></description>
<styleUrl>../style/style.kml#station_icon</styleUrl>
<Point>
<coordinates>8.916490,47.293300</coordinates>
</Point>
</Placemark>
<Placemark id="pm14624">
<name><![CDATA[Wald ZH, Riet]]></name>
<description><![CDATA[16 connections
]]></description>
<styleUrl>../style/style.kml#station_icon</styleUrl>
<Point>
<coordinates>8.912630,47.309700</coordinates>
</Point>
</Placemark>
</Document>
</kml>
