<?xml version="1.0" encoding="UTF-8"?>
<!-- KML Regionator 303:340M -->
<kml xmlns="http://earth.google.com/kml/2.1">
<Document>
<name>1244 0300311</name>
<Region>
<Lod>
<minLodPixels>256</minLodPixels>
<maxLodPixels>-1</maxLodPixels>
</Lod>
<LatLonAltBox>
<north>47.4609375</north>
<south>47.373046875</south>
<east>9.140625</east>
<west>9.052734375</west>
</LatLonAltBox>
</Region>
<NetworkLink>
<name>03003110</name>
<Region>
<Lod>
<minLodPixels>256</minLodPixels>
<maxLodPixels>-1</maxLodPixels>
</Lod>
<LatLonAltBox>
<north>47.4609375</north>
<south>47.4169921875</south>
<east>9.0966796875</east>
<west>9.052734375</west>
</LatLonAltBox>
</Region>
<Link>
<href>1245.kml</href>
<viewRefreshMode>onRegion</viewRefreshMode>
<viewFormat/>
</Link>
</NetworkLink>
<NetworkLink>
<name>03003111</name>
<Region>
<Lod>
<minLodPixels>256</minLodPixels>
<maxLodPixels>-1</maxLodPixels>
</Lod>
<LatLonAltBox>
<north>47.4609375</north>
<south>47.4169921875</south>
<east>9.140625</east>
<west>9.0966796875</west>
</LatLonAltBox>
</Region>
<Link>
<href>1246.kml</href>
<viewRefreshMode>onRegion</viewRefreshMode>
<viewFormat/>
</Link>
</NetworkLink>
<NetworkLink>
<name>03003112</name>
<Region>
<Lod>
<minLodPixels>256</minLodPixels>
<maxLodPixels>-1</maxLodPixels>
</Lod>
<LatLonAltBox>
<north>47.4169921875</north>
<south>47.373046875</south>
<east>9.0966796875</east>
<west>9.052734375</west>
</LatLonAltBox>
</Region>
<Link>
<href>1247.kml</href>
<viewRefreshMode>onRegion</viewRefreshMode>
<viewFormat/>
</Link>
</NetworkLink>
<NetworkLink>
<name>03003113</name>
<Region>
<Lod>
<minLodPixels>256</minLodPixels>
<maxLodPixels>-1</maxLodPixels>
</Lod>
<LatLonAltBox>
<north>47.4169921875</north>
<south>47.373046875</south>
<east>9.140625</east>
<west>9.0966796875</west>
</LatLonAltBox>
</Region>
<Link>
<href>1248.kml</href>
<viewRefreshMode>onRegion</viewRefreshMode>
<viewFormat/>
</Link>
</NetworkLink>
<Placemark id="pm12101">
<name><![CDATA[Uzwil, Coop]]></name>
<description><![CDATA[173 connections
]]></description>
<styleUrl>../style/style.kml#station_icon</styleUrl>
<Point>
<coordinates>9.137810,47.435600</coordinates>
</Point>
</Placemark>
<Placemark id="pm13284">
<name><![CDATA[Bichwil, Adler]]></name>
<description><![CDATA[170 connections
]]></description>
<styleUrl>../style/style.kml#station_icon</styleUrl>
<Point>
<coordinates>9.137320,47.420300</coordinates>
</Point>
</Placemark>
<Placemark id="pm4166">
<name><![CDATA[Oberuzwil, Flawilerstrasse]]></name>
<description><![CDATA[170 connections
]]></description>
<styleUrl>../style/style.kml#station_icon</styleUrl>
<Point>
<coordinates>9.128940,47.427800</coordinates>
</Point>
</Placemark>
<Placemark id="pm8178">
<name><![CDATA[Oberuzwil, Rain]]></name>
<description><![CDATA[170 connections
]]></description>
<styleUrl>../style/style.kml#station_icon</styleUrl>
<Point>
<coordinates>9.128580,47.426700</coordinates>
</Point>
</Placemark>
<Placemark id="pm6576">
<name><![CDATA[Bichwil, Torackerstrasse]]></name>
<description><![CDATA[170 connections
]]></description>
<styleUrl>../style/style.kml#station_icon</styleUrl>
<Point>
<coordinates>9.128460,47.423100</coordinates>
</Point>
</Placemark>
<Placemark id="pm10743">
<name><![CDATA[Henau, Felsegg]]></name>
<description><![CDATA[136 connections
]]></description>
<styleUrl>../style/style.kml#station_icon</styleUrl>
<Point>
<coordinates>9.120000,47.459400</coordinates>
</Point>
</Placemark>
<Placemark id="pm11081">
<name><![CDATA[Henau, Kirchplatz]]></name>
<description><![CDATA[136 connections
]]></description>
<styleUrl>../style/style.kml#station_icon</styleUrl>
<Point>
<coordinates>9.119120,47.452500</coordinates>
</Point>
</Placemark>
<Placemark id="pm9496">
<name><![CDATA[Henau, Post]]></name>
<description><![CDATA[136 connections
]]></description>
<styleUrl>../style/style.kml#station_icon</styleUrl>
<Point>
<coordinates>9.117220,47.455400</coordinates>
</Point>
</Placemark>
<Placemark id="pm8535">
<name><![CDATA[Niederuzwil, Wespiwiese]]></name>
<description><![CDATA[134 connections
]]></description>
<styleUrl>../style/style.kml#station_icon</styleUrl>
<Point>
<coordinates>9.136830,47.446400</coordinates>
</Point>
</Placemark>
<Placemark id="pm5323">
<name><![CDATA[Niederuzwil, Luxenburg]]></name>
<description><![CDATA[134 connections
]]></description>
<styleUrl>../style/style.kml#station_icon</styleUrl>
<Point>
<coordinates>9.130940,47.448900</coordinates>
</Point>
</Placemark>
<Placemark id="pm13967">
<name><![CDATA[Lütisburg]]></name>
<description><![CDATA[132 connections
]]></description>
<styleUrl>../style/style.kml#station_icon</styleUrl>
<Point>
<coordinates>9.070670,47.383800</coordinates>
</Point>
</Placemark>
<Placemark id="pm7401">
<name><![CDATA[Bazenheid]]></name>
<description><![CDATA[132 connections
]]></description>
<styleUrl>../style/style.kml#station_icon</styleUrl>
<Point>
<coordinates>9.069040,47.410100</coordinates>
</Point>
</Placemark>
<Placemark id="pm2395">
<name><![CDATA[Jonschwil, Post]]></name>
<description><![CDATA[128 connections
]]></description>
<styleUrl>../style/style.kml#station_icon</styleUrl>
<Point>
<coordinates>9.087450,47.425700</coordinates>
</Point>
</Placemark>
<Placemark id="pm1876">
<name><![CDATA[Jonschwil, Winkel]]></name>
<description><![CDATA[127 connections
]]></description>
<styleUrl>../style/style.kml#station_icon</styleUrl>
<Point>
<coordinates>9.087010,47.422100</coordinates>
</Point>
</Placemark>
<Placemark id="pm5051">
<name><![CDATA[Oberuzwil, Evangelische Kirche]]></name>
<description><![CDATA[122 connections
]]></description>
<styleUrl>../style/style.kml#station_icon</styleUrl>
<Point>
<coordinates>9.120420,47.430900</coordinates>
</Point>
</Placemark>
<Placemark id="pm13308">
<name><![CDATA[Oberuzwil, Schützenhaus]]></name>
<description><![CDATA[122 connections
]]></description>
<styleUrl>../style/style.kml#station_icon</styleUrl>
<Point>
<coordinates>9.107520,47.431700</coordinates>
</Point>
</Placemark>
</Document>
</kml>
