<?xml version="1.0" encoding="UTF-8"?>
<!-- KML Regionator 303:340M -->
<kml xmlns="http://earth.google.com/kml/2.1">
<Document>
<name>1338 03012</name>
<Region>
<Lod>
<minLodPixels>256</minLodPixels>
<maxLodPixels>-1</maxLodPixels>
</Lod>
<LatLonAltBox>
<north>47.4609375</north>
<south>47.109375</south>
<east>9.4921875</east>
<west>9.140625</west>
</LatLonAltBox>
</Region>
<NetworkLink>
<name>030120</name>
<Region>
<Lod>
<minLodPixels>256</minLodPixels>
<maxLodPixels>-1</maxLodPixels>
</Lod>
<LatLonAltBox>
<north>47.4609375</north>
<south>47.28515625</south>
<east>9.31640625</east>
<west>9.140625</west>
</LatLonAltBox>
</Region>
<Link>
<href>1339.kml</href>
<viewRefreshMode>onRegion</viewRefreshMode>
<viewFormat/>
</Link>
</NetworkLink>
<NetworkLink>
<name>030121</name>
<Region>
<Lod>
<minLodPixels>256</minLodPixels>
<maxLodPixels>-1</maxLodPixels>
</Lod>
<LatLonAltBox>
<north>47.4609375</north>
<south>47.28515625</south>
<east>9.4921875</east>
<west>9.31640625</west>
</LatLonAltBox>
</Region>
<Link>
<href>1358.kml</href>
<viewRefreshMode>onRegion</viewRefreshMode>
<viewFormat/>
</Link>
</NetworkLink>
<NetworkLink>
<name>030122</name>
<Region>
<Lod>
<minLodPixels>256</minLodPixels>
<maxLodPixels>-1</maxLodPixels>
</Lod>
<LatLonAltBox>
<north>47.28515625</north>
<south>47.109375</south>
<east>9.31640625</east>
<west>9.140625</west>
</LatLonAltBox>
</Region>
<Link>
<href>1378.kml</href>
<viewRefreshMode>onRegion</viewRefreshMode>
<viewFormat/>
</Link>
</NetworkLink>
<NetworkLink>
<name>030123</name>
<Region>
<Lod>
<minLodPixels>256</minLodPixels>
<maxLodPixels>-1</maxLodPixels>
</Lod>
<LatLonAltBox>
<north>47.28515625</north>
<south>47.109375</south>
<east>9.4921875</east>
<west>9.31640625</west>
</LatLonAltBox>
</Region>
<Link>
<href>1383.kml</href>
<viewRefreshMode>onRegion</viewRefreshMode>
<viewFormat/>
</Link>
</NetworkLink>
<Placemark id="pm10444">
<name><![CDATA[Buchs SG, Rheinau]]></name>
<description><![CDATA[508 connections
]]></description>
<styleUrl>../style/style.kml#station_icon</styleUrl>
<Point>
<coordinates>9.484540,47.168100</coordinates>
</Point>
</Placemark>
<Placemark id="pm12352">
<name><![CDATA[Buchs SG, Bahnhof]]></name>
<description><![CDATA[493 connections
]]></description>
<styleUrl>../style/style.kml#station_icon</styleUrl>
<Point>
<coordinates>9.477950,47.168200</coordinates>
</Point>
</Placemark>
<Placemark id="pm5995">
<name><![CDATA[Kronbühl, Bruggbach]]></name>
<description><![CDATA[400 connections
]]></description>
<styleUrl>../style/style.kml#station_icon</styleUrl>
<Point>
<coordinates>9.398430,47.455500</coordinates>
</Point>
</Placemark>
<Placemark id="pm9208">
<name><![CDATA[St. Gallen, Sonnrainweg]]></name>
<description><![CDATA[400 connections
]]></description>
<styleUrl>../style/style.kml#station_icon</styleUrl>
<Point>
<coordinates>9.397840,47.448600</coordinates>
</Point>
</Placemark>
<Placemark id="pm6921">
<name><![CDATA[St. Gallen, Heiligkreuzstrasse]]></name>
<description><![CDATA[400 connections
]]></description>
<styleUrl>../style/style.kml#station_icon</styleUrl>
<Point>
<coordinates>9.392580,47.440800</coordinates>
</Point>
</Placemark>
<Placemark id="pm14183">
<name><![CDATA[St. Gallen, Langgass]]></name>
<description><![CDATA[400 connections
]]></description>
<styleUrl>../style/style.kml#station_icon</styleUrl>
<Point>
<coordinates>9.385070,47.434800</coordinates>
</Point>
</Placemark>
<Placemark id="pm7225">
<name><![CDATA[St. Gallen, Schützengarten]]></name>
<description><![CDATA[400 connections
]]></description>
<styleUrl>../style/style.kml#station_icon</styleUrl>
<Point>
<coordinates>9.379580,47.429700</coordinates>
</Point>
</Placemark>
<Placemark id="pm4660">
<name><![CDATA[St. Gallen Bruggen, Erlachstr.]]></name>
<description><![CDATA[388 connections
]]></description>
<styleUrl>../style/style.kml#station_icon</styleUrl>
<Point>
<coordinates>9.337330,47.410800</coordinates>
</Point>
</Placemark>
<Placemark id="pm5735">
<name><![CDATA[Gossau SG]]></name>
<description><![CDATA[381 connections
]]></description>
<styleUrl>../style/style.kml#station_icon</styleUrl>
<Point>
<coordinates>9.253030,47.411800</coordinates>
</Point>
</Placemark>
<Placemark id="pm2076">
<name><![CDATA[St. Gallen St. Fiden]]></name>
<description><![CDATA[354 connections
]]></description>
<styleUrl>../style/style.kml#station_icon</styleUrl>
<Point>
<coordinates>9.393430,47.434600</coordinates>
</Point>
</Placemark>
<Placemark id="pm2612">
<name><![CDATA[Gossau SG, Oberdorf]]></name>
<description><![CDATA[354 connections
]]></description>
<styleUrl>../style/style.kml#station_icon</styleUrl>
<Point>
<coordinates>9.280980,47.411100</coordinates>
</Point>
</Placemark>
<Placemark id="pm1110">
<name><![CDATA[Engelburg, Lindenwies]]></name>
<description><![CDATA[350 connections
]]></description>
<styleUrl>../style/style.kml#station_icon</styleUrl>
<Point>
<coordinates>9.349280,47.435200</coordinates>
</Point>
</Placemark>
<Placemark id="pm14065">
<name><![CDATA[Engelburg, Freihof]]></name>
<description><![CDATA[350 connections
]]></description>
<styleUrl>../style/style.kml#station_icon</styleUrl>
<Point>
<coordinates>9.347490,47.440600</coordinates>
</Point>
</Placemark>
<Placemark id="pm11884">
<name><![CDATA[Engelburg, Ebnet]]></name>
<description><![CDATA[350 connections
]]></description>
<styleUrl>../style/style.kml#station_icon</styleUrl>
<Point>
<coordinates>9.347140,47.431000</coordinates>
</Point>
</Placemark>
<Placemark id="pm3145">
<name><![CDATA[Engelburg, Schulhaus]]></name>
<description><![CDATA[350 connections
]]></description>
<styleUrl>../style/style.kml#station_icon</styleUrl>
<Point>
<coordinates>9.344590,47.442900</coordinates>
</Point>
</Placemark>
<Placemark id="pm5013">
<name><![CDATA[Herisau]]></name>
<description><![CDATA[337 connections
]]></description>
<styleUrl>../style/style.kml#station_icon</styleUrl>
<Point>
<coordinates>9.276800,47.390200</coordinates>
</Point>
</Placemark>
</Document>
</kml>
