<?xml version="1.0" encoding="UTF-8"?>
<!-- KML Regionator 303:340M -->
<kml xmlns="http://earth.google.com/kml/2.1">
<Document>
<name>1352 03012023</name>
<Region>
<Lod>
<minLodPixels>256</minLodPixels>
<maxLodPixels>-1</maxLodPixels>
</Lod>
<LatLonAltBox>
<north>47.3291015625</north>
<south>47.28515625</south>
<east>9.228515625</east>
<west>9.1845703125</west>
</LatLonAltBox>
</Region>
<Placemark id="pm8430">
<name><![CDATA[B채chli, Wies]]></name>
<description><![CDATA[66 connections
]]></description>
<styleUrl>../style/style.kml#station_icon</styleUrl>
<Point>
<coordinates>9.191490,47.314200</coordinates>
</Point>
</Placemark>
<Placemark id="pm3389">
<name><![CDATA[B채chli, Dorf]]></name>
<description><![CDATA[64 connections
]]></description>
<styleUrl>../style/style.kml#station_icon</styleUrl>
<Point>
<coordinates>9.195180,47.305600</coordinates>
</Point>
</Placemark>
<Placemark id="pm7867">
<name><![CDATA[B채chli, Harzenmoos]]></name>
<description><![CDATA[52 connections
]]></description>
<styleUrl>../style/style.kml#station_icon</styleUrl>
<Point>
<coordinates>9.189720,47.300500</coordinates>
</Point>
</Placemark>
<Placemark id="pm8140">
<name><![CDATA[Hemberg, Schwandsbrugg]]></name>
<description><![CDATA[52 connections
]]></description>
<styleUrl>../style/style.kml#station_icon</styleUrl>
<Point>
<coordinates>9.186330,47.298100</coordinates>
</Point>
</Placemark>
<Placemark id="pm704">
<name><![CDATA[B채chli, Lemberg]]></name>
<description><![CDATA[10 connections
]]></description>
<styleUrl>../style/style.kml#station_icon</styleUrl>
<Point>
<coordinates>9.207110,47.316500</coordinates>
</Point>
</Placemark>
</Document>
</kml>
