<?xml version="1.0" encoding="UTF-8"?>
<!-- KML Regionator 303:340M -->
<kml xmlns="http://earth.google.com/kml/2.1">
<Document>
<name>1357 03012033</name>
<Region>
<Lod>
<minLodPixels>256</minLodPixels>
<maxLodPixels>-1</maxLodPixels>
</Lod>
<LatLonAltBox>
<north>47.3291015625</north>
<south>47.28515625</south>
<east>9.31640625</east>
<west>9.2724609375</west>
</LatLonAltBox>
</Region>
<Placemark id="pm7790">
<name><![CDATA[Urnäsch, Anker]]></name>
<description><![CDATA[62 connections
]]></description>
<styleUrl>../style/style.kml#station_icon</styleUrl>
<Point>
<coordinates>9.276330,47.309700</coordinates>
</Point>
</Placemark>
<Placemark id="pm1893">
<name><![CDATA[Urnäsch, Sonne Thal]]></name>
<description><![CDATA[62 connections
]]></description>
<styleUrl>../style/style.kml#station_icon</styleUrl>
<Point>
<coordinates>9.275220,47.306200</coordinates>
</Point>
</Placemark>
<Placemark id="pm6193">
<name><![CDATA[Urnäsch, Taube]]></name>
<description><![CDATA[38 connections
]]></description>
<styleUrl>../style/style.kml#station_icon</styleUrl>
<Point>
<coordinates>9.282870,47.317100</coordinates>
</Point>
</Placemark>
<Placemark id="pm7753">
<name><![CDATA[Urnäsch, Bahnhof]]></name>
<description><![CDATA[31 connections
]]></description>
<styleUrl>../style/style.kml#station_icon</styleUrl>
<Point>
<coordinates>9.285210,47.317700</coordinates>
</Point>
</Placemark>
<Placemark id="pm12440">
<name><![CDATA[Urnäsch, Frohsinn]]></name>
<description><![CDATA[24 connections
]]></description>
<styleUrl>../style/style.kml#station_icon</styleUrl>
<Point>
<coordinates>9.273710,47.300800</coordinates>
</Point>
</Placemark>
</Document>
</kml>
