<?xml version="1.0" encoding="UTF-8"?>
<!-- KML Regionator 303:340M -->
<kml xmlns="http://earth.google.com/kml/2.1">
<Document>
<name>140 020330</name>
<Region>
<Lod>
<minLodPixels>256</minLodPixels>
<maxLodPixels>-1</maxLodPixels>
</Lod>
<LatLonAltBox>
<north>46.7578125</north>
<south>46.58203125</south>
<east>6.85546875</east>
<west>6.6796875</west>
</LatLonAltBox>
</Region>
<NetworkLink>
<name>0203300</name>
<Region>
<Lod>
<minLodPixels>256</minLodPixels>
<maxLodPixels>-1</maxLodPixels>
</Lod>
<LatLonAltBox>
<north>46.7578125</north>
<south>46.669921875</south>
<east>6.767578125</east>
<west>6.6796875</west>
</LatLonAltBox>
</Region>
<Link>
<href>141.kml</href>
<viewRefreshMode>onRegion</viewRefreshMode>
<viewFormat/>
</Link>
</NetworkLink>
<NetworkLink>
<name>0203301</name>
<Region>
<Lod>
<minLodPixels>256</minLodPixels>
<maxLodPixels>-1</maxLodPixels>
</Lod>
<LatLonAltBox>
<north>46.7578125</north>
<south>46.669921875</south>
<east>6.85546875</east>
<west>6.767578125</west>
</LatLonAltBox>
</Region>
<Link>
<href>146.kml</href>
<viewRefreshMode>onRegion</viewRefreshMode>
<viewFormat/>
</Link>
</NetworkLink>
<NetworkLink>
<name>0203302</name>
<Region>
<Lod>
<minLodPixels>256</minLodPixels>
<maxLodPixels>-1</maxLodPixels>
</Lod>
<LatLonAltBox>
<north>46.669921875</north>
<south>46.58203125</south>
<east>6.767578125</east>
<west>6.6796875</west>
</LatLonAltBox>
</Region>
<Link>
<href>150.kml</href>
<viewRefreshMode>onRegion</viewRefreshMode>
<viewFormat/>
</Link>
</NetworkLink>
<NetworkLink>
<name>0203303</name>
<Region>
<Lod>
<minLodPixels>256</minLodPixels>
<maxLodPixels>-1</maxLodPixels>
</Lod>
<LatLonAltBox>
<north>46.669921875</north>
<south>46.58203125</south>
<east>6.85546875</east>
<west>6.767578125</west>
</LatLonAltBox>
</Region>
<Link>
<href>154.kml</href>
<viewRefreshMode>onRegion</viewRefreshMode>
<viewFormat/>
</Link>
</NetworkLink>
<Placemark id="pm8697">
<name><![CDATA[Syens, Champ-du-Chêne]]></name>
<description><![CDATA[228 connections
]]></description>
<styleUrl>../style/style.kml#station_icon</styleUrl>
<Point>
<coordinates>6.782950,46.643300</coordinates>
</Point>
</Placemark>
<Placemark id="pm1398">
<name><![CDATA[Vucherens, village]]></name>
<description><![CDATA[228 connections
]]></description>
<styleUrl>../style/style.kml#station_icon</styleUrl>
<Point>
<coordinates>6.781880,46.624400</coordinates>
</Point>
</Placemark>
<Placemark id="pm7258">
<name><![CDATA[Vulliens, Halte TL]]></name>
<description><![CDATA[228 connections
]]></description>
<styleUrl>../style/style.kml#station_icon</styleUrl>
<Point>
<coordinates>6.779390,46.614500</coordinates>
</Point>
</Placemark>
<Placemark id="pm6704">
<name><![CDATA[Carrouge VD]]></name>
<description><![CDATA[228 connections
]]></description>
<styleUrl>../style/style.kml#station_icon</styleUrl>
<Point>
<coordinates>6.775640,46.601000</coordinates>
</Point>
</Placemark>
<Placemark id="pm7187">
<name><![CDATA[Ussières (Ropraz), Château]]></name>
<description><![CDATA[218 connections
]]></description>
<styleUrl>../style/style.kml#station_icon</styleUrl>
<Point>
<coordinates>6.754760,46.600900</coordinates>
</Point>
</Placemark>
<Placemark id="pm10299">
<name><![CDATA[Moudon, gare]]></name>
<description><![CDATA[159 connections
]]></description>
<styleUrl>../style/style.kml#station_icon</styleUrl>
<Point>
<coordinates>6.800160,46.668400</coordinates>
</Point>
</Placemark>
<Placemark id="pm5870">
<name><![CDATA[Ursy, village]]></name>
<description><![CDATA[154 connections
]]></description>
<styleUrl>../style/style.kml#station_icon</styleUrl>
<Point>
<coordinates>6.835310,46.633700</coordinates>
</Point>
</Placemark>
<Placemark id="pm1273">
<name><![CDATA[Thierrens, poste]]></name>
<description><![CDATA[142 connections
]]></description>
<styleUrl>../style/style.kml#station_icon</styleUrl>
<Point>
<coordinates>6.754110,46.703400</coordinates>
</Point>
</Placemark>
<Placemark id="pm858">
<name><![CDATA[Fey]]></name>
<description><![CDATA[120 connections
]]></description>
<styleUrl>../style/style.kml#station_icon</styleUrl>
<Point>
<coordinates>6.684810,46.674200</coordinates>
</Point>
</Placemark>
<Placemark id="pm4939">
<name><![CDATA[Rue, Montet bif.]]></name>
<description><![CDATA[95 connections
]]></description>
<styleUrl>../style/style.kml#station_icon</styleUrl>
<Point>
<coordinates>6.810880,46.645200</coordinates>
</Point>
</Placemark>
<Placemark id="pm4331">
<name><![CDATA[Promasens, église]]></name>
<description><![CDATA[88 connections
]]></description>
<styleUrl>../style/style.kml#station_icon</styleUrl>
<Point>
<coordinates>6.822620,46.601300</coordinates>
</Point>
</Placemark>
<Placemark id="pm8252">
<name><![CDATA[Thierrens, gare routière]]></name>
<description><![CDATA[82 connections
]]></description>
<styleUrl>../style/style.kml#station_icon</styleUrl>
<Point>
<coordinates>6.756830,46.705600</coordinates>
</Point>
</Placemark>
<Placemark id="pm14099">
<name><![CDATA[Lucens]]></name>
<description><![CDATA[76 connections
]]></description>
<styleUrl>../style/style.kml#station_icon</styleUrl>
<Point>
<coordinates>6.842140,46.707800</coordinates>
</Point>
</Placemark>
<Placemark id="pm9601">
<name><![CDATA[Moudon]]></name>
<description><![CDATA[76 connections
]]></description>
<styleUrl>../style/style.kml#station_icon</styleUrl>
<Point>
<coordinates>6.802500,46.668000</coordinates>
</Point>
</Placemark>
<Placemark id="pm15081">
<name><![CDATA[Cronay, Moulin du Pont]]></name>
<description><![CDATA[76 connections
]]></description>
<styleUrl>../style/style.kml#station_icon</styleUrl>
<Point>
<coordinates>6.706060,46.746100</coordinates>
</Point>
</Placemark>
<Placemark id="pm11167">
<name><![CDATA[Froideville, Laiterie]]></name>
<description><![CDATA[76 connections
]]></description>
<styleUrl>../style/style.kml#station_icon</styleUrl>
<Point>
<coordinates>6.682450,46.601100</coordinates>
</Point>
</Placemark>
</Document>
</kml>
