<?xml version="1.0" encoding="UTF-8"?>
<!-- KML Regionator 303:340M -->
<kml xmlns="http://earth.google.com/kml/2.1">
<Document>
<name>1496 030232</name>
<Region>
<Lod>
<minLodPixels>256</minLodPixels>
<maxLodPixels>-1</maxLodPixels>
</Lod>
<LatLonAltBox>
<north>46.58203125</north>
<south>46.40625</south>
<east>8.96484375</east>
<west>8.7890625</west>
</LatLonAltBox>
</Region>
<NetworkLink>
<name>0302320</name>
<Region>
<Lod>
<minLodPixels>256</minLodPixels>
<maxLodPixels>-1</maxLodPixels>
</Lod>
<LatLonAltBox>
<north>46.58203125</north>
<south>46.494140625</south>
<east>8.876953125</east>
<west>8.7890625</west>
</LatLonAltBox>
</Region>
<Link>
<href>1497.kml</href>
<viewRefreshMode>onRegion</viewRefreshMode>
<viewFormat/>
</Link>
</NetworkLink>
<NetworkLink>
<name>0302321</name>
<Region>
<Lod>
<minLodPixels>256</minLodPixels>
<maxLodPixels>-1</maxLodPixels>
</Lod>
<LatLonAltBox>
<north>46.58203125</north>
<south>46.494140625</south>
<east>8.96484375</east>
<west>8.876953125</west>
</LatLonAltBox>
</Region>
<Link>
<href>1498.kml</href>
<viewRefreshMode>onRegion</viewRefreshMode>
<viewFormat/>
</Link>
</NetworkLink>
<NetworkLink>
<name>0302322</name>
<Region>
<Lod>
<minLodPixels>256</minLodPixels>
<maxLodPixels>-1</maxLodPixels>
</Lod>
<LatLonAltBox>
<north>46.494140625</north>
<south>46.40625</south>
<east>8.876953125</east>
<west>8.7890625</west>
</LatLonAltBox>
</Region>
<Link>
<href>1499.kml</href>
<viewRefreshMode>onRegion</viewRefreshMode>
<viewFormat/>
</Link>
</NetworkLink>
<NetworkLink>
<name>0302323</name>
<Region>
<Lod>
<minLodPixels>256</minLodPixels>
<maxLodPixels>-1</maxLodPixels>
</Lod>
<LatLonAltBox>
<north>46.494140625</north>
<south>46.40625</south>
<east>8.96484375</east>
<west>8.876953125</west>
</LatLonAltBox>
</Region>
<Link>
<href>1503.kml</href>
<viewRefreshMode>onRegion</viewRefreshMode>
<viewFormat/>
</Link>
</NetworkLink>
<Placemark id="pm1068">
<name><![CDATA[Rossura, Bivio per Rossura]]></name>
<description><![CDATA[94 connections
]]></description>
<styleUrl>../style/style.kml#station_icon</styleUrl>
<Point>
<coordinates>8.811470,46.479700</coordinates>
</Point>
</Placemark>
<Placemark id="pm6237">
<name><![CDATA[Anzonico, Bv. Calonico]]></name>
<description><![CDATA[88 connections
]]></description>
<styleUrl>../style/style.kml#station_icon</styleUrl>
<Point>
<coordinates>8.852440,46.437800</coordinates>
</Point>
</Placemark>
<Placemark id="pm10177">
<name><![CDATA[Marogno]]></name>
<description><![CDATA[84 connections
]]></description>
<styleUrl>../style/style.kml#station_icon</styleUrl>
<Point>
<coordinates>8.963540,46.431700</coordinates>
</Point>
</Placemark>
<Placemark id="pm2388">
<name><![CDATA[Dangio]]></name>
<description><![CDATA[84 connections
]]></description>
<styleUrl>../style/style.kml#station_icon</styleUrl>
<Point>
<coordinates>8.952260,46.493900</coordinates>
</Point>
</Placemark>
<Placemark id="pm1535">
<name><![CDATA[Torre]]></name>
<description><![CDATA[84 connections
]]></description>
<styleUrl>../style/style.kml#station_icon</styleUrl>
<Point>
<coordinates>8.950740,46.485800</coordinates>
</Point>
</Placemark>
<Placemark id="pm2410">
<name><![CDATA[Aquila]]></name>
<description><![CDATA[84 connections
]]></description>
<styleUrl>../style/style.kml#station_icon</styleUrl>
<Point>
<coordinates>8.949890,46.502000</coordinates>
</Point>
</Placemark>
<Placemark id="pm11034">
<name><![CDATA[Dongio, Piazza]]></name>
<description><![CDATA[84 connections
]]></description>
<styleUrl>../style/style.kml#station_icon</styleUrl>
<Point>
<coordinates>8.949480,46.440900</coordinates>
</Point>
</Placemark>
<Placemark id="pm13424">
<name><![CDATA[Grumo (Blenio)]]></name>
<description><![CDATA[84 connections
]]></description>
<styleUrl>../style/style.kml#station_icon</styleUrl>
<Point>
<coordinates>8.945280,46.476900</coordinates>
</Point>
</Placemark>
<Placemark id="pm14047">
<name><![CDATA[Lottigna]]></name>
<description><![CDATA[84 connections
]]></description>
<styleUrl>../style/style.kml#station_icon</styleUrl>
<Point>
<coordinates>8.942550,46.472400</coordinates>
</Point>
</Placemark>
<Placemark id="pm8199">
<name><![CDATA[Calonico, Probello]]></name>
<description><![CDATA[84 connections
]]></description>
<styleUrl>../style/style.kml#station_icon</styleUrl>
<Point>
<coordinates>8.845170,46.445800</coordinates>
</Point>
</Placemark>
<Placemark id="pm8997">
<name><![CDATA[Giornico, Parondino]]></name>
<description><![CDATA[78 connections
]]></description>
<styleUrl>../style/style.kml#station_icon</styleUrl>
<Point>
<coordinates>8.868040,46.412200</coordinates>
</Point>
</Placemark>
<Placemark id="pm13007">
<name><![CDATA[Giornico, Biaschina]]></name>
<description><![CDATA[78 connections
]]></description>
<styleUrl>../style/style.kml#station_icon</styleUrl>
<Point>
<coordinates>8.858520,46.421300</coordinates>
</Point>
</Placemark>
<Placemark id="pm6389">
<name><![CDATA[Chiggiogna, Fedoccio]]></name>
<description><![CDATA[78 connections
]]></description>
<styleUrl>../style/style.kml#station_icon</styleUrl>
<Point>
<coordinates>8.831360,46.453200</coordinates>
</Point>
</Placemark>
<Placemark id="pm1492">
<name><![CDATA[Chiggiogna, Paese]]></name>
<description><![CDATA[78 connections
]]></description>
<styleUrl>../style/style.kml#station_icon</styleUrl>
<Point>
<coordinates>8.821320,46.467700</coordinates>
</Point>
</Placemark>
<Placemark id="pm8841">
<name><![CDATA[Faido, Birreria]]></name>
<description><![CDATA[78 connections
]]></description>
<styleUrl>../style/style.kml#station_icon</styleUrl>
<Point>
<coordinates>8.806350,46.475500</coordinates>
</Point>
</Placemark>
<Placemark id="pm4159">
<name><![CDATA[Figgione, Bivio per Figgione]]></name>
<description><![CDATA[68 connections
]]></description>
<styleUrl>../style/style.kml#station_icon</styleUrl>
<Point>
<coordinates>8.825670,46.474800</coordinates>
</Point>
</Placemark>
</Document>
</kml>
