<?xml version="1.0" encoding="UTF-8"?>
<!-- KML Regionator 303:340M -->
<kml xmlns="http://earth.google.com/kml/2.1">
<Document>
<name>1545 0303102</name>
<Region>
<Lod>
<minLodPixels>256</minLodPixels>
<maxLodPixels>-1</maxLodPixels>
</Lod>
<LatLonAltBox>
<north>47.021484375</north>
<south>46.93359375</south>
<east>9.580078125</east>
<west>9.4921875</west>
</LatLonAltBox>
</Region>
<NetworkLink>
<name>03031020</name>
<Region>
<Lod>
<minLodPixels>256</minLodPixels>
<maxLodPixels>-1</maxLodPixels>
</Lod>
<LatLonAltBox>
<north>47.021484375</north>
<south>46.9775390625</south>
<east>9.5361328125</east>
<west>9.4921875</west>
</LatLonAltBox>
</Region>
<Link>
<href>1546.kml</href>
<viewRefreshMode>onRegion</viewRefreshMode>
<viewFormat/>
</Link>
</NetworkLink>
<NetworkLink>
<name>03031021</name>
<Region>
<Lod>
<minLodPixels>256</minLodPixels>
<maxLodPixels>-1</maxLodPixels>
</Lod>
<LatLonAltBox>
<north>47.021484375</north>
<south>46.9775390625</south>
<east>9.580078125</east>
<west>9.5361328125</west>
</LatLonAltBox>
</Region>
<Link>
<href>1550.kml</href>
<viewRefreshMode>onRegion</viewRefreshMode>
<viewFormat/>
</Link>
</NetworkLink>
<NetworkLink>
<name>03031022</name>
<Region>
<Lod>
<minLodPixels>256</minLodPixels>
<maxLodPixels>-1</maxLodPixels>
</Lod>
<LatLonAltBox>
<north>46.9775390625</north>
<south>46.93359375</south>
<east>9.5361328125</east>
<west>9.4921875</west>
</LatLonAltBox>
</Region>
<Link>
<href>1551.kml</href>
<viewRefreshMode>onRegion</viewRefreshMode>
<viewFormat/>
</Link>
</NetworkLink>
<NetworkLink>
<name>03031023</name>
<Region>
<Lod>
<minLodPixels>256</minLodPixels>
<maxLodPixels>-1</maxLodPixels>
</Lod>
<LatLonAltBox>
<north>46.9775390625</north>
<south>46.93359375</south>
<east>9.580078125</east>
<west>9.5361328125</west>
</LatLonAltBox>
</Region>
<Link>
<href>1552.kml</href>
<viewRefreshMode>onRegion</viewRefreshMode>
<viewFormat/>
</Link>
</NetworkLink>
<Placemark id="pm9994">
<name><![CDATA[Landquart, Bahnhof]]></name>
<description><![CDATA[167 connections
]]></description>
<styleUrl>../style/style.kml#station_icon</styleUrl>
<Point>
<coordinates>9.554430,46.966900</coordinates>
</Point>
</Placemark>
<Placemark id="pm2131">
<name><![CDATA[Landquart, Marktplatz]]></name>
<description><![CDATA[158 connections
]]></description>
<styleUrl>../style/style.kml#station_icon</styleUrl>
<Point>
<coordinates>9.561050,46.968100</coordinates>
</Point>
</Placemark>
<Placemark id="pm2026">
<name><![CDATA[Igis, Dorfplatz]]></name>
<description><![CDATA[146 connections
]]></description>
<styleUrl>../style/style.kml#station_icon</styleUrl>
<Point>
<coordinates>9.566880,46.949300</coordinates>
</Point>
</Placemark>
<Placemark id="pm7898">
<name><![CDATA[Landquart, Fabriken]]></name>
<description><![CDATA[146 connections
]]></description>
<styleUrl>../style/style.kml#station_icon</styleUrl>
<Point>
<coordinates>9.565740,46.953800</coordinates>
</Point>
</Placemark>
<Placemark id="pm12299">
<name><![CDATA[Landquart, Forum im Ried]]></name>
<description><![CDATA[146 connections
]]></description>
<styleUrl>../style/style.kml#station_icon</styleUrl>
<Point>
<coordinates>9.564750,46.961900</coordinates>
</Point>
</Placemark>
<Placemark id="pm11026">
<name><![CDATA[Landquart, Post]]></name>
<description><![CDATA[146 connections
]]></description>
<styleUrl>../style/style.kml#station_icon</styleUrl>
<Point>
<coordinates>9.557010,46.965700</coordinates>
</Point>
</Placemark>
<Placemark id="pm14907">
<name><![CDATA[Maienfeld]]></name>
<description><![CDATA[144 connections
]]></description>
<styleUrl>../style/style.kml#station_icon</styleUrl>
<Point>
<coordinates>9.529200,47.003800</coordinates>
</Point>
</Placemark>
<Placemark id="pm4959">
<name><![CDATA[Bad Ragaz, Post]]></name>
<description><![CDATA[138 connections
]]></description>
<styleUrl>../style/style.kml#station_icon</styleUrl>
<Point>
<coordinates>9.500320,47.004100</coordinates>
</Point>
</Placemark>
<Placemark id="pm14134">
<name><![CDATA[Maienfeld, Post]]></name>
<description><![CDATA[134 connections
]]></description>
<styleUrl>../style/style.kml#station_icon</styleUrl>
<Point>
<coordinates>9.531070,47.008200</coordinates>
</Point>
</Placemark>
<Placemark id="pm10095">
<name><![CDATA[Igis, Im Lux/Gruobhof]]></name>
<description><![CDATA[132 connections
]]></description>
<styleUrl>../style/style.kml#station_icon</styleUrl>
<Point>
<coordinates>9.567310,46.950300</coordinates>
</Point>
</Placemark>
<Placemark id="pm11791">
<name><![CDATA[Igis]]></name>
<description><![CDATA[132 connections
]]></description>
<styleUrl>../style/style.kml#station_icon</styleUrl>
<Point>
<coordinates>9.564760,46.949800</coordinates>
</Point>
</Placemark>
<Placemark id="pm7931">
<name><![CDATA[Landquart Ried]]></name>
<description><![CDATA[132 connections
]]></description>
<styleUrl>../style/style.kml#station_icon</styleUrl>
<Point>
<coordinates>9.560870,46.957200</coordinates>
</Point>
</Placemark>
<Placemark id="pm164">
<name><![CDATA[Zizers]]></name>
<description><![CDATA[132 connections
]]></description>
<styleUrl>../style/style.kml#station_icon</styleUrl>
<Point>
<coordinates>9.559590,46.934800</coordinates>
</Point>
</Placemark>
<Placemark id="pm6743">
<name><![CDATA[Landquart, Schulhaus Ried]]></name>
<description><![CDATA[126 connections
]]></description>
<styleUrl>../style/style.kml#station_icon</styleUrl>
<Point>
<coordinates>9.563470,46.962900</coordinates>
</Point>
</Placemark>
<Placemark id="pm12326">
<name><![CDATA[Landquart, Primarschule]]></name>
<description><![CDATA[126 connections
]]></description>
<styleUrl>../style/style.kml#station_icon</styleUrl>
<Point>
<coordinates>9.562230,46.964700</coordinates>
</Point>
</Placemark>
<Placemark id="pm1018">
<name><![CDATA[Zizers, Nord]]></name>
<description><![CDATA[118 connections
]]></description>
<styleUrl>../style/style.kml#station_icon</styleUrl>
<Point>
<coordinates>9.567870,46.941200</coordinates>
</Point>
</Placemark>
</Document>
</kml>
