<?xml version="1.0" encoding="UTF-8"?>
<!-- KML Regionator 303:340M -->
<kml xmlns="http://earth.google.com/kml/2.1">
<Document>
<name>1598 0303213</name>
<Region>
<Lod>
<minLodPixels>256</minLodPixels>
<maxLodPixels>-1</maxLodPixels>
</Lod>
<LatLonAltBox>
<north>46.669921875</north>
<south>46.58203125</south>
<east>9.4921875</east>
<west>9.404296875</west>
</LatLonAltBox>
</Region>
<Placemark id="pm1668">
<name><![CDATA[Donat, spv. Lohn]]></name>
<description><![CDATA[60 connections
]]></description>
<styleUrl>../style/style.kml#station_icon</styleUrl>
<Point>
<coordinates>9.427260,46.649600</coordinates>
</Point>
</Placemark>
<Placemark id="pm8480">
<name><![CDATA[Andeer, Tgavugl]]></name>
<description><![CDATA[58 connections
]]></description>
<styleUrl>../style/style.kml#station_icon</styleUrl>
<Point>
<coordinates>9.427990,46.605400</coordinates>
</Point>
</Placemark>
<Placemark id="pm13313">
<name><![CDATA[Donat, posta]]></name>
<description><![CDATA[42 connections
]]></description>
<styleUrl>../style/style.kml#station_icon</styleUrl>
<Point>
<coordinates>9.430820,46.629200</coordinates>
</Point>
</Placemark>
<Placemark id="pm15036">
<name><![CDATA[Zillis, Schulhaus]]></name>
<description><![CDATA[30 connections
]]></description>
<styleUrl>../style/style.kml#station_icon</styleUrl>
<Point>
<coordinates>9.442460,46.632900</coordinates>
</Point>
</Placemark>
<Placemark id="pm5650">
<name><![CDATA[Donat, Val Vins]]></name>
<description><![CDATA[30 connections
]]></description>
<styleUrl>../style/style.kml#station_icon</styleUrl>
<Point>
<coordinates>9.434450,46.649400</coordinates>
</Point>
</Placemark>
<Placemark id="pm15117">
<name><![CDATA[Pazen]]></name>
<description><![CDATA[30 connections
]]></description>
<styleUrl>../style/style.kml#station_icon</styleUrl>
<Point>
<coordinates>9.429800,46.636800</coordinates>
</Point>
</Placemark>
<Placemark id="pm6290">
<name><![CDATA[Farden]]></name>
<description><![CDATA[30 connections
]]></description>
<styleUrl>../style/style.kml#station_icon</styleUrl>
<Point>
<coordinates>9.428050,46.633700</coordinates>
</Point>
</Placemark>
<Placemark id="pm9183">
<name><![CDATA[Lohn GR]]></name>
<description><![CDATA[30 connections
]]></description>
<styleUrl>../style/style.kml#station_icon</styleUrl>
<Point>
<coordinates>9.425420,46.650800</coordinates>
</Point>
</Placemark>
<Placemark id="pm4403">
<name><![CDATA[Mathon, posta]]></name>
<description><![CDATA[30 connections
]]></description>
<styleUrl>../style/style.kml#station_icon</styleUrl>
<Point>
<coordinates>9.413450,46.636200</coordinates>
</Point>
</Placemark>
<Placemark id="pm1288">
<name><![CDATA[Zillis, Rania]]></name>
<description><![CDATA[28 connections
]]></description>
<styleUrl>../style/style.kml#station_icon</styleUrl>
<Point>
<coordinates>9.448590,46.650300</coordinates>
</Point>
</Placemark>
<Placemark id="pm1990">
<name><![CDATA[Zillis, Viamala-Schlucht]]></name>
<description><![CDATA[28 connections
]]></description>
<styleUrl>../style/style.kml#station_icon</styleUrl>
<Point>
<coordinates>9.447440,46.663300</coordinates>
</Point>
</Placemark>
<Placemark id="pm2509">
<name><![CDATA[Wergenstein, posta]]></name>
<description><![CDATA[15 connections
]]></description>
<styleUrl>../style/style.kml#station_icon</styleUrl>
<Point>
<coordinates>9.406890,46.626400</coordinates>
</Point>
</Placemark>
</Document>
</kml>
