<?xml version="1.0" encoding="UTF-8"?>
<!-- KML Regionator 303:340M -->
<kml xmlns="http://earth.google.com/kml/2.1">
<Document>
<name>1608 030331</name>
<Region>
<Lod>
<minLodPixels>256</minLodPixels>
<maxLodPixels>-1</maxLodPixels>
</Lod>
<LatLonAltBox>
<north>46.7578125</north>
<south>46.58203125</south>
<east>9.84375</east>
<west>9.66796875</west>
</LatLonAltBox>
</Region>
<NetworkLink>
<name>0303310</name>
<Region>
<Lod>
<minLodPixels>256</minLodPixels>
<maxLodPixels>-1</maxLodPixels>
</Lod>
<LatLonAltBox>
<north>46.7578125</north>
<south>46.669921875</south>
<east>9.755859375</east>
<west>9.66796875</west>
</LatLonAltBox>
</Region>
<Link>
<href>1609.kml</href>
<viewRefreshMode>onRegion</viewRefreshMode>
<viewFormat/>
</Link>
</NetworkLink>
<NetworkLink>
<name>0303311</name>
<Region>
<Lod>
<minLodPixels>256</minLodPixels>
<maxLodPixels>-1</maxLodPixels>
</Lod>
<LatLonAltBox>
<north>46.7578125</north>
<south>46.669921875</south>
<east>9.84375</east>
<west>9.755859375</west>
</LatLonAltBox>
</Region>
<Link>
<href>1610.kml</href>
<viewRefreshMode>onRegion</viewRefreshMode>
<viewFormat/>
</Link>
</NetworkLink>
<NetworkLink>
<name>0303312</name>
<Region>
<Lod>
<minLodPixels>256</minLodPixels>
<maxLodPixels>-1</maxLodPixels>
</Lod>
<LatLonAltBox>
<north>46.669921875</north>
<south>46.58203125</south>
<east>9.755859375</east>
<west>9.66796875</west>
</LatLonAltBox>
</Region>
<Link>
<href>1611.kml</href>
<viewRefreshMode>onRegion</viewRefreshMode>
<viewFormat/>
</Link>
</NetworkLink>
<NetworkLink>
<name>0303313</name>
<Region>
<Lod>
<minLodPixels>256</minLodPixels>
<maxLodPixels>-1</maxLodPixels>
</Lod>
<LatLonAltBox>
<north>46.669921875</north>
<south>46.58203125</south>
<east>9.84375</east>
<west>9.755859375</west>
</LatLonAltBox>
</Region>
<Link>
<href>1612.kml</href>
<viewRefreshMode>onRegion</viewRefreshMode>
<viewFormat/>
</Link>
</NetworkLink>
<Placemark id="pm14843">
<name><![CDATA[Filisur]]></name>
<description><![CDATA[120 connections
]]></description>
<styleUrl>../style/style.kml#station_icon</styleUrl>
<Point>
<coordinates>9.682290,46.675300</coordinates>
</Point>
</Placemark>
<Placemark id="pm15051">
<name><![CDATA[Bergün/Bravuogn]]></name>
<description><![CDATA[91 connections
]]></description>
<styleUrl>../style/style.kml#station_icon</styleUrl>
<Point>
<coordinates>9.746750,46.631100</coordinates>
</Point>
</Placemark>
<Placemark id="pm12058">
<name><![CDATA[Preda]]></name>
<description><![CDATA[89 connections
]]></description>
<styleUrl>../style/style.kml#station_icon</styleUrl>
<Point>
<coordinates>9.777310,46.588100</coordinates>
</Point>
</Placemark>
<Placemark id="pm10180">
<name><![CDATA[Davos Glaris, Bahnhof]]></name>
<description><![CDATA[72 connections
]]></description>
<styleUrl>../style/style.kml#station_icon</styleUrl>
<Point>
<coordinates>9.779740,46.745400</coordinates>
</Point>
</Placemark>
<Placemark id="pm4842">
<name><![CDATA[Davos Glaris]]></name>
<description><![CDATA[60 connections
]]></description>
<styleUrl>../style/style.kml#station_icon</styleUrl>
<Point>
<coordinates>9.779930,46.745600</coordinates>
</Point>
</Placemark>
<Placemark id="pm14541">
<name><![CDATA[Davos Monstein]]></name>
<description><![CDATA[60 connections
]]></description>
<styleUrl>../style/style.kml#station_icon</styleUrl>
<Point>
<coordinates>9.760010,46.715900</coordinates>
</Point>
</Placemark>
<Placemark id="pm1160">
<name><![CDATA[Wiesen]]></name>
<description><![CDATA[60 connections
]]></description>
<styleUrl>../style/style.kml#station_icon</styleUrl>
<Point>
<coordinates>9.715840,46.695500</coordinates>
</Point>
</Placemark>
<Placemark id="pm4632">
<name><![CDATA[Davos Glaris, Mühle]]></name>
<description><![CDATA[48 connections
]]></description>
<styleUrl>../style/style.kml#station_icon</styleUrl>
<Point>
<coordinates>9.783560,46.750500</coordinates>
</Point>
</Placemark>
<Placemark id="pm14950">
<name><![CDATA[Davos Glaris, Ortolfi]]></name>
<description><![CDATA[48 connections
]]></description>
<styleUrl>../style/style.kml#station_icon</styleUrl>
<Point>
<coordinates>9.777540,46.740000</coordinates>
</Point>
</Placemark>
<Placemark id="pm1485">
<name><![CDATA[Davos Glaris, EW]]></name>
<description><![CDATA[48 connections
]]></description>
<styleUrl>../style/style.kml#station_icon</styleUrl>
<Point>
<coordinates>9.776700,46.735800</coordinates>
</Point>
</Placemark>
<Placemark id="pm8253">
<name><![CDATA[Davos Glaris, Ardüsch]]></name>
<description><![CDATA[48 connections
]]></description>
<styleUrl>../style/style.kml#station_icon</styleUrl>
<Point>
<coordinates>9.774570,46.731700</coordinates>
</Point>
</Placemark>
<Placemark id="pm7605">
<name><![CDATA[Davos Monstein, Bahnhof]]></name>
<description><![CDATA[48 connections
]]></description>
<styleUrl>../style/style.kml#station_icon</styleUrl>
<Point>
<coordinates>9.759820,46.716100</coordinates>
</Point>
</Placemark>
<Placemark id="pm4092">
<name><![CDATA[Davos Monstein, Schmelzboden]]></name>
<description><![CDATA[48 connections
]]></description>
<styleUrl>../style/style.kml#station_icon</styleUrl>
<Point>
<coordinates>9.758080,46.713600</coordinates>
</Point>
</Placemark>
<Placemark id="pm4317">
<name><![CDATA[Wiesen GR, Valldanna]]></name>
<description><![CDATA[48 connections
]]></description>
<styleUrl>../style/style.kml#station_icon</styleUrl>
<Point>
<coordinates>9.724570,46.702400</coordinates>
</Point>
</Placemark>
<Placemark id="pm5723">
<name><![CDATA[Wiesen GR, Schluocht]]></name>
<description><![CDATA[48 connections
]]></description>
<styleUrl>../style/style.kml#station_icon</styleUrl>
<Point>
<coordinates>9.714420,46.702100</coordinates>
</Point>
</Placemark>
<Placemark id="pm9223">
<name><![CDATA[Wiesen GR, Post]]></name>
<description><![CDATA[48 connections
]]></description>
<styleUrl>../style/style.kml#station_icon</styleUrl>
<Point>
<coordinates>9.713500,46.703500</coordinates>
</Point>
</Placemark>
</Document>
</kml>
