<?xml version="1.0" encoding="UTF-8"?>
<!-- KML Regionator 303:340M -->
<kml xmlns="http://earth.google.com/kml/2.1">
<Document>
<name>1621 0312</name>
<Region>
<Lod>
<minLodPixels>256</minLodPixels>
<maxLodPixels>-1</maxLodPixels>
</Lod>
<LatLonAltBox>
<north>47.109375</north>
<south>46.40625</south>
<east>10.546875</east>
<west>9.84375</west>
</LatLonAltBox>
</Region>
<NetworkLink>
<name>03120</name>
<Region>
<Lod>
<minLodPixels>256</minLodPixels>
<maxLodPixels>-1</maxLodPixels>
</Lod>
<LatLonAltBox>
<north>47.109375</north>
<south>46.7578125</south>
<east>10.1953125</east>
<west>9.84375</west>
</LatLonAltBox>
</Region>
<Link>
<href>1622.kml</href>
<viewRefreshMode>onRegion</viewRefreshMode>
<viewFormat/>
</Link>
</NetworkLink>
<NetworkLink>
<name>03121</name>
<Region>
<Lod>
<minLodPixels>256</minLodPixels>
<maxLodPixels>-1</maxLodPixels>
</Lod>
<LatLonAltBox>
<north>47.109375</north>
<south>46.7578125</south>
<east>10.546875</east>
<west>10.1953125</west>
</LatLonAltBox>
</Region>
<Link>
<href>1624.kml</href>
<viewRefreshMode>onRegion</viewRefreshMode>
<viewFormat/>
</Link>
</NetworkLink>
<NetworkLink>
<name>03122</name>
<Region>
<Lod>
<minLodPixels>256</minLodPixels>
<maxLodPixels>-1</maxLodPixels>
</Lod>
<LatLonAltBox>
<north>46.7578125</north>
<south>46.40625</south>
<east>10.1953125</east>
<west>9.84375</west>
</LatLonAltBox>
</Region>
<Link>
<href>1631.kml</href>
<viewRefreshMode>onRegion</viewRefreshMode>
<viewFormat/>
</Link>
</NetworkLink>
<NetworkLink>
<name>03123</name>
<Region>
<Lod>
<minLodPixels>256</minLodPixels>
<maxLodPixels>-1</maxLodPixels>
</Lod>
<LatLonAltBox>
<north>46.7578125</north>
<south>46.40625</south>
<east>10.546875</east>
<west>10.1953125</west>
</LatLonAltBox>
</Region>
<Link>
<href>1636.kml</href>
<viewRefreshMode>onRegion</viewRefreshMode>
<viewFormat/>
</Link>
</NetworkLink>
<Placemark id="pm10642">
<name><![CDATA[Guarda]]></name>
<description><![CDATA[172 connections
]]></description>
<styleUrl>../style/style.kml#station_icon</styleUrl>
<Point>
<coordinates>10.150500,46.771500</coordinates>
</Point>
</Placemark>
<Placemark id="pm13714">
<name><![CDATA[Bever]]></name>
<description><![CDATA[166 connections
]]></description>
<styleUrl>../style/style.kml#station_icon</styleUrl>
<Point>
<coordinates>9.888470,46.549900</coordinates>
</Point>
</Placemark>
<Placemark id="pm7309">
<name><![CDATA[Pontresina]]></name>
<description><![CDATA[157 connections
]]></description>
<styleUrl>../style/style.kml#station_icon</styleUrl>
<Point>
<coordinates>9.896070,46.490600</coordinates>
</Point>
</Placemark>
<Placemark id="pm1437">
<name><![CDATA[Klosters Dorf]]></name>
<description><![CDATA[146 connections
]]></description>
<styleUrl>../style/style.kml#station_icon</styleUrl>
<Point>
<coordinates>9.875330,46.883500</coordinates>
</Point>
</Placemark>
<Placemark id="pm14606">
<name><![CDATA[Zuoz]]></name>
<description><![CDATA[144 connections
]]></description>
<styleUrl>../style/style.kml#station_icon</styleUrl>
<Point>
<coordinates>9.961460,46.599900</coordinates>
</Point>
</Placemark>
<Placemark id="pm9363">
<name><![CDATA[La Punt-Chamues-ch]]></name>
<description><![CDATA[142 connections
]]></description>
<styleUrl>../style/style.kml#station_icon</styleUrl>
<Point>
<coordinates>9.923330,46.578700</coordinates>
</Point>
</Placemark>
<Placemark id="pm1595">
<name><![CDATA[Madulain]]></name>
<description><![CDATA[140 connections
]]></description>
<styleUrl>../style/style.kml#station_icon</styleUrl>
<Point>
<coordinates>9.938350,46.587100</coordinates>
</Point>
</Placemark>
<Placemark id="pm11443">
<name><![CDATA[S-chanf]]></name>
<description><![CDATA[138 connections
]]></description>
<styleUrl>../style/style.kml#station_icon</styleUrl>
<Point>
<coordinates>9.981820,46.611900</coordinates>
</Point>
</Placemark>
<Placemark id="pm12595">
<name><![CDATA[Zernez]]></name>
<description><![CDATA[132 connections
]]></description>
<styleUrl>../style/style.kml#station_icon</styleUrl>
<Point>
<coordinates>10.089900,46.697700</coordinates>
</Point>
</Placemark>
<Placemark id="pm6396">
<name><![CDATA[Punt Muragl]]></name>
<description><![CDATA[132 connections
]]></description>
<styleUrl>../style/style.kml#station_icon</styleUrl>
<Point>
<coordinates>9.881190,46.509700</coordinates>
</Point>
</Placemark>
<Placemark id="pm13933">
<name><![CDATA[Susch]]></name>
<description><![CDATA[128 connections
]]></description>
<styleUrl>../style/style.kml#station_icon</styleUrl>
<Point>
<coordinates>10.079300,46.752100</coordinates>
</Point>
</Placemark>
<Placemark id="pm387">
<name><![CDATA[Cinuos-chel-Brail]]></name>
<description><![CDATA[128 connections
]]></description>
<styleUrl>../style/style.kml#station_icon</styleUrl>
<Point>
<coordinates>10.021800,46.638000</coordinates>
</Point>
</Placemark>
<Placemark id="pm12020">
<name><![CDATA[La Punt, vih]]></name>
<description><![CDATA[128 connections
]]></description>
<styleUrl>../style/style.kml#station_icon</styleUrl>
<Point>
<coordinates>9.925540,46.578500</coordinates>
</Point>
</Placemark>
<Placemark id="pm999">
<name><![CDATA[Ftan]]></name>
<description><![CDATA[124 connections
]]></description>
<styleUrl>../style/style.kml#station_icon</styleUrl>
<Point>
<coordinates>10.257700,46.787600</coordinates>
</Point>
</Placemark>
<Placemark id="pm7622">
<name><![CDATA[Celerina]]></name>
<description><![CDATA[114 connections
]]></description>
<styleUrl>../style/style.kml#station_icon</styleUrl>
<Point>
<coordinates>9.858440,46.514000</coordinates>
</Point>
</Placemark>
<Placemark id="pm3860">
<name><![CDATA[Davos Laret]]></name>
<description><![CDATA[112 connections
]]></description>
<styleUrl>../style/style.kml#station_icon</styleUrl>
<Point>
<coordinates>9.871910,46.848100</coordinates>
</Point>
</Placemark>
</Document>
</kml>
