<?xml version="1.0" encoding="UTF-8"?>
<!-- KML Regionator 303:340M -->
<kml xmlns="http://earth.google.com/kml/2.1">
<Document>
<name>1714 0320133</name>
<Region>
<Lod>
<minLodPixels>256</minLodPixels>
<maxLodPixels>-1</maxLodPixels>
</Lod>
<LatLonAltBox>
<north>46.142578125</north>
<south>46.0546875</south>
<east>9.140625</east>
<west>9.052734375</west>
</LatLonAltBox>
</Region>
<Placemark id="pm3687">
<name><![CDATA[Cozzo, Paese]]></name>
<description><![CDATA[62 connections
]]></description>
<styleUrl>../style/style.kml#station_icon</styleUrl>
<Point>
<coordinates>9.063850,46.096500</coordinates>
</Point>
</Placemark>
<Placemark id="pm13176">
<name><![CDATA[Bogno, Cappella di Bogno]]></name>
<description><![CDATA[62 connections
]]></description>
<styleUrl>../style/style.kml#station_icon</styleUrl>
<Point>
<coordinates>9.062400,46.091300</coordinates>
</Point>
</Placemark>
<Placemark id="pm14682">
<name><![CDATA[Bogno, Paese]]></name>
<description><![CDATA[62 connections
]]></description>
<styleUrl>../style/style.kml#station_icon</styleUrl>
<Point>
<coordinates>9.062350,46.089700</coordinates>
</Point>
</Placemark>
<Placemark id="pm6355">
<name><![CDATA[Colla, Chiesa di Colla]]></name>
<description><![CDATA[62 connections
]]></description>
<styleUrl>../style/style.kml#station_icon</styleUrl>
<Point>
<coordinates>9.058160,46.096600</coordinates>
</Point>
</Placemark>
<Placemark id="pm10794">
<name><![CDATA[Colla, Paese]]></name>
<description><![CDATA[62 connections
]]></description>
<styleUrl>../style/style.kml#station_icon</styleUrl>
<Point>
<coordinates>9.054280,46.092200</coordinates>
</Point>
</Placemark>
<Placemark id="pm13354">
<name><![CDATA[Certara, Paese]]></name>
<description><![CDATA[58 connections
]]></description>
<styleUrl>../style/style.kml#station_icon</styleUrl>
<Point>
<coordinates>9.058860,46.085200</coordinates>
</Point>
</Placemark>
<Placemark id="pm8670">
<name><![CDATA[Bogno, Magnan]]></name>
<description><![CDATA[54 connections
]]></description>
<styleUrl>../style/style.kml#station_icon</styleUrl>
<Point>
<coordinates>9.056540,46.089000</coordinates>
</Point>
</Placemark>
</Document>
</kml>
