<?xml version="1.0" encoding="UTF-8"?>
<!-- KML Regionator 303:340M -->
<kml xmlns="http://earth.google.com/kml/2.1">
<Document>
<name>1726 0320301</name>
<Region>
<Lod>
<minLodPixels>256</minLodPixels>
<maxLodPixels>-1</maxLodPixels>
</Lod>
<LatLonAltBox>
<north>46.0546875</north>
<south>45.966796875</south>
<east>8.96484375</east>
<west>8.876953125</west>
</LatLonAltBox>
</Region>
<NetworkLink>
<name>03203010</name>
<Region>
<Lod>
<minLodPixels>256</minLodPixels>
<maxLodPixels>-1</maxLodPixels>
</Lod>
<LatLonAltBox>
<north>46.0546875</north>
<south>46.0107421875</south>
<east>8.9208984375</east>
<west>8.876953125</west>
</LatLonAltBox>
</Region>
<Link>
<href>1727.kml</href>
<viewRefreshMode>onRegion</viewRefreshMode>
<viewFormat/>
</Link>
</NetworkLink>
<NetworkLink>
<name>03203011</name>
<Region>
<Lod>
<minLodPixels>256</minLodPixels>
<maxLodPixels>-1</maxLodPixels>
</Lod>
<LatLonAltBox>
<north>46.0546875</north>
<south>46.0107421875</south>
<east>8.96484375</east>
<west>8.9208984375</west>
</LatLonAltBox>
</Region>
<Link>
<href>1732.kml</href>
<viewRefreshMode>onRegion</viewRefreshMode>
<viewFormat/>
</Link>
</NetworkLink>
<NetworkLink>
<name>03203012</name>
<Region>
<Lod>
<minLodPixels>256</minLodPixels>
<maxLodPixels>-1</maxLodPixels>
</Lod>
<LatLonAltBox>
<north>46.0107421875</north>
<south>45.966796875</south>
<east>8.9208984375</east>
<west>8.876953125</west>
</LatLonAltBox>
</Region>
<Link>
<href>1737.kml</href>
<viewRefreshMode>onRegion</viewRefreshMode>
<viewFormat/>
</Link>
</NetworkLink>
<NetworkLink>
<name>03203013</name>
<Region>
<Lod>
<minLodPixels>256</minLodPixels>
<maxLodPixels>-1</maxLodPixels>
</Lod>
<LatLonAltBox>
<north>46.0107421875</north>
<south>45.966796875</south>
<east>8.96484375</east>
<west>8.9208984375</west>
</LatLonAltBox>
</Region>
<Link>
<href>1742.kml</href>
<viewRefreshMode>onRegion</viewRefreshMode>
<viewFormat/>
</Link>
</NetworkLink>
<Placemark id="pm8044">
<name><![CDATA[Lamone-Cadempino]]></name>
<description><![CDATA[156 connections
]]></description>
<styleUrl>../style/style.kml#station_icon</styleUrl>
<Point>
<coordinates>8.932120,46.039700</coordinates>
</Point>
</Placemark>
<Placemark id="pm14401">
<name><![CDATA[Lugano-Paradiso]]></name>
<description><![CDATA[146 connections
]]></description>
<styleUrl>../style/style.kml#station_icon</styleUrl>
<Point>
<coordinates>8.946250,45.989200</coordinates>
</Point>
</Placemark>
<Placemark id="pm5523">
<name><![CDATA[Canobbio, Cioss]]></name>
<description><![CDATA[138 connections
]]></description>
<styleUrl>../style/style.kml#station_icon</styleUrl>
<Point>
<coordinates>8.964040,46.033100</coordinates>
</Point>
</Placemark>
<Placemark id="pm10380">
<name><![CDATA[Paradiso, Riva Paradiso]]></name>
<description><![CDATA[136 connections
]]></description>
<styleUrl>../style/style.kml#station_icon</styleUrl>
<Point>
<coordinates>8.939600,45.989800</coordinates>
</Point>
</Placemark>
<Placemark id="pm13225">
<name><![CDATA[Breganzona, Crespera]]></name>
<description><![CDATA[134 connections
]]></description>
<styleUrl>../style/style.kml#station_icon</styleUrl>
<Point>
<coordinates>8.931440,46.017100</coordinates>
</Point>
</Placemark>
<Placemark id="pm12300">
<name><![CDATA[Bioggio, Centro Commerciale]]></name>
<description><![CDATA[134 connections
]]></description>
<styleUrl>../style/style.kml#station_icon</styleUrl>
<Point>
<coordinates>8.912810,46.015600</coordinates>
</Point>
</Placemark>
<Placemark id="pm2957">
<name><![CDATA[Lugano, Stazione Piazza Besso]]></name>
<description><![CDATA[128 connections
]]></description>
<styleUrl>../style/style.kml#station_icon</styleUrl>
<Point>
<coordinates>8.944770,46.005800</coordinates>
</Point>
</Placemark>
<Placemark id="pm14765">
<name><![CDATA[Canobbio, Centro Studi]]></name>
<description><![CDATA[127 connections
]]></description>
<styleUrl>../style/style.kml#station_icon</styleUrl>
<Point>
<coordinates>8.950870,46.023900</coordinates>
</Point>
</Placemark>
<Placemark id="pm4635">
<name><![CDATA[Paradiso, La Sguancia]]></name>
<description><![CDATA[120 connections
]]></description>
<styleUrl>../style/style.kml#station_icon</styleUrl>
<Point>
<coordinates>8.938000,45.985900</coordinates>
</Point>
</Placemark>
<Placemark id="pm8382">
<name><![CDATA[Pambio-Noranco, Posta]]></name>
<description><![CDATA[120 connections
]]></description>
<styleUrl>../style/style.kml#station_icon</styleUrl>
<Point>
<coordinates>8.932250,45.985300</coordinates>
</Point>
</Placemark>
<Placemark id="pm3302">
<name><![CDATA[Pambio-Noranco, Bivio Scairolo]]></name>
<description><![CDATA[120 connections
]]></description>
<styleUrl>../style/style.kml#station_icon</styleUrl>
<Point>
<coordinates>8.928680,45.977200</coordinates>
</Point>
</Placemark>
<Placemark id="pm14278">
<name><![CDATA[Paradiso, Debarcadero]]></name>
<description><![CDATA[118 connections
]]></description>
<styleUrl>../style/style.kml#station_icon</styleUrl>
<Point>
<coordinates>8.946660,45.993000</coordinates>
</Point>
</Placemark>
<Placemark id="pm11163">
<name><![CDATA[Origlio, Paese]]></name>
<description><![CDATA[117 connections
]]></description>
<styleUrl>../style/style.kml#station_icon</styleUrl>
<Point>
<coordinates>8.944540,46.054200</coordinates>
</Point>
</Placemark>
<Placemark id="pm8504">
<name><![CDATA[Lugano, Gerra]]></name>
<description><![CDATA[116 connections
]]></description>
<styleUrl>../style/style.kml#station_icon</styleUrl>
<Point>
<coordinates>8.959500,46.022700</coordinates>
</Point>
</Placemark>
<Placemark id="pm9098">
<name><![CDATA[Cadempino, Ronchetto]]></name>
<description><![CDATA[116 connections
]]></description>
<styleUrl>../style/style.kml#station_icon</styleUrl>
<Point>
<coordinates>8.936070,46.030600</coordinates>
</Point>
</Placemark>
<Placemark id="pm14489">
<name><![CDATA[Cadempino, Municipio]]></name>
<description><![CDATA[116 connections
]]></description>
<styleUrl>../style/style.kml#station_icon</styleUrl>
<Point>
<coordinates>8.934460,46.037800</coordinates>
</Point>
</Placemark>
</Document>
</kml>
