<?xml version="1.0" encoding="UTF-8"?>
<!-- KML Regionator 303:340M -->
<kml xmlns="http://earth.google.com/kml/2.1">
<Document>
<name>177 02033211</name>
<Region>
<Lod>
<minLodPixels>256</minLodPixels>
<maxLodPixels>-1</maxLodPixels>
</Lod>
<LatLonAltBox>
<north>46.58203125</north>
<south>46.5380859375</south>
<east>6.85546875</east>
<west>6.8115234375</west>
</LatLonAltBox>
</Region>
<Placemark id="pm6045">
<name><![CDATA[Oron-la-Ville, Pré à l'Abbé]]></name>
<description><![CDATA[46 connections
]]></description>
<styleUrl>../style/style.kml#station_icon</styleUrl>
<Point>
<coordinates>6.831490,46.566900</coordinates>
</Point>
</Placemark>
<Placemark id="pm8473">
<name><![CDATA[Ecoteaux, Platta-Pierraz]]></name>
<description><![CDATA[36 connections
]]></description>
<styleUrl>../style/style.kml#station_icon</styleUrl>
<Point>
<coordinates>6.851290,46.545400</coordinates>
</Point>
</Placemark>
<Placemark id="pm3232">
<name><![CDATA[Oron]]></name>
<description><![CDATA[28 connections
]]></description>
<styleUrl>../style/style.kml#station_icon</styleUrl>
<Point>
<coordinates>6.837100,46.572500</coordinates>
</Point>
</Placemark>
<Placemark id="pm11244">
<name><![CDATA[Oron-la-Ville, collège]]></name>
<description><![CDATA[20 connections
]]></description>
<styleUrl>../style/style.kml#station_icon</styleUrl>
<Point>
<coordinates>6.823930,46.571800</coordinates>
</Point>
</Placemark>
<Placemark id="pm3597">
<name><![CDATA[Palézieux, Zone ind. En Grivaz]]></name>
<description><![CDATA[18 connections
]]></description>
<styleUrl>../style/style.kml#station_icon</styleUrl>
<Point>
<coordinates>6.830410,46.546400</coordinates>
</Point>
</Placemark>
<Placemark id="pm5005">
<name><![CDATA[Palézieux, collège]]></name>
<description><![CDATA[14 connections
]]></description>
<styleUrl>../style/style.kml#station_icon</styleUrl>
<Point>
<coordinates>6.833900,46.555500</coordinates>
</Point>
</Placemark>
</Document>
</kml>
