<?xml version="1.0" encoding="UTF-8"?>
<!-- KML Regionator 303:340M -->
<kml xmlns="http://earth.google.com/kml/2.1">
<Document>
<name>197 02100</name>
<Region>
<Lod>
<minLodPixels>256</minLodPixels>
<maxLodPixels>-1</maxLodPixels>
</Lod>
<LatLonAltBox>
<north>47.8125</north>
<south>47.4609375</south>
<east>7.3828125</east>
<west>7.03125</west>
</LatLonAltBox>
</Region>
<Placemark id="pm4060">
<name><![CDATA[Grandgourt]]></name>
<description><![CDATA[76 connections
]]></description>
<styleUrl>../style/style.kml#station_icon</styleUrl>
<Point>
<coordinates>7.048110,47.469900</coordinates>
</Point>
</Placemark>
<Placemark id="pm5192">
<name><![CDATA[Bonfol]]></name>
<description><![CDATA[32 connections
]]></description>
<styleUrl>../style/style.kml#station_icon</styleUrl>
<Point>
<coordinates>7.155410,47.474000</coordinates>
</Point>
</Placemark>
<Placemark id="pm10145">
<name><![CDATA[Beurnevésin, poste]]></name>
<description><![CDATA[22 connections
]]></description>
<styleUrl>../style/style.kml#station_icon</styleUrl>
<Point>
<coordinates>7.135410,47.495000</coordinates>
</Point>
</Placemark>
<Placemark id="pm2037">
<name><![CDATA[Lugnez, Terrain de football]]></name>
<description><![CDATA[22 connections
]]></description>
<styleUrl>../style/style.kml#station_icon</styleUrl>
<Point>
<coordinates>7.104410,47.486300</coordinates>
</Point>
</Placemark>
<Placemark id="pm1332">
<name><![CDATA[Damphreux, Le Coinat]]></name>
<description><![CDATA[22 connections
]]></description>
<styleUrl>../style/style.kml#station_icon</styleUrl>
<Point>
<coordinates>7.102210,47.478100</coordinates>
</Point>
</Placemark>
<Placemark id="pm13360">
<name><![CDATA[Lugnez, Union]]></name>
<description><![CDATA[22 connections
]]></description>
<styleUrl>../style/style.kml#station_icon</styleUrl>
<Point>
<coordinates>7.101530,47.480900</coordinates>
</Point>
</Placemark>
<Placemark id="pm2387">
<name><![CDATA[Damphreux, Sous la Côte]]></name>
<description><![CDATA[22 connections
]]></description>
<styleUrl>../style/style.kml#station_icon</styleUrl>
<Point>
<coordinates>7.100900,47.475400</coordinates>
</Point>
</Placemark>
<Placemark id="pm4508">
<name><![CDATA[Lugnez, Rauracienne]]></name>
<description><![CDATA[22 connections
]]></description>
<styleUrl>../style/style.kml#station_icon</styleUrl>
<Point>
<coordinates>7.097330,47.484300</coordinates>
</Point>
</Placemark>
<Placemark id="pm4389">
<name><![CDATA[Montignez]]></name>
<description><![CDATA[20 connections
]]></description>
<styleUrl>../style/style.kml#station_icon</styleUrl>
<Point>
<coordinates>7.059030,47.487300</coordinates>
</Point>
</Placemark>
<Placemark id="pm3085">
<name><![CDATA[Beurnevésin, Couronne]]></name>
<description><![CDATA[11 connections
]]></description>
<styleUrl>../style/style.kml#station_icon</styleUrl>
<Point>
<coordinates>7.139410,47.491600</coordinates>
</Point>
</Placemark>
<Placemark id="pm11343">
<name><![CDATA[Grandgourt, gare]]></name>
<description><![CDATA[2 connections
]]></description>
<styleUrl>../style/style.kml#station_icon</styleUrl>
<Point>
<coordinates>7.047670,47.470600</coordinates>
</Point>
</Placemark>
</Document>
</kml>
