<?xml version="1.0" encoding="UTF-8"?>
<!-- KML Regionator 303:340M -->
<kml xmlns="http://earth.google.com/kml/2.1">
<Document>
<name>262 0210301</name>
<Region>
<Lod>
<minLodPixels>256</minLodPixels>
<maxLodPixels>-1</maxLodPixels>
</Lod>
<LatLonAltBox>
<north>47.4609375</north>
<south>47.373046875</south>
<east>7.55859375</east>
<west>7.470703125</west>
</LatLonAltBox>
</Region>
<NetworkLink>
<name>02103010</name>
<Region>
<Lod>
<minLodPixels>256</minLodPixels>
<maxLodPixels>-1</maxLodPixels>
</Lod>
<LatLonAltBox>
<north>47.4609375</north>
<south>47.4169921875</south>
<east>7.5146484375</east>
<west>7.470703125</west>
</LatLonAltBox>
</Region>
<Link>
<href>263.kml</href>
<viewRefreshMode>onRegion</viewRefreshMode>
<viewFormat/>
</Link>
</NetworkLink>
<NetworkLink>
<name>02103011</name>
<Region>
<Lod>
<minLodPixels>256</minLodPixels>
<maxLodPixels>-1</maxLodPixels>
</Lod>
<LatLonAltBox>
<north>47.4609375</north>
<south>47.4169921875</south>
<east>7.55859375</east>
<west>7.5146484375</west>
</LatLonAltBox>
</Region>
<Link>
<href>264.kml</href>
<viewRefreshMode>onRegion</viewRefreshMode>
<viewFormat/>
</Link>
</NetworkLink>
<NetworkLink>
<name>02103012</name>
<Region>
<Lod>
<minLodPixels>256</minLodPixels>
<maxLodPixels>-1</maxLodPixels>
</Lod>
<LatLonAltBox>
<north>47.4169921875</north>
<south>47.373046875</south>
<east>7.5146484375</east>
<west>7.470703125</west>
</LatLonAltBox>
</Region>
<Link>
<href>265.kml</href>
<viewRefreshMode>onRegion</viewRefreshMode>
<viewFormat/>
</Link>
</NetworkLink>
<NetworkLink>
<name>02103013</name>
<Region>
<Lod>
<minLodPixels>256</minLodPixels>
<maxLodPixels>-1</maxLodPixels>
</Lod>
<LatLonAltBox>
<north>47.4169921875</north>
<south>47.373046875</south>
<east>7.55859375</east>
<west>7.5146484375</west>
</LatLonAltBox>
</Region>
<Link>
<href>266.kml</href>
<viewRefreshMode>onRegion</viewRefreshMode>
<viewFormat/>
</Link>
</NetworkLink>
<Placemark id="pm1422">
<name><![CDATA[Laufen, Katholische Kirche]]></name>
<description><![CDATA[198 connections
]]></description>
<styleUrl>../style/style.kml#station_icon</styleUrl>
<Point>
<coordinates>7.498270,47.421500</coordinates>
</Point>
</Placemark>
<Placemark id="pm6710">
<name><![CDATA[Laufen, Bromberg]]></name>
<description><![CDATA[198 connections
]]></description>
<styleUrl>../style/style.kml#station_icon</styleUrl>
<Point>
<coordinates>7.491650,47.422600</coordinates>
</Point>
</Placemark>
<Placemark id="pm6529">
<name><![CDATA[Röschenz, Unterdorf]]></name>
<description><![CDATA[198 connections
]]></description>
<styleUrl>../style/style.kml#station_icon</styleUrl>
<Point>
<coordinates>7.479720,47.423300</coordinates>
</Point>
</Placemark>
<Placemark id="pm557">
<name><![CDATA[Röschenz, Dorfplatz]]></name>
<description><![CDATA[198 connections
]]></description>
<styleUrl>../style/style.kml#station_icon</styleUrl>
<Point>
<coordinates>7.476080,47.424700</coordinates>
</Point>
</Placemark>
<Placemark id="pm8309">
<name><![CDATA[Zwingen, Schulhaus]]></name>
<description><![CDATA[173 connections
]]></description>
<styleUrl>../style/style.kml#station_icon</styleUrl>
<Point>
<coordinates>7.530770,47.436800</coordinates>
</Point>
</Placemark>
<Placemark id="pm8202">
<name><![CDATA[Zwingen]]></name>
<description><![CDATA[168 connections
]]></description>
<styleUrl>../style/style.kml#station_icon</styleUrl>
<Point>
<coordinates>7.530470,47.433800</coordinates>
</Point>
</Placemark>
<Placemark id="pm13398">
<name><![CDATA[Bärschwil, Bahnhof]]></name>
<description><![CDATA[166 connections
]]></description>
<styleUrl>../style/style.kml#station_icon</styleUrl>
<Point>
<coordinates>7.476390,47.401300</coordinates>
</Point>
</Placemark>
<Placemark id="pm13072">
<name><![CDATA[Laufen, Delsbergerstrasse]]></name>
<description><![CDATA[160 connections
]]></description>
<styleUrl>../style/style.kml#station_icon</styleUrl>
<Point>
<coordinates>7.499060,47.418800</coordinates>
</Point>
</Placemark>
<Placemark id="pm7871">
<name><![CDATA[Breitenbach, Ebne]]></name>
<description><![CDATA[154 connections
]]></description>
<styleUrl>../style/style.kml#station_icon</styleUrl>
<Point>
<coordinates>7.544300,47.410700</coordinates>
</Point>
</Placemark>
<Placemark id="pm11442">
<name><![CDATA[Brislach, Oberdorf]]></name>
<description><![CDATA[154 connections
]]></description>
<styleUrl>../style/style.kml#station_icon</styleUrl>
<Point>
<coordinates>7.542990,47.415900</coordinates>
</Point>
</Placemark>
<Placemark id="pm4914">
<name><![CDATA[Brislach, Post]]></name>
<description><![CDATA[154 connections
]]></description>
<styleUrl>../style/style.kml#station_icon</styleUrl>
<Point>
<coordinates>7.542660,47.419000</coordinates>
</Point>
</Placemark>
<Placemark id="pm9346">
<name><![CDATA[Brislach, Lärchenweg]]></name>
<description><![CDATA[154 connections
]]></description>
<styleUrl>../style/style.kml#station_icon</styleUrl>
<Point>
<coordinates>7.538700,47.425100</coordinates>
</Point>
</Placemark>
<Placemark id="pm7239">
<name><![CDATA[Zwingen, Bahnhof]]></name>
<description><![CDATA[153 connections
]]></description>
<styleUrl>../style/style.kml#station_icon</styleUrl>
<Point>
<coordinates>7.530430,47.433600</coordinates>
</Point>
</Placemark>
<Placemark id="pm2678">
<name><![CDATA[Breitenbach, Oberdorf]]></name>
<description><![CDATA[150 connections
]]></description>
<styleUrl>../style/style.kml#station_icon</styleUrl>
<Point>
<coordinates>7.548270,47.406600</coordinates>
</Point>
</Placemark>
<Placemark id="pm14349">
<name><![CDATA[Erschwil, Post]]></name>
<description><![CDATA[140 connections
]]></description>
<styleUrl>../style/style.kml#station_icon</styleUrl>
<Point>
<coordinates>7.541910,47.373400</coordinates>
</Point>
</Placemark>
<Placemark id="pm1306">
<name><![CDATA[Wahlen b. Laufen, Post]]></name>
<description><![CDATA[112 connections
]]></description>
<styleUrl>../style/style.kml#station_icon</styleUrl>
<Point>
<coordinates>7.514810,47.401700</coordinates>
</Point>
</Placemark>
</Document>
</kml>
