<?xml version="1.0" encoding="UTF-8"?>
<!-- KML Regionator 303:340M -->
<kml xmlns="http://earth.google.com/kml/2.1">
<Document>
<name>323 021103</name>
<Region>
<Lod>
<minLodPixels>256</minLodPixels>
<maxLodPixels>-1</maxLodPixels>
</Lod>
<LatLonAltBox>
<north>47.63671875</north>
<south>47.4609375</south>
<east>8.0859375</east>
<west>7.91015625</west>
</LatLonAltBox>
</Region>
<NetworkLink>
<name>0211030</name>
<Region>
<Lod>
<minLodPixels>256</minLodPixels>
<maxLodPixels>-1</maxLodPixels>
</Lod>
<LatLonAltBox>
<north>47.63671875</north>
<south>47.548828125</south>
<east>7.998046875</east>
<west>7.91015625</west>
</LatLonAltBox>
</Region>
<Link>
<href>324.kml</href>
<viewRefreshMode>onRegion</viewRefreshMode>
<viewFormat/>
</Link>
</NetworkLink>
<NetworkLink>
<name>0211031</name>
<Region>
<Lod>
<minLodPixels>256</minLodPixels>
<maxLodPixels>-1</maxLodPixels>
</Lod>
<LatLonAltBox>
<north>47.63671875</north>
<south>47.548828125</south>
<east>8.0859375</east>
<west>7.998046875</west>
</LatLonAltBox>
</Region>
<Link>
<href>325.kml</href>
<viewRefreshMode>onRegion</viewRefreshMode>
<viewFormat/>
</Link>
</NetworkLink>
<NetworkLink>
<name>0211032</name>
<Region>
<Lod>
<minLodPixels>256</minLodPixels>
<maxLodPixels>-1</maxLodPixels>
</Lod>
<LatLonAltBox>
<north>47.548828125</north>
<south>47.4609375</south>
<east>7.998046875</east>
<west>7.91015625</west>
</LatLonAltBox>
</Region>
<Link>
<href>326.kml</href>
<viewRefreshMode>onRegion</viewRefreshMode>
<viewFormat/>
</Link>
</NetworkLink>
<NetworkLink>
<name>0211033</name>
<Region>
<Lod>
<minLodPixels>256</minLodPixels>
<maxLodPixels>-1</maxLodPixels>
</Lod>
<LatLonAltBox>
<north>47.548828125</north>
<south>47.4609375</south>
<east>8.0859375</east>
<west>7.998046875</west>
</LatLonAltBox>
</Region>
<Link>
<href>328.kml</href>
<viewRefreshMode>onRegion</viewRefreshMode>
<viewFormat/>
</Link>
</NetworkLink>
<Placemark id="pm10949">
<name><![CDATA[Herznach, Post]]></name>
<description><![CDATA[235 connections
]]></description>
<styleUrl>../style/style.kml#station_icon</styleUrl>
<Point>
<coordinates>8.050830,47.474500</coordinates>
</Point>
</Placemark>
<Placemark id="pm3079">
<name><![CDATA[Kaisten, Weidstrasse]]></name>
<description><![CDATA[220 connections
]]></description>
<styleUrl>../style/style.kml#station_icon</styleUrl>
<Point>
<coordinates>8.044650,47.543200</coordinates>
</Point>
</Placemark>
<Placemark id="pm7633">
<name><![CDATA[Frick, Neumatt]]></name>
<description><![CDATA[202 connections
]]></description>
<styleUrl>../style/style.kml#station_icon</styleUrl>
<Point>
<coordinates>8.023360,47.509500</coordinates>
</Point>
</Placemark>
<Placemark id="pm14044">
<name><![CDATA[Frick, Ebnet]]></name>
<description><![CDATA[198 connections
]]></description>
<styleUrl>../style/style.kml#station_icon</styleUrl>
<Point>
<coordinates>8.012010,47.503100</coordinates>
</Point>
</Placemark>
<Placemark id="pm3321">
<name><![CDATA[Gipf-Oberfrick, Brücke]]></name>
<description><![CDATA[198 connections
]]></description>
<styleUrl>../style/style.kml#station_icon</styleUrl>
<Point>
<coordinates>8.005340,47.500000</coordinates>
</Point>
</Placemark>
<Placemark id="pm3326">
<name><![CDATA[Gipf-Oberfrick, alte Post]]></name>
<description><![CDATA[198 connections
]]></description>
<styleUrl>../style/style.kml#station_icon</styleUrl>
<Point>
<coordinates>8.000990,47.496400</coordinates>
</Point>
</Placemark>
<Placemark id="pm8977">
<name><![CDATA[Gipf-Oberfrick, Rösslibrücke]]></name>
<description><![CDATA[198 connections
]]></description>
<styleUrl>../style/style.kml#station_icon</styleUrl>
<Point>
<coordinates>7.999300,47.493700</coordinates>
</Point>
</Placemark>
<Placemark id="pm4492">
<name><![CDATA[Frick]]></name>
<description><![CDATA[196 connections
]]></description>
<styleUrl>../style/style.kml#station_icon</styleUrl>
<Point>
<coordinates>8.013080,47.507400</coordinates>
</Point>
</Placemark>
<Placemark id="pm12029">
<name><![CDATA[Wölflinswil, Post]]></name>
<description><![CDATA[190 connections
]]></description>
<styleUrl>../style/style.kml#station_icon</styleUrl>
<Point>
<coordinates>7.998290,47.461100</coordinates>
</Point>
</Placemark>
<Placemark id="pm11716">
<name><![CDATA[Wölflinswil, Unterdorf]]></name>
<description><![CDATA[190 connections
]]></description>
<styleUrl>../style/style.kml#station_icon</styleUrl>
<Point>
<coordinates>7.995680,47.464900</coordinates>
</Point>
</Placemark>
<Placemark id="pm7537">
<name><![CDATA[Stein AG, Zürcherstrasse]]></name>
<description><![CDATA[184 connections
]]></description>
<styleUrl>../style/style.kml#station_icon</styleUrl>
<Point>
<coordinates>7.955310,47.541300</coordinates>
</Point>
</Placemark>
<Placemark id="pm81">
<name><![CDATA[Wittnau, Post]]></name>
<description><![CDATA[176 connections
]]></description>
<styleUrl>../style/style.kml#station_icon</styleUrl>
<Point>
<coordinates>7.978270,47.481200</coordinates>
</Point>
</Placemark>
<Placemark id="pm154">
<name><![CDATA[Hornussen, Oberdorf]]></name>
<description><![CDATA[172 connections
]]></description>
<styleUrl>../style/style.kml#station_icon</styleUrl>
<Point>
<coordinates>8.066380,47.499400</coordinates>
</Point>
</Placemark>
<Placemark id="pm13899">
<name><![CDATA[Wittnau, Obere Gasse]]></name>
<description><![CDATA[172 connections
]]></description>
<styleUrl>../style/style.kml#station_icon</styleUrl>
<Point>
<coordinates>7.969940,47.477200</coordinates>
</Point>
</Placemark>
<Placemark id="pm4">
<name><![CDATA[Wegenstetten, Abzw. Schupfart]]></name>
<description><![CDATA[172 connections
]]></description>
<styleUrl>../style/style.kml#station_icon</styleUrl>
<Point>
<coordinates>7.934010,47.500500</coordinates>
</Point>
</Placemark>
<Placemark id="pm9031">
<name><![CDATA[Wegenstetten, Alte Post]]></name>
<description><![CDATA[172 connections
]]></description>
<styleUrl>../style/style.kml#station_icon</styleUrl>
<Point>
<coordinates>7.932660,47.498300</coordinates>
</Point>
</Placemark>
</Document>
</kml>
