<?xml version="1.0" encoding="UTF-8"?>
<!-- KML Regionator 303:340M -->
<kml xmlns="http://earth.google.com/kml/2.1">
<Document>
<name>326 0211032</name>
<Region>
<Lod>
<minLodPixels>256</minLodPixels>
<maxLodPixels>-1</maxLodPixels>
</Lod>
<LatLonAltBox>
<north>47.548828125</north>
<south>47.4609375</south>
<east>7.998046875</east>
<west>7.91015625</west>
</LatLonAltBox>
</Region>
<NetworkLink>
<name>02110321</name>
<Region>
<Lod>
<minLodPixels>256</minLodPixels>
<maxLodPixels>-1</maxLodPixels>
</Lod>
<LatLonAltBox>
<north>47.548828125</north>
<south>47.5048828125</south>
<east>7.998046875</east>
<west>7.9541015625</west>
</LatLonAltBox>
</Region>
<Link>
<href>327.kml</href>
<viewRefreshMode>onRegion</viewRefreshMode>
<viewFormat/>
</Link>
</NetworkLink>
<Placemark id="pm11258">
<name><![CDATA[Hellikon, Ausserdorf]]></name>
<description><![CDATA[172 connections
]]></description>
<styleUrl>../style/style.kml#station_icon</styleUrl>
<Point>
<coordinates>7.927420,47.505900</coordinates>
</Point>
</Placemark>
<Placemark id="pm9070">
<name><![CDATA[Hellikon, Post]]></name>
<description><![CDATA[172 connections
]]></description>
<styleUrl>../style/style.kml#station_icon</styleUrl>
<Point>
<coordinates>7.924470,47.509300</coordinates>
</Point>
</Placemark>
<Placemark id="pm14221">
<name><![CDATA[Zuzgen, M체hle]]></name>
<description><![CDATA[172 connections
]]></description>
<styleUrl>../style/style.kml#station_icon</styleUrl>
<Point>
<coordinates>7.910950,47.519900</coordinates>
</Point>
</Placemark>
<Placemark id="pm9955">
<name><![CDATA[Mumpf, Dorf]]></name>
<description><![CDATA[158 connections
]]></description>
<styleUrl>../style/style.kml#station_icon</styleUrl>
<Point>
<coordinates>7.922800,47.545500</coordinates>
</Point>
</Placemark>
<Placemark id="pm11841">
<name><![CDATA[Schupfart, M체hle]]></name>
<description><![CDATA[154 connections
]]></description>
<styleUrl>../style/style.kml#station_icon</styleUrl>
<Point>
<coordinates>7.950810,47.522200</coordinates>
</Point>
</Placemark>
<Placemark id="pm9455">
<name><![CDATA[Obermumpf, Ausserdorf]]></name>
<description><![CDATA[154 connections
]]></description>
<styleUrl>../style/style.kml#station_icon</styleUrl>
<Point>
<coordinates>7.937920,47.529000</coordinates>
</Point>
</Placemark>
<Placemark id="pm7384">
<name><![CDATA[Obermumpf, Post]]></name>
<description><![CDATA[154 connections
]]></description>
<styleUrl>../style/style.kml#station_icon</styleUrl>
<Point>
<coordinates>7.934630,47.531800</coordinates>
</Point>
</Placemark>
<Placemark id="pm2969">
<name><![CDATA[Obermumpf, B체ndtematt]]></name>
<description><![CDATA[154 connections
]]></description>
<styleUrl>../style/style.kml#station_icon</styleUrl>
<Point>
<coordinates>7.930670,47.534300</coordinates>
</Point>
</Placemark>
<Placemark id="pm5609">
<name><![CDATA[Mumpf, Ankengasse]]></name>
<description><![CDATA[154 connections
]]></description>
<styleUrl>../style/style.kml#station_icon</styleUrl>
<Point>
<coordinates>7.922130,47.544000</coordinates>
</Point>
</Placemark>
<Placemark id="pm4130">
<name><![CDATA[Mumpf, Bahnhof]]></name>
<description><![CDATA[144 connections
]]></description>
<styleUrl>../style/style.kml#station_icon</styleUrl>
<Point>
<coordinates>7.910870,47.547400</coordinates>
</Point>
</Placemark>
<Placemark id="pm14343">
<name><![CDATA[Stein AG, Coop]]></name>
<description><![CDATA[132 connections
]]></description>
<styleUrl>../style/style.kml#station_icon</styleUrl>
<Point>
<coordinates>7.951700,47.546300</coordinates>
</Point>
</Placemark>
<Placemark id="pm7690">
<name><![CDATA[Rothenfluh, Post]]></name>
<description><![CDATA[108 connections
]]></description>
<styleUrl>../style/style.kml#station_icon</styleUrl>
<Point>
<coordinates>7.914410,47.461200</coordinates>
</Point>
</Placemark>
<Placemark id="pm2191">
<name><![CDATA[Wegenstetten, Post]]></name>
<description><![CDATA[99 connections
]]></description>
<styleUrl>../style/style.kml#station_icon</styleUrl>
<Point>
<coordinates>7.930320,47.496900</coordinates>
</Point>
</Placemark>
<Placemark id="pm5897">
<name><![CDATA[Eiken]]></name>
<description><![CDATA[96 connections
]]></description>
<styleUrl>../style/style.kml#station_icon</styleUrl>
<Point>
<coordinates>7.989780,47.533100</coordinates>
</Point>
</Placemark>
<Placemark id="pm5689">
<name><![CDATA[Stein-S채ckingen, Bahnhof]]></name>
<description><![CDATA[92 connections
]]></description>
<styleUrl>../style/style.kml#station_icon</styleUrl>
<Point>
<coordinates>7.949330,47.541600</coordinates>
</Point>
</Placemark>
<Placemark id="pm12545">
<name><![CDATA[Hellikon, Unterdorf]]></name>
<description><![CDATA[88 connections
]]></description>
<styleUrl>../style/style.kml#station_icon</styleUrl>
<Point>
<coordinates>7.922160,47.511400</coordinates>
</Point>
</Placemark>
</Document>
</kml>
