<?xml version="1.0" encoding="UTF-8"?>
<!-- KML Regionator 303:340M -->
<kml xmlns="http://earth.google.com/kml/2.1">
<Document>
<name>344 0211123</name>
<Region>
<Lod>
<minLodPixels>256</minLodPixels>
<maxLodPixels>-1</maxLodPixels>
</Lod>
<LatLonAltBox>
<north>47.548828125</north>
<south>47.4609375</south>
<east>8.26171875</east>
<west>8.173828125</west>
</LatLonAltBox>
</Region>
<NetworkLink>
<name>02111230</name>
<Region>
<Lod>
<minLodPixels>256</minLodPixels>
<maxLodPixels>-1</maxLodPixels>
</Lod>
<LatLonAltBox>
<north>47.548828125</north>
<south>47.5048828125</south>
<east>8.2177734375</east>
<west>8.173828125</west>
</LatLonAltBox>
</Region>
<Link>
<href>345.kml</href>
<viewRefreshMode>onRegion</viewRefreshMode>
<viewFormat/>
</Link>
</NetworkLink>
<NetworkLink>
<name>02111231</name>
<Region>
<Lod>
<minLodPixels>256</minLodPixels>
<maxLodPixels>-1</maxLodPixels>
</Lod>
<LatLonAltBox>
<north>47.548828125</north>
<south>47.5048828125</south>
<east>8.26171875</east>
<west>8.2177734375</west>
</LatLonAltBox>
</Region>
<Link>
<href>346.kml</href>
<viewRefreshMode>onRegion</viewRefreshMode>
<viewFormat/>
</Link>
</NetworkLink>
<NetworkLink>
<name>02111232</name>
<Region>
<Lod>
<minLodPixels>256</minLodPixels>
<maxLodPixels>-1</maxLodPixels>
</Lod>
<LatLonAltBox>
<north>47.5048828125</north>
<south>47.4609375</south>
<east>8.2177734375</east>
<west>8.173828125</west>
</LatLonAltBox>
</Region>
<Link>
<href>347.kml</href>
<viewRefreshMode>onRegion</viewRefreshMode>
<viewFormat/>
</Link>
</NetworkLink>
<NetworkLink>
<name>02111233</name>
<Region>
<Lod>
<minLodPixels>256</minLodPixels>
<maxLodPixels>-1</maxLodPixels>
</Lod>
<LatLonAltBox>
<north>47.5048828125</north>
<south>47.4609375</south>
<east>8.26171875</east>
<west>8.2177734375</west>
</LatLonAltBox>
</Region>
<Link>
<href>348.kml</href>
<viewRefreshMode>onRegion</viewRefreshMode>
<viewFormat/>
</Link>
</NetworkLink>
<Placemark id="pm7145">
<name><![CDATA[Villigen, PSI West]]></name>
<description><![CDATA[286 connections
]]></description>
<styleUrl>../style/style.kml#station_icon</styleUrl>
<Point>
<coordinates>8.222250,47.538900</coordinates>
</Point>
</Placemark>
<Placemark id="pm3724">
<name><![CDATA[Untersiggenthal, Mühleweg]]></name>
<description><![CDATA[274 connections
]]></description>
<styleUrl>../style/style.kml#station_icon</styleUrl>
<Point>
<coordinates>8.253190,47.499600</coordinates>
</Point>
</Placemark>
<Placemark id="pm14120">
<name><![CDATA[Turgi, Bahnhof]]></name>
<description><![CDATA[272 connections
]]></description>
<styleUrl>../style/style.kml#station_icon</styleUrl>
<Point>
<coordinates>8.253410,47.492400</coordinates>
</Point>
</Placemark>
<Placemark id="pm12367">
<name><![CDATA[Lauffohr, Dorf]]></name>
<description><![CDATA[259 connections
]]></description>
<styleUrl>../style/style.kml#station_icon</styleUrl>
<Point>
<coordinates>8.233650,47.502200</coordinates>
</Point>
</Placemark>
<Placemark id="pm774">
<name><![CDATA[Remigen, Post]]></name>
<description><![CDATA[245 connections
]]></description>
<styleUrl>../style/style.kml#station_icon</styleUrl>
<Point>
<coordinates>8.189370,47.515300</coordinates>
</Point>
</Placemark>
<Placemark id="pm6143">
<name><![CDATA[Würenlingen, Weissenstein]]></name>
<description><![CDATA[236 connections
]]></description>
<styleUrl>../style/style.kml#station_icon</styleUrl>
<Point>
<coordinates>8.247280,47.525300</coordinates>
</Point>
</Placemark>
<Placemark id="pm6278">
<name><![CDATA[Hausen AG, Turnhalle]]></name>
<description><![CDATA[220 connections
]]></description>
<styleUrl>../style/style.kml#station_icon</styleUrl>
<Point>
<coordinates>8.211530,47.464400</coordinates>
</Point>
</Placemark>
<Placemark id="pm7281">
<name><![CDATA[Windisch, Weiermatt]]></name>
<description><![CDATA[220 connections
]]></description>
<styleUrl>../style/style.kml#station_icon</styleUrl>
<Point>
<coordinates>8.211310,47.471600</coordinates>
</Point>
</Placemark>
<Placemark id="pm6974">
<name><![CDATA[Windisch, Garage Knecht]]></name>
<description><![CDATA[220 connections
]]></description>
<styleUrl>../style/style.kml#station_icon</styleUrl>
<Point>
<coordinates>8.211260,47.468400</coordinates>
</Point>
</Placemark>
<Placemark id="pm14001">
<name><![CDATA[Siggenthal-W., Bahnhof]]></name>
<description><![CDATA[216 connections
]]></description>
<styleUrl>../style/style.kml#station_icon</styleUrl>
<Point>
<coordinates>8.241200,47.518600</coordinates>
</Point>
</Placemark>
<Placemark id="pm3541">
<name><![CDATA[Villigen, PSI Ost]]></name>
<description><![CDATA[209 connections
]]></description>
<styleUrl>../style/style.kml#station_icon</styleUrl>
<Point>
<coordinates>8.230220,47.538900</coordinates>
</Point>
</Placemark>
<Placemark id="pm1532">
<name><![CDATA[Umiken, Kirche]]></name>
<description><![CDATA[188 connections
]]></description>
<styleUrl>../style/style.kml#station_icon</styleUrl>
<Point>
<coordinates>8.189910,47.482500</coordinates>
</Point>
</Placemark>
<Placemark id="pm6197">
<name><![CDATA[Brugg AG, Eisi]]></name>
<description><![CDATA[184 connections
]]></description>
<styleUrl>../style/style.kml#station_icon</styleUrl>
<Point>
<coordinates>8.206840,47.484000</coordinates>
</Point>
</Placemark>
<Placemark id="pm13704">
<name><![CDATA[Würenlingen, Sonne]]></name>
<description><![CDATA[172 connections
]]></description>
<styleUrl>../style/style.kml#station_icon</styleUrl>
<Point>
<coordinates>8.253700,47.533100</coordinates>
</Point>
</Placemark>
<Placemark id="pm13133">
<name><![CDATA[Gebenstorf, Gemeindehaus]]></name>
<description><![CDATA[172 connections
]]></description>
<styleUrl>../style/style.kml#station_icon</styleUrl>
<Point>
<coordinates>8.243780,47.487100</coordinates>
</Point>
</Placemark>
<Placemark id="pm7164">
<name><![CDATA[Gebenstorf, Vogelsang]]></name>
<description><![CDATA[172 connections
]]></description>
<styleUrl>../style/style.kml#station_icon</styleUrl>
<Point>
<coordinates>8.242540,47.492800</coordinates>
</Point>
</Placemark>
</Document>
</kml>
