<?xml version="1.0" encoding="UTF-8"?>
<!-- KML Regionator 303:340M -->
<kml xmlns="http://earth.google.com/kml/2.1">
<Document>
<name>38 020303</name>
<Region>
<Lod>
<minLodPixels>256</minLodPixels>
<maxLodPixels>-1</maxLodPixels>
</Lod>
<LatLonAltBox>
<north>46.93359375</north>
<south>46.7578125</south>
<east>6.6796875</east>
<west>6.50390625</west>
</LatLonAltBox>
</Region>
<NetworkLink>
<name>0203030</name>
<Region>
<Lod>
<minLodPixels>256</minLodPixels>
<maxLodPixels>-1</maxLodPixels>
</Lod>
<LatLonAltBox>
<north>46.93359375</north>
<south>46.845703125</south>
<east>6.591796875</east>
<west>6.50390625</west>
</LatLonAltBox>
</Region>
<Link>
<href>39.kml</href>
<viewRefreshMode>onRegion</viewRefreshMode>
<viewFormat/>
</Link>
</NetworkLink>
<NetworkLink>
<name>0203031</name>
<Region>
<Lod>
<minLodPixels>256</minLodPixels>
<maxLodPixels>-1</maxLodPixels>
</Lod>
<LatLonAltBox>
<north>46.93359375</north>
<south>46.845703125</south>
<east>6.6796875</east>
<west>6.591796875</west>
</LatLonAltBox>
</Region>
<Link>
<href>40.kml</href>
<viewRefreshMode>onRegion</viewRefreshMode>
<viewFormat/>
</Link>
</NetworkLink>
<NetworkLink>
<name>0203032</name>
<Region>
<Lod>
<minLodPixels>256</minLodPixels>
<maxLodPixels>-1</maxLodPixels>
</Lod>
<LatLonAltBox>
<north>46.845703125</north>
<south>46.7578125</south>
<east>6.591796875</east>
<west>6.50390625</west>
</LatLonAltBox>
</Region>
<Link>
<href>45.kml</href>
<viewRefreshMode>onRegion</viewRefreshMode>
<viewFormat/>
</Link>
</NetworkLink>
<NetworkLink>
<name>0203033</name>
<Region>
<Lod>
<minLodPixels>256</minLodPixels>
<maxLodPixels>-1</maxLodPixels>
</Lod>
<LatLonAltBox>
<north>46.845703125</north>
<south>46.7578125</south>
<east>6.6796875</east>
<west>6.591796875</west>
</LatLonAltBox>
</Region>
<Link>
<href>49.kml</href>
<viewRefreshMode>onRegion</viewRefreshMode>
<viewFormat/>
</Link>
</NetworkLink>
<Placemark id="pm1237">
<name><![CDATA[Yverdon, Calamin]]></name>
<description><![CDATA[122 connections
]]></description>
<styleUrl>../style/style.kml#station_icon</styleUrl>
<Point>
<coordinates>6.653250,46.768900</coordinates>
</Point>
</Placemark>
<Placemark id="pm4819">
<name><![CDATA[Grandson, Corcelettes]]></name>
<description><![CDATA[120 connections
]]></description>
<styleUrl>../style/style.kml#station_icon</styleUrl>
<Point>
<coordinates>6.661020,46.820200</coordinates>
</Point>
</Placemark>
<Placemark id="pm15080">
<name><![CDATA[Pomy, Centre ORIPH]]></name>
<description><![CDATA[120 connections
]]></description>
<styleUrl>../style/style.kml#station_icon</styleUrl>
<Point>
<coordinates>6.655480,46.764400</coordinates>
</Point>
</Placemark>
<Placemark id="pm6169">
<name><![CDATA[Fleurier]]></name>
<description><![CDATA[111 connections
]]></description>
<styleUrl>../style/style.kml#station_icon</styleUrl>
<Point>
<coordinates>6.581590,46.904900</coordinates>
</Point>
</Placemark>
<Placemark id="pm357">
<name><![CDATA[Couvet]]></name>
<description><![CDATA[110 connections
]]></description>
<styleUrl>../style/style.kml#station_icon</styleUrl>
<Point>
<coordinates>6.635670,46.923400</coordinates>
</Point>
</Placemark>
<Placemark id="pm314">
<name><![CDATA[Môtiers]]></name>
<description><![CDATA[110 connections
]]></description>
<styleUrl>../style/style.kml#station_icon</styleUrl>
<Point>
<coordinates>6.610340,46.911900</coordinates>
</Point>
</Placemark>
<Placemark id="pm1914">
<name><![CDATA[Bonvillars, La Cour]]></name>
<description><![CDATA[102 connections
]]></description>
<styleUrl>../style/style.kml#station_icon</styleUrl>
<Point>
<coordinates>6.668380,46.837200</coordinates>
</Point>
</Placemark>
<Placemark id="pm13444">
<name><![CDATA[Bonvillars, Flusel]]></name>
<description><![CDATA[102 connections
]]></description>
<styleUrl>../style/style.kml#station_icon</styleUrl>
<Point>
<coordinates>6.664620,46.834200</coordinates>
</Point>
</Placemark>
<Placemark id="pm1988">
<name><![CDATA[Champagne, La Nationale]]></name>
<description><![CDATA[102 connections
]]></description>
<styleUrl>../style/style.kml#station_icon</styleUrl>
<Point>
<coordinates>6.660280,46.826500</coordinates>
</Point>
</Placemark>
<Placemark id="pm6917">
<name><![CDATA[Champagne, collège]]></name>
<description><![CDATA[102 connections
]]></description>
<styleUrl>../style/style.kml#station_icon</styleUrl>
<Point>
<coordinates>6.659160,46.831500</coordinates>
</Point>
</Placemark>
<Placemark id="pm4977">
<name><![CDATA[Bonvillars, village]]></name>
<description><![CDATA[98 connections
]]></description>
<styleUrl>../style/style.kml#station_icon</styleUrl>
<Point>
<coordinates>6.671440,46.838600</coordinates>
</Point>
</Placemark>
<Placemark id="pm633">
<name><![CDATA[Yverdon, Quai de la Thielle]]></name>
<description><![CDATA[96 connections
]]></description>
<styleUrl>../style/style.kml#station_icon</styleUrl>
<Point>
<coordinates>6.636560,46.782100</coordinates>
</Point>
</Placemark>
<Placemark id="pm6025">
<name><![CDATA[Yverdon, Condémines]]></name>
<description><![CDATA[94 connections
]]></description>
<styleUrl>../style/style.kml#station_icon</styleUrl>
<Point>
<coordinates>6.650870,46.766400</coordinates>
</Point>
</Placemark>
<Placemark id="pm11922">
<name><![CDATA[Yverdon, Rue de Fontenay]]></name>
<description><![CDATA[90 connections
]]></description>
<styleUrl>../style/style.kml#station_icon</styleUrl>
<Point>
<coordinates>6.633290,46.781800</coordinates>
</Point>
</Placemark>
<Placemark id="pm15128">
<name><![CDATA[Yverdon, Rue de Montagny]]></name>
<description><![CDATA[90 connections
]]></description>
<styleUrl>../style/style.kml#station_icon</styleUrl>
<Point>
<coordinates>6.628360,46.779100</coordinates>
</Point>
</Placemark>
<Placemark id="pm14512">
<name><![CDATA[Yverdon, croisée de Chamblon]]></name>
<description><![CDATA[90 connections
]]></description>
<styleUrl>../style/style.kml#station_icon</styleUrl>
<Point>
<coordinates>6.617310,46.778100</coordinates>
</Point>
</Placemark>
</Document>
</kml>
