<?xml version="1.0" encoding="UTF-8"?>
<!-- KML Regionator 303:340M -->
<kml xmlns="http://earth.google.com/kml/2.1">
<Document>
<name>402 0211223</name>
<Region>
<Lod>
<minLodPixels>256</minLodPixels>
<maxLodPixels>-1</maxLodPixels>
</Lod>
<LatLonAltBox>
<north>47.197265625</north>
<south>47.109375</south>
<east>7.91015625</east>
<west>7.822265625</west>
</LatLonAltBox>
</Region>
<NetworkLink>
<name>02112230</name>
<Region>
<Lod>
<minLodPixels>256</minLodPixels>
<maxLodPixels>-1</maxLodPixels>
</Lod>
<LatLonAltBox>
<north>47.197265625</north>
<south>47.1533203125</south>
<east>7.8662109375</east>
<west>7.822265625</west>
</LatLonAltBox>
</Region>
<Link>
<href>403.kml</href>
<viewRefreshMode>onRegion</viewRefreshMode>
<viewFormat/>
</Link>
</NetworkLink>
<NetworkLink>
<name>02112231</name>
<Region>
<Lod>
<minLodPixels>256</minLodPixels>
<maxLodPixels>-1</maxLodPixels>
</Lod>
<LatLonAltBox>
<north>47.197265625</north>
<south>47.1533203125</south>
<east>7.91015625</east>
<west>7.8662109375</west>
</LatLonAltBox>
</Region>
<Link>
<href>404.kml</href>
<viewRefreshMode>onRegion</viewRefreshMode>
<viewFormat/>
</Link>
</NetworkLink>
<NetworkLink>
<name>02112232</name>
<Region>
<Lod>
<minLodPixels>256</minLodPixels>
<maxLodPixels>-1</maxLodPixels>
</Lod>
<LatLonAltBox>
<north>47.1533203125</north>
<south>47.109375</south>
<east>7.8662109375</east>
<west>7.822265625</west>
</LatLonAltBox>
</Region>
<Link>
<href>405.kml</href>
<viewRefreshMode>onRegion</viewRefreshMode>
<viewFormat/>
</Link>
</NetworkLink>
<NetworkLink>
<name>02112233</name>
<Region>
<Lod>
<minLodPixels>256</minLodPixels>
<maxLodPixels>-1</maxLodPixels>
</Lod>
<LatLonAltBox>
<north>47.1533203125</north>
<south>47.109375</south>
<east>7.91015625</east>
<west>7.8662109375</west>
</LatLonAltBox>
</Region>
<Link>
<href>406.kml</href>
<viewRefreshMode>onRegion</viewRefreshMode>
<viewFormat/>
</Link>
</NetworkLink>
<Placemark id="pm5266">
<name><![CDATA[Huttwil]]></name>
<description><![CDATA[109 connections
]]></description>
<styleUrl>../style/style.kml#station_icon</styleUrl>
<Point>
<coordinates>7.842730,47.114600</coordinates>
</Point>
</Placemark>
<Placemark id="pm4173">
<name><![CDATA[Hüswil, Bahnhof]]></name>
<description><![CDATA[106 connections
]]></description>
<styleUrl>../style/style.kml#station_icon</styleUrl>
<Point>
<coordinates>7.905190,47.128200</coordinates>
</Point>
</Placemark>
<Placemark id="pm3233">
<name><![CDATA[Huttwil, Uech]]></name>
<description><![CDATA[106 connections
]]></description>
<styleUrl>../style/style.kml#station_icon</styleUrl>
<Point>
<coordinates>7.856280,47.109500</coordinates>
</Point>
</Placemark>
<Placemark id="pm8704">
<name><![CDATA[Huttwil, Stadt]]></name>
<description><![CDATA[106 connections
]]></description>
<styleUrl>../style/style.kml#station_icon</styleUrl>
<Point>
<coordinates>7.848410,47.113200</coordinates>
</Point>
</Placemark>
<Placemark id="pm10084">
<name><![CDATA[Altbüron, Post]]></name>
<description><![CDATA[99 connections
]]></description>
<styleUrl>../style/style.kml#station_icon</styleUrl>
<Point>
<coordinates>7.879600,47.181000</coordinates>
</Point>
</Placemark>
<Placemark id="pm691">
<name><![CDATA[Melchnau, Unterdorf]]></name>
<description><![CDATA[98 connections
]]></description>
<styleUrl>../style/style.kml#station_icon</styleUrl>
<Point>
<coordinates>7.848590,47.187000</coordinates>
</Point>
</Placemark>
<Placemark id="pm1840">
<name><![CDATA[Melchnau, Gjuch]]></name>
<description><![CDATA[98 connections
]]></description>
<styleUrl>../style/style.kml#station_icon</styleUrl>
<Point>
<coordinates>7.847530,47.190600</coordinates>
</Point>
</Placemark>
<Placemark id="pm6545">
<name><![CDATA[Grossdietwil, Post]]></name>
<description><![CDATA[94 connections
]]></description>
<styleUrl>../style/style.kml#station_icon</styleUrl>
<Point>
<coordinates>7.885780,47.170600</coordinates>
</Point>
</Placemark>
<Placemark id="pm8031">
<name><![CDATA[Fischbach LU, alte Post]]></name>
<description><![CDATA[80 connections
]]></description>
<styleUrl>../style/style.kml#station_icon</styleUrl>
<Point>
<coordinates>7.908060,47.154300</coordinates>
</Point>
</Placemark>
<Placemark id="pm8124">
<name><![CDATA[Fischbach LU, Krone]]></name>
<description><![CDATA[80 connections
]]></description>
<styleUrl>../style/style.kml#station_icon</styleUrl>
<Point>
<coordinates>7.906760,47.157000</coordinates>
</Point>
</Placemark>
<Placemark id="pm6224">
<name><![CDATA[Fischbach LU, Reiferswil]]></name>
<description><![CDATA[80 connections
]]></description>
<styleUrl>../style/style.kml#station_icon</styleUrl>
<Point>
<coordinates>7.901530,47.161500</coordinates>
</Point>
</Placemark>
<Placemark id="pm8968">
<name><![CDATA[Grossdietwil, Schönegg]]></name>
<description><![CDATA[80 connections
]]></description>
<styleUrl>../style/style.kml#station_icon</styleUrl>
<Point>
<coordinates>7.889390,47.169200</coordinates>
</Point>
</Placemark>
<Placemark id="pm10146">
<name><![CDATA[Grossdietwil, Sandgruebe]]></name>
<description><![CDATA[80 connections
]]></description>
<styleUrl>../style/style.kml#station_icon</styleUrl>
<Point>
<coordinates>7.883160,47.173300</coordinates>
</Point>
</Placemark>
<Placemark id="pm7044">
<name><![CDATA[Altbüron, Hiltbrunnen]]></name>
<description><![CDATA[80 connections
]]></description>
<styleUrl>../style/style.kml#station_icon</styleUrl>
<Point>
<coordinates>7.881560,47.178700</coordinates>
</Point>
</Placemark>
<Placemark id="pm14471">
<name><![CDATA[Hüswil]]></name>
<description><![CDATA[76 connections
]]></description>
<styleUrl>../style/style.kml#station_icon</styleUrl>
<Point>
<coordinates>7.905720,47.128600</coordinates>
</Point>
</Placemark>
<Placemark id="pm5854">
<name><![CDATA[Gondiswil]]></name>
<description><![CDATA[76 connections
]]></description>
<styleUrl>../style/style.kml#station_icon</styleUrl>
<Point>
<coordinates>7.883830,47.128000</coordinates>
</Point>
</Placemark>
</Document>
</kml>
