<?xml version="1.0" encoding="UTF-8"?>
<!-- KML Regionator 303:340M -->
<kml xmlns="http://earth.google.com/kml/2.1">
<Document>
<name>523 02120112</name>
<Region>
<Lod>
<minLodPixels>256</minLodPixels>
<maxLodPixels>-1</maxLodPixels>
</Lod>
<LatLonAltBox>
<north>47.0654296875</north>
<south>47.021484375</south>
<east>7.3388671875</east>
<west>7.294921875</west>
</LatLonAltBox>
</Region>
<Placemark id="pm336">
<name><![CDATA[Frienisberg, Pflegeheim]]></name>
<description><![CDATA[68 connections
]]></description>
<styleUrl>../style/style.kml#station_icon</styleUrl>
<Point>
<coordinates>7.330770,47.026600</coordinates>
</Point>
</Placemark>
<Placemark id="pm12111">
<name><![CDATA[Frienisberg, Elemoos]]></name>
<description><![CDATA[68 connections
]]></description>
<styleUrl>../style/style.kml#station_icon</styleUrl>
<Point>
<coordinates>7.324370,47.024100</coordinates>
</Point>
</Placemark>
<Placemark id="pm4871">
<name><![CDATA[Baggwil, Dorf]]></name>
<description><![CDATA[68 connections
]]></description>
<styleUrl>../style/style.kml#station_icon</styleUrl>
<Point>
<coordinates>7.316950,47.027900</coordinates>
</Point>
</Placemark>
<Placemark id="pm5138">
<name><![CDATA[Wiler bei Seedorf, Stücki]]></name>
<description><![CDATA[48 connections
]]></description>
<styleUrl>../style/style.kml#station_icon</styleUrl>
<Point>
<coordinates>7.325450,47.055400</coordinates>
</Point>
</Placemark>
<Placemark id="pm4600">
<name><![CDATA[Wiler bei Seedorf, Neuwiler]]></name>
<description><![CDATA[48 connections
]]></description>
<styleUrl>../style/style.kml#station_icon</styleUrl>
<Point>
<coordinates>7.321510,47.050900</coordinates>
</Point>
</Placemark>
<Placemark id="pm11605">
<name><![CDATA[Wiler bei Seedorf, Dorf]]></name>
<description><![CDATA[48 connections
]]></description>
<styleUrl>../style/style.kml#station_icon</styleUrl>
<Point>
<coordinates>7.320150,47.048300</coordinates>
</Point>
</Placemark>
<Placemark id="pm12283">
<name><![CDATA[Wiler bei Seedorf, Grissenberg]]></name>
<description><![CDATA[48 connections
]]></description>
<styleUrl>../style/style.kml#station_icon</styleUrl>
<Point>
<coordinates>7.318890,47.042800</coordinates>
</Point>
</Placemark>
<Placemark id="pm13163">
<name><![CDATA[Seedorf BE, Käsereigasse]]></name>
<description><![CDATA[48 connections
]]></description>
<styleUrl>../style/style.kml#station_icon</styleUrl>
<Point>
<coordinates>7.312890,47.035500</coordinates>
</Point>
</Placemark>
</Document>
</kml>
