<?xml version="1.0" encoding="UTF-8"?>
<!-- KML Regionator 303:340M -->
<kml xmlns="http://earth.google.com/kml/2.1">
<Document>
<name>602 0212111</name>
<Region>
<Lod>
<minLodPixels>256</minLodPixels>
<maxLodPixels>-1</maxLodPixels>
</Lod>
<LatLonAltBox>
<north>47.109375</north>
<south>47.021484375</south>
<east>7.734375</east>
<west>7.646484375</west>
</LatLonAltBox>
</Region>
<Placemark id="pm10894">
<name><![CDATA[Wynigen]]></name>
<description><![CDATA[70 connections
]]></description>
<styleUrl>../style/style.kml#station_icon</styleUrl>
<Point>
<coordinates>7.663500,47.105200</coordinates>
</Point>
</Placemark>
<Placemark id="pm14915">
<name><![CDATA[Heimiswil, Niederdorf]]></name>
<description><![CDATA[64 connections
]]></description>
<styleUrl>../style/style.kml#station_icon</styleUrl>
<Point>
<coordinates>7.655830,47.060600</coordinates>
</Point>
</Placemark>
<Placemark id="pm2079">
<name><![CDATA[Rüegsbach, Oberrinderbach]]></name>
<description><![CDATA[58 connections
]]></description>
<styleUrl>../style/style.kml#station_icon</styleUrl>
<Point>
<coordinates>7.709170,47.066800</coordinates>
</Point>
</Placemark>
<Placemark id="pm9978">
<name><![CDATA[Rüegsbach, Post]]></name>
<description><![CDATA[58 connections
]]></description>
<styleUrl>../style/style.kml#station_icon</styleUrl>
<Point>
<coordinates>7.688610,47.034500</coordinates>
</Point>
</Placemark>
<Placemark id="pm10292">
<name><![CDATA[Rüegsau, Post]]></name>
<description><![CDATA[58 connections
]]></description>
<styleUrl>../style/style.kml#station_icon</styleUrl>
<Point>
<coordinates>7.674100,47.024600</coordinates>
</Point>
</Placemark>
<Placemark id="pm6165">
<name><![CDATA[Affoltern i.E., Dorf]]></name>
<description><![CDATA[57 connections
]]></description>
<styleUrl>../style/style.kml#station_icon</styleUrl>
<Point>
<coordinates>7.731860,47.064900</coordinates>
</Point>
</Placemark>
<Placemark id="pm13832">
<name><![CDATA[Rumisthal]]></name>
<description><![CDATA[56 connections
]]></description>
<styleUrl>../style/style.kml#station_icon</styleUrl>
<Point>
<coordinates>7.665090,47.072300</coordinates>
</Point>
</Placemark>
<Placemark id="pm2398">
<name><![CDATA[Wynigen, Bahnhof]]></name>
<description><![CDATA[56 connections
]]></description>
<styleUrl>../style/style.kml#station_icon</styleUrl>
<Point>
<coordinates>7.662590,47.103800</coordinates>
</Point>
</Placemark>
<Placemark id="pm1186">
<name><![CDATA[Heimiswil, Post]]></name>
<description><![CDATA[56 connections
]]></description>
<styleUrl>../style/style.kml#station_icon</styleUrl>
<Point>
<coordinates>7.658470,47.064200</coordinates>
</Point>
</Placemark>
<Placemark id="pm2306">
<name><![CDATA[Kaltacker, Post]]></name>
<description><![CDATA[50 connections
]]></description>
<styleUrl>../style/style.kml#station_icon</styleUrl>
<Point>
<coordinates>7.670370,47.076800</coordinates>
</Point>
</Placemark>
<Placemark id="pm5866">
<name><![CDATA[Lueg]]></name>
<description><![CDATA[22 connections
]]></description>
<styleUrl>../style/style.kml#station_icon</styleUrl>
<Point>
<coordinates>7.699320,47.073100</coordinates>
</Point>
</Placemark>
</Document>
</kml>
