<?xml version="1.0" encoding="UTF-8"?>
<!-- KML Regionator 303:340M -->
<kml xmlns="http://earth.google.com/kml/2.1">
<Document>
<name>643 0212132</name>
<Region>
<Lod>
<minLodPixels>256</minLodPixels>
<maxLodPixels>-1</maxLodPixels>
</Lod>
<LatLonAltBox>
<north>46.845703125</north>
<south>46.7578125</south>
<east>7.646484375</east>
<west>7.55859375</west>
</LatLonAltBox>
</Region>
<NetworkLink>
<name>02121320</name>
<Region>
<Lod>
<minLodPixels>256</minLodPixels>
<maxLodPixels>-1</maxLodPixels>
</Lod>
<LatLonAltBox>
<north>46.845703125</north>
<south>46.8017578125</south>
<east>7.6025390625</east>
<west>7.55859375</west>
</LatLonAltBox>
</Region>
<Link>
<href>644.kml</href>
<viewRefreshMode>onRegion</viewRefreshMode>
<viewFormat/>
</Link>
</NetworkLink>
<NetworkLink>
<name>02121321</name>
<Region>
<Lod>
<minLodPixels>256</minLodPixels>
<maxLodPixels>-1</maxLodPixels>
</Lod>
<LatLonAltBox>
<north>46.845703125</north>
<south>46.8017578125</south>
<east>7.646484375</east>
<west>7.6025390625</west>
</LatLonAltBox>
</Region>
<Link>
<href>645.kml</href>
<viewRefreshMode>onRegion</viewRefreshMode>
<viewFormat/>
</Link>
</NetworkLink>
<NetworkLink>
<name>02121322</name>
<Region>
<Lod>
<minLodPixels>256</minLodPixels>
<maxLodPixels>-1</maxLodPixels>
</Lod>
<LatLonAltBox>
<north>46.8017578125</north>
<south>46.7578125</south>
<east>7.6025390625</east>
<west>7.55859375</west>
</LatLonAltBox>
</Region>
<Link>
<href>646.kml</href>
<viewRefreshMode>onRegion</viewRefreshMode>
<viewFormat/>
</Link>
</NetworkLink>
<NetworkLink>
<name>02121323</name>
<Region>
<Lod>
<minLodPixels>256</minLodPixels>
<maxLodPixels>-1</maxLodPixels>
</Lod>
<LatLonAltBox>
<north>46.8017578125</north>
<south>46.7578125</south>
<east>7.646484375</east>
<west>7.6025390625</west>
</LatLonAltBox>
</Region>
<Link>
<href>647.kml</href>
<viewRefreshMode>onRegion</viewRefreshMode>
<viewFormat/>
</Link>
</NetworkLink>
<Placemark id="pm5674">
<name><![CDATA[Steffisburg, Alte Bernstrasse]]></name>
<description><![CDATA[170 connections
]]></description>
<styleUrl>../style/style.kml#station_icon</styleUrl>
<Point>
<coordinates>7.615890,46.777000</coordinates>
</Point>
</Placemark>
<Placemark id="pm2690">
<name><![CDATA[Uttigen]]></name>
<description><![CDATA[154 connections
]]></description>
<styleUrl>../style/style.kml#station_icon</styleUrl>
<Point>
<coordinates>7.582620,46.794300</coordinates>
</Point>
</Placemark>
<Placemark id="pm9045">
<name><![CDATA[Kiesen]]></name>
<description><![CDATA[154 connections
]]></description>
<styleUrl>../style/style.kml#station_icon</styleUrl>
<Point>
<coordinates>7.575490,46.818900</coordinates>
</Point>
</Placemark>
<Placemark id="pm13460">
<name><![CDATA[Wichtrach]]></name>
<description><![CDATA[154 connections
]]></description>
<styleUrl>../style/style.kml#station_icon</styleUrl>
<Point>
<coordinates>7.568850,46.841600</coordinates>
</Point>
</Placemark>
<Placemark id="pm1613">
<name><![CDATA[Thun, Guisanplatz]]></name>
<description><![CDATA[128 connections
]]></description>
<styleUrl>../style/style.kml#station_icon</styleUrl>
<Point>
<coordinates>7.625040,46.759700</coordinates>
</Point>
</Placemark>
<Placemark id="pm4339">
<name><![CDATA[Schwäbis]]></name>
<description><![CDATA[128 connections
]]></description>
<styleUrl>../style/style.kml#station_icon</styleUrl>
<Point>
<coordinates>7.619230,46.762600</coordinates>
</Point>
</Placemark>
<Placemark id="pm8885">
<name><![CDATA[Steffisburg]]></name>
<description><![CDATA[128 connections
]]></description>
<styleUrl>../style/style.kml#station_icon</styleUrl>
<Point>
<coordinates>7.615020,46.772900</coordinates>
</Point>
</Placemark>
<Placemark id="pm5798">
<name><![CDATA[Brenzikofen]]></name>
<description><![CDATA[128 connections
]]></description>
<styleUrl>../style/style.kml#station_icon</styleUrl>
<Point>
<coordinates>7.610690,46.818300</coordinates>
</Point>
</Placemark>
<Placemark id="pm15056">
<name><![CDATA[Lädeli]]></name>
<description><![CDATA[128 connections
]]></description>
<styleUrl>../style/style.kml#station_icon</styleUrl>
<Point>
<coordinates>7.609030,46.781600</coordinates>
</Point>
</Placemark>
<Placemark id="pm3787">
<name><![CDATA[Heimberg]]></name>
<description><![CDATA[128 connections
]]></description>
<styleUrl>../style/style.kml#station_icon</styleUrl>
<Point>
<coordinates>7.606030,46.790900</coordinates>
</Point>
</Placemark>
<Placemark id="pm8112">
<name><![CDATA[Wichtrach, Bahnhof]]></name>
<description><![CDATA[118 connections
]]></description>
<styleUrl>../style/style.kml#station_icon</styleUrl>
<Point>
<coordinates>7.568420,46.841300</coordinates>
</Point>
</Placemark>
<Placemark id="pm3057">
<name><![CDATA[Wichtrach, Thalgutstrasse]]></name>
<description><![CDATA[118 connections
]]></description>
<styleUrl>../style/style.kml#station_icon</styleUrl>
<Point>
<coordinates>7.565790,46.837700</coordinates>
</Point>
</Placemark>
<Placemark id="pm11753">
<name><![CDATA[Gerzensee, Thalgut]]></name>
<description><![CDATA[118 connections
]]></description>
<styleUrl>../style/style.kml#station_icon</styleUrl>
<Point>
<coordinates>7.559230,46.834100</coordinates>
</Point>
</Placemark>
<Placemark id="pm1342">
<name><![CDATA[Steffisburg, Schwandenbad]]></name>
<description><![CDATA[92 connections
]]></description>
<styleUrl>../style/style.kml#station_icon</styleUrl>
<Point>
<coordinates>7.640910,46.770100</coordinates>
</Point>
</Placemark>
<Placemark id="pm6605">
<name><![CDATA[Steffisburg, Erlen]]></name>
<description><![CDATA[92 connections
]]></description>
<styleUrl>../style/style.kml#station_icon</styleUrl>
<Point>
<coordinates>7.638960,46.774100</coordinates>
</Point>
</Placemark>
<Placemark id="pm9607">
<name><![CDATA[Wichtrach, Käserei]]></name>
<description><![CDATA[68 connections
]]></description>
<styleUrl>../style/style.kml#station_icon</styleUrl>
<Point>
<coordinates>7.576290,46.842200</coordinates>
</Point>
</Placemark>
</Document>
</kml>
