<?xml version="1.0" encoding="UTF-8"?>
<!-- KML Regionator 303:340M -->
<kml xmlns="http://earth.google.com/kml/2.1">
<Document>
<name>679 021230</name>
<Region>
<Lod>
<minLodPixels>256</minLodPixels>
<maxLodPixels>-1</maxLodPixels>
</Lod>
<LatLonAltBox>
<north>46.7578125</north>
<south>46.58203125</south>
<east>7.55859375</east>
<west>7.3828125</west>
</LatLonAltBox>
</Region>
<NetworkLink>
<name>0212300</name>
<Region>
<Lod>
<minLodPixels>256</minLodPixels>
<maxLodPixels>-1</maxLodPixels>
</Lod>
<LatLonAltBox>
<north>46.7578125</north>
<south>46.669921875</south>
<east>7.470703125</east>
<west>7.3828125</west>
</LatLonAltBox>
</Region>
<Link>
<href>680.kml</href>
<viewRefreshMode>onRegion</viewRefreshMode>
<viewFormat/>
</Link>
</NetworkLink>
<NetworkLink>
<name>0212301</name>
<Region>
<Lod>
<minLodPixels>256</minLodPixels>
<maxLodPixels>-1</maxLodPixels>
</Lod>
<LatLonAltBox>
<north>46.7578125</north>
<south>46.669921875</south>
<east>7.55859375</east>
<west>7.470703125</west>
</LatLonAltBox>
</Region>
<Link>
<href>681.kml</href>
<viewRefreshMode>onRegion</viewRefreshMode>
<viewFormat/>
</Link>
</NetworkLink>
<NetworkLink>
<name>0212302</name>
<Region>
<Lod>
<minLodPixels>256</minLodPixels>
<maxLodPixels>-1</maxLodPixels>
</Lod>
<LatLonAltBox>
<north>46.669921875</north>
<south>46.58203125</south>
<east>7.470703125</east>
<west>7.3828125</west>
</LatLonAltBox>
</Region>
<Link>
<href>682.kml</href>
<viewRefreshMode>onRegion</viewRefreshMode>
<viewFormat/>
</Link>
</NetworkLink>
<NetworkLink>
<name>0212303</name>
<Region>
<Lod>
<minLodPixels>256</minLodPixels>
<maxLodPixels>-1</maxLodPixels>
</Lod>
<LatLonAltBox>
<north>46.669921875</north>
<south>46.58203125</south>
<east>7.55859375</east>
<west>7.470703125</west>
</LatLonAltBox>
</Region>
<Link>
<href>683.kml</href>
<viewRefreshMode>onRegion</viewRefreshMode>
<viewFormat/>
</Link>
</NetworkLink>
<Placemark id="pm3271">
<name><![CDATA[Mettlen b. Wattenwil]]></name>
<description><![CDATA[180 connections
]]></description>
<styleUrl>../style/style.kml#station_icon</styleUrl>
<Point>
<coordinates>7.510620,46.754100</coordinates>
</Point>
</Placemark>
<Placemark id="pm9169">
<name><![CDATA[Uebeschi, Post]]></name>
<description><![CDATA[178 connections
]]></description>
<styleUrl>../style/style.kml#station_icon</styleUrl>
<Point>
<coordinates>7.555090,46.737800</coordinates>
</Point>
</Placemark>
<Placemark id="pm7977">
<name><![CDATA[Blumenstein, Dorfplatz]]></name>
<description><![CDATA[166 connections
]]></description>
<styleUrl>../style/style.kml#station_icon</styleUrl>
<Point>
<coordinates>7.519760,46.740600</coordinates>
</Point>
</Placemark>
<Placemark id="pm3209">
<name><![CDATA[Erlenbach im Simmental]]></name>
<description><![CDATA[162 connections
]]></description>
<styleUrl>../style/style.kml#station_icon</styleUrl>
<Point>
<coordinates>7.556090,46.659000</coordinates>
</Point>
</Placemark>
<Placemark id="pm7617">
<name><![CDATA[Blumenstein, Post]]></name>
<description><![CDATA[140 connections
]]></description>
<styleUrl>../style/style.kml#station_icon</styleUrl>
<Point>
<coordinates>7.521070,46.740600</coordinates>
</Point>
</Placemark>
<Placemark id="pm12163">
<name><![CDATA[Ringoldingen]]></name>
<description><![CDATA[122 connections
]]></description>
<styleUrl>../style/style.kml#station_icon</styleUrl>
<Point>
<coordinates>7.524630,46.657500</coordinates>
</Point>
</Placemark>
<Placemark id="pm171">
<name><![CDATA[Därstetten]]></name>
<description><![CDATA[122 connections
]]></description>
<styleUrl>../style/style.kml#station_icon</styleUrl>
<Point>
<coordinates>7.495420,46.658900</coordinates>
</Point>
</Placemark>
<Placemark id="pm2615">
<name><![CDATA[Boltigen]]></name>
<description><![CDATA[118 connections
]]></description>
<styleUrl>../style/style.kml#station_icon</styleUrl>
<Point>
<coordinates>7.390250,46.627400</coordinates>
</Point>
</Placemark>
<Placemark id="pm10978">
<name><![CDATA[Oberwil im Simmental]]></name>
<description><![CDATA[110 connections
]]></description>
<styleUrl>../style/style.kml#station_icon</styleUrl>
<Point>
<coordinates>7.435370,46.656000</coordinates>
</Point>
</Placemark>
<Placemark id="pm12629">
<name><![CDATA[Oberstocken, Kreuzgasse]]></name>
<description><![CDATA[78 connections
]]></description>
<styleUrl>../style/style.kml#station_icon</styleUrl>
<Point>
<coordinates>7.553730,46.717100</coordinates>
</Point>
</Placemark>
<Placemark id="pm8959">
<name><![CDATA[Pohlern, alte Post]]></name>
<description><![CDATA[78 connections
]]></description>
<styleUrl>../style/style.kml#station_icon</styleUrl>
<Point>
<coordinates>7.536740,46.724300</coordinates>
</Point>
</Placemark>
<Placemark id="pm7290">
<name><![CDATA[Längenbühl, Grizzlibär]]></name>
<description><![CDATA[74 connections
]]></description>
<styleUrl>../style/style.kml#station_icon</styleUrl>
<Point>
<coordinates>7.534180,46.754000</coordinates>
</Point>
</Placemark>
<Placemark id="pm1056">
<name><![CDATA[Weissenburg]]></name>
<description><![CDATA[74 connections
]]></description>
<styleUrl>../style/style.kml#station_icon</styleUrl>
<Point>
<coordinates>7.475940,46.659300</coordinates>
</Point>
</Placemark>
<Placemark id="pm10261">
<name><![CDATA[Enge im Simmental]]></name>
<description><![CDATA[74 connections
]]></description>
<styleUrl>../style/style.kml#station_icon</styleUrl>
<Point>
<coordinates>7.417630,46.647500</coordinates>
</Point>
</Placemark>
<Placemark id="pm11948">
<name><![CDATA[Horboden, Chollerenbrücke]]></name>
<description><![CDATA[50 connections
]]></description>
<styleUrl>../style/style.kml#station_icon</styleUrl>
<Point>
<coordinates>7.552560,46.628100</coordinates>
</Point>
</Placemark>
<Placemark id="pm13976">
<name><![CDATA[Horboden, Dähli]]></name>
<description><![CDATA[50 connections
]]></description>
<styleUrl>../style/style.kml#station_icon</styleUrl>
<Point>
<coordinates>7.549290,46.624500</coordinates>
</Point>
</Placemark>
</Document>
</kml>
