<?xml version="1.0" encoding="UTF-8"?>
<!-- KML Regionator 303:340M -->
<kml xmlns="http://earth.google.com/kml/2.1">
<Document>
<name>680 0212300</name>
<Region>
<Lod>
<minLodPixels>256</minLodPixels>
<maxLodPixels>-1</maxLodPixels>
</Lod>
<LatLonAltBox>
<north>46.7578125</north>
<south>46.669921875</south>
<east>7.470703125</east>
<west>7.3828125</west>
</LatLonAltBox>
</Region>
<Placemark id="pm4546">
<name><![CDATA[Oberer Gurnigel]]></name>
<description><![CDATA[8 connections
]]></description>
<styleUrl>../style/style.kml#station_icon</styleUrl>
<Point>
<coordinates>7.455650,46.742400</coordinates>
</Point>
</Placemark>
<Placemark id="pm11700">
<name><![CDATA[Gurnigel, Berghaus]]></name>
<description><![CDATA[8 connections
]]></description>
<styleUrl>../style/style.kml#station_icon</styleUrl>
<Point>
<coordinates>7.451720,46.732500</coordinates>
</Point>
</Placemark>
<Placemark id="pm10306">
<name><![CDATA[Gurnigel, Stierenhütte]]></name>
<description><![CDATA[8 connections
]]></description>
<styleUrl>../style/style.kml#station_icon</styleUrl>
<Point>
<coordinates>7.447800,46.731600</coordinates>
</Point>
</Placemark>
<Placemark id="pm11170">
<name><![CDATA[Gurnigel, Wasserscheide]]></name>
<description><![CDATA[8 connections
]]></description>
<styleUrl>../style/style.kml#station_icon</styleUrl>
<Point>
<coordinates>7.441250,46.726200</coordinates>
</Point>
</Placemark>
<Placemark id="pm1037">
<name><![CDATA[Gurnigel, Gantrischhütte]]></name>
<description><![CDATA[8 connections
]]></description>
<styleUrl>../style/style.kml#station_icon</styleUrl>
<Point>
<coordinates>7.441250,46.718100</coordinates>
</Point>
</Placemark>
<Placemark id="pm8769">
<name><![CDATA[Schwefelberg Bad]]></name>
<description><![CDATA[8 connections
]]></description>
<styleUrl>../style/style.kml#station_icon</styleUrl>
<Point>
<coordinates>7.416400,46.715400</coordinates>
</Point>
</Placemark>
<Placemark id="pm8475">
<name><![CDATA[Sangernboden, Hengstsense]]></name>
<description><![CDATA[8 connections
]]></description>
<styleUrl>../style/style.kml#station_icon</styleUrl>
<Point>
<coordinates>7.393510,46.707300</coordinates>
</Point>
</Placemark>
<Placemark id="pm1702">
<name><![CDATA[Sangernboden, Rothenbach]]></name>
<description><![CDATA[8 connections
]]></description>
<styleUrl>../style/style.kml#station_icon</styleUrl>
<Point>
<coordinates>7.387630,46.718400</coordinates>
</Point>
</Placemark>
</Document>
</kml>
