<?xml version="1.0" encoding="UTF-8"?>
<!-- KML Regionator 303:340M -->
<kml xmlns="http://earth.google.com/kml/2.1">
<Document>
<name>69 0203112</name>
<Region>
<Lod>
<minLodPixels>256</minLodPixels>
<maxLodPixels>-1</maxLodPixels>
</Lod>
<LatLonAltBox>
<north>47.021484375</north>
<south>46.93359375</south>
<east>6.943359375</east>
<west>6.85546875</west>
</LatLonAltBox>
</Region>
<NetworkLink>
<name>02031122</name>
<Region>
<Lod>
<minLodPixels>256</minLodPixels>
<maxLodPixels>-1</maxLodPixels>
</Lod>
<LatLonAltBox>
<north>46.9775390625</north>
<south>46.93359375</south>
<east>6.8994140625</east>
<west>6.85546875</west>
</LatLonAltBox>
</Region>
<Link>
<href>70.kml</href>
<viewRefreshMode>onRegion</viewRefreshMode>
<viewFormat/>
</Link>
</NetworkLink>
<Placemark id="pm10571">
<name><![CDATA[Les Deurres]]></name>
<description><![CDATA[86 connections
]]></description>
<styleUrl>../style/style.kml#station_icon</styleUrl>
<Point>
<coordinates>6.899160,46.985500</coordinates>
</Point>
</Placemark>
<Placemark id="pm6967">
<name><![CDATA[Corcelles-Peseux]]></name>
<description><![CDATA[86 connections
]]></description>
<styleUrl>../style/style.kml#station_icon</styleUrl>
<Point>
<coordinates>6.883810,46.983300</coordinates>
</Point>
</Placemark>
<Placemark id="pm5793">
<name><![CDATA[Neuchâtel, écluse]]></name>
<description><![CDATA[60 connections
]]></description>
<styleUrl>../style/style.kml#station_icon</styleUrl>
<Point>
<coordinates>6.924610,46.993600</coordinates>
</Point>
</Placemark>
<Placemark id="pm2717">
<name><![CDATA[Neuchâtel, Vauseyon]]></name>
<description><![CDATA[60 connections
]]></description>
<styleUrl>../style/style.kml#station_icon</styleUrl>
<Point>
<coordinates>6.904930,46.989400</coordinates>
</Point>
</Placemark>
<Placemark id="pm10646">
<name><![CDATA[Neuchâtel, Les Carrels]]></name>
<description><![CDATA[60 connections
]]></description>
<styleUrl>../style/style.kml#station_icon</styleUrl>
<Point>
<coordinates>6.898360,46.988900</coordinates>
</Point>
</Placemark>
<Placemark id="pm6168">
<name><![CDATA[Peseux, temple]]></name>
<description><![CDATA[60 connections
]]></description>
<styleUrl>../style/style.kml#station_icon</styleUrl>
<Point>
<coordinates>6.889180,46.987100</coordinates>
</Point>
</Placemark>
<Placemark id="pm1410">
<name><![CDATA[Corcelles NE, pharmacie]]></name>
<description><![CDATA[60 connections
]]></description>
<styleUrl>../style/style.kml#station_icon</styleUrl>
<Point>
<coordinates>6.881310,46.984800</coordinates>
</Point>
</Placemark>
<Placemark id="pm1933">
<name><![CDATA[Corcelles NE, église]]></name>
<description><![CDATA[60 connections
]]></description>
<styleUrl>../style/style.kml#station_icon</styleUrl>
<Point>
<coordinates>6.876710,46.985200</coordinates>
</Point>
</Placemark>
<Placemark id="pm1700">
<name><![CDATA[Corcelles NE, rue à Jean]]></name>
<description><![CDATA[60 connections
]]></description>
<styleUrl>../style/style.kml#station_icon</styleUrl>
<Point>
<coordinates>6.868170,46.984700</coordinates>
</Point>
</Placemark>
<Placemark id="pm9402">
<name><![CDATA[Corcelles NE, haut du village]]></name>
<description><![CDATA[60 connections
]]></description>
<styleUrl>../style/style.kml#station_icon</styleUrl>
<Point>
<coordinates>6.866840,46.986100</coordinates>
</Point>
</Placemark>
<Placemark id="pm1761">
<name><![CDATA[Neuchâtel-Serrières TN]]></name>
<description><![CDATA[56 connections
]]></description>
<styleUrl>../style/style.kml#station_icon</styleUrl>
<Point>
<coordinates>6.897920,46.980100</coordinates>
</Point>
</Placemark>
<Placemark id="pm7306">
<name><![CDATA[Auvernier TN]]></name>
<description><![CDATA[56 connections
]]></description>
<styleUrl>../style/style.kml#station_icon</styleUrl>
<Point>
<coordinates>6.878930,46.974200</coordinates>
</Point>
</Placemark>
<Placemark id="pm10779">
<name><![CDATA[Colombier TN]]></name>
<description><![CDATA[56 connections
]]></description>
<styleUrl>../style/style.kml#station_icon</styleUrl>
<Point>
<coordinates>6.865470,46.965800</coordinates>
</Point>
</Placemark>
<Placemark id="pm11670">
<name><![CDATA[Neuchâtel LNM]]></name>
<description><![CDATA[54 connections
]]></description>
<styleUrl>../style/style.kml#station_icon</styleUrl>
<Point>
<coordinates>6.933330,46.991000</coordinates>
</Point>
</Placemark>
<Placemark id="pm15009">
<name><![CDATA[Neuchâtel, gare]]></name>
<description><![CDATA[30 connections
]]></description>
<styleUrl>../style/style.kml#station_icon</styleUrl>
<Point>
<coordinates>6.936410,46.996800</coordinates>
</Point>
</Placemark>
<Placemark id="pm3876">
<name><![CDATA[Neuchâtel-Place Pury TN]]></name>
<description><![CDATA[28 connections
]]></description>
<styleUrl>../style/style.kml#station_icon</styleUrl>
<Point>
<coordinates>6.928200,46.989400</coordinates>
</Point>
</Placemark>
</Document>
</kml>
