<?xml version="1.0" encoding="UTF-8"?>
<!-- KML Regionator 303:340M -->
<kml xmlns="http://earth.google.com/kml/2.1">
<Document>
<name>690 02123131</name>
<Region>
<Lod>
<minLodPixels>256</minLodPixels>
<maxLodPixels>-1</maxLodPixels>
</Lod>
<LatLonAltBox>
<north>46.669921875</north>
<south>46.6259765625</south>
<east>7.734375</east>
<west>7.6904296875</west>
</LatLonAltBox>
</Region>
<Placemark id="pm12475">
<name><![CDATA[Aeschi b. Spiez, Friedegg]]></name>
<description><![CDATA[64 connections
]]></description>
<styleUrl>../style/style.kml#station_icon</styleUrl>
<Point>
<coordinates>7.702510,46.651200</coordinates>
</Point>
</Placemark>
<Placemark id="pm2132">
<name><![CDATA[Mülenen]]></name>
<description><![CDATA[60 connections
]]></description>
<styleUrl>../style/style.kml#station_icon</styleUrl>
<Point>
<coordinates>7.691140,46.637900</coordinates>
</Point>
</Placemark>
<Placemark id="pm4514">
<name><![CDATA[Aeschiried, Schulhaus]]></name>
<description><![CDATA[32 connections
]]></description>
<styleUrl>../style/style.kml#station_icon</styleUrl>
<Point>
<coordinates>7.724690,46.644900</coordinates>
</Point>
</Placemark>
<Placemark id="pm8712">
<name><![CDATA[Spiez, Guetital]]></name>
<description><![CDATA[30 connections
]]></description>
<styleUrl>../style/style.kml#station_icon</styleUrl>
<Point>
<coordinates>7.716310,46.667400</coordinates>
</Point>
</Placemark>
<Placemark id="pm3980">
<name><![CDATA[Mülenen, Bahnhof]]></name>
<description><![CDATA[16 connections
]]></description>
<styleUrl>../style/style.kml#station_icon</styleUrl>
<Point>
<coordinates>7.691360,46.637700</coordinates>
</Point>
</Placemark>
</Document>
</kml>
