<?xml version="1.0" encoding="UTF-8"?>
<!-- KML Regionator 303:340M -->
<kml xmlns="http://earth.google.com/kml/2.1">
<Document>
<name>791 021322</name>
<Region>
<Lod>
<minLodPixels>256</minLodPixels>
<maxLodPixels>-1</maxLodPixels>
</Lod>
<LatLonAltBox>
<north>46.58203125</north>
<south>46.40625</south>
<east>7.91015625</east>
<west>7.734375</west>
</LatLonAltBox>
</Region>
<NetworkLink>
<name>0213220</name>
<Region>
<Lod>
<minLodPixels>256</minLodPixels>
<maxLodPixels>-1</maxLodPixels>
</Lod>
<LatLonAltBox>
<north>46.58203125</north>
<south>46.494140625</south>
<east>7.822265625</east>
<west>7.734375</west>
</LatLonAltBox>
</Region>
<Link>
<href>792.kml</href>
<viewRefreshMode>onRegion</viewRefreshMode>
<viewFormat/>
</Link>
</NetworkLink>
<NetworkLink>
<name>0213221</name>
<Region>
<Lod>
<minLodPixels>256</minLodPixels>
<maxLodPixels>-1</maxLodPixels>
</Lod>
<LatLonAltBox>
<north>46.58203125</north>
<south>46.494140625</south>
<east>7.91015625</east>
<west>7.822265625</west>
</LatLonAltBox>
</Region>
<Link>
<href>793.kml</href>
<viewRefreshMode>onRegion</viewRefreshMode>
<viewFormat/>
</Link>
</NetworkLink>
<NetworkLink>
<name>0213222</name>
<Region>
<Lod>
<minLodPixels>256</minLodPixels>
<maxLodPixels>-1</maxLodPixels>
</Lod>
<LatLonAltBox>
<north>46.494140625</north>
<south>46.40625</south>
<east>7.822265625</east>
<west>7.734375</west>
</LatLonAltBox>
</Region>
<Link>
<href>794.kml</href>
<viewRefreshMode>onRegion</viewRefreshMode>
<viewFormat/>
</Link>
</NetworkLink>
<NetworkLink>
<name>0213223</name>
<Region>
<Lod>
<minLodPixels>256</minLodPixels>
<maxLodPixels>-1</maxLodPixels>
</Lod>
<LatLonAltBox>
<north>46.494140625</north>
<south>46.40625</south>
<east>7.91015625</east>
<west>7.822265625</west>
</LatLonAltBox>
</Region>
<Link>
<href>795.kml</href>
<viewRefreshMode>onRegion</viewRefreshMode>
<viewFormat/>
</Link>
</NetworkLink>
<Placemark id="pm5315">
<name><![CDATA[Stechelberg, Sandbach]]></name>
<description><![CDATA[140 connections
]]></description>
<styleUrl>../style/style.kml#station_icon</styleUrl>
<Point>
<coordinates>7.909830,46.568500</coordinates>
</Point>
</Placemark>
<Placemark id="pm1248">
<name><![CDATA[Stechelberg, Stegmatte]]></name>
<description><![CDATA[140 connections
]]></description>
<styleUrl>../style/style.kml#station_icon</styleUrl>
<Point>
<coordinates>7.905860,46.562400</coordinates>
</Point>
</Placemark>
<Placemark id="pm7792">
<name><![CDATA[Stechelberg, Schilthornbahn]]></name>
<description><![CDATA[137 connections
]]></description>
<styleUrl>../style/style.kml#station_icon</styleUrl>
<Point>
<coordinates>7.901560,46.555200</coordinates>
</Point>
</Placemark>
<Placemark id="pm1286">
<name><![CDATA[Stechelberg, Post]]></name>
<description><![CDATA[134 connections
]]></description>
<styleUrl>../style/style.kml#station_icon</styleUrl>
<Point>
<coordinates>7.901510,46.549600</coordinates>
</Point>
</Placemark>
<Placemark id="pm14877">
<name><![CDATA[Gimmelwald]]></name>
<description><![CDATA[132 connections
]]></description>
<styleUrl>../style/style.kml#station_icon</styleUrl>
<Point>
<coordinates>7.893490,46.547100</coordinates>
</Point>
</Placemark>
<Placemark id="pm11157">
<name><![CDATA[Lauchernalp]]></name>
<description><![CDATA[129 connections
]]></description>
<styleUrl>../style/style.kml#station_icon</styleUrl>
<Point>
<coordinates>7.774180,46.411000</coordinates>
</Point>
</Placemark>
<Placemark id="pm13912">
<name><![CDATA[Mürren LSMS-lsms]]></name>
<description><![CDATA[104 connections
]]></description>
<styleUrl>../style/style.kml#station_icon</styleUrl>
<Point>
<coordinates>7.891280,46.557700</coordinates>
</Point>
</Placemark>
<Placemark id="pm10020">
<name><![CDATA[Blatten (Lötschen), Brücke]]></name>
<description><![CDATA[104 connections
]]></description>
<styleUrl>../style/style.kml#station_icon</styleUrl>
<Point>
<coordinates>7.816230,46.419100</coordinates>
</Point>
</Placemark>
<Placemark id="pm5215">
<name><![CDATA[Ried (Lötschen)]]></name>
<description><![CDATA[104 connections
]]></description>
<styleUrl>../style/style.kml#station_icon</styleUrl>
<Point>
<coordinates>7.807400,46.413900</coordinates>
</Point>
</Placemark>
<Placemark id="pm7547">
<name><![CDATA[Wiler (Lötschen), Seilbahn]]></name>
<description><![CDATA[104 connections
]]></description>
<styleUrl>../style/style.kml#station_icon</styleUrl>
<Point>
<coordinates>7.778140,46.410700</coordinates>
</Point>
</Placemark>
<Placemark id="pm6236">
<name><![CDATA[Mürren BLM]]></name>
<description><![CDATA[91 connections
]]></description>
<styleUrl>../style/style.kml#station_icon</styleUrl>
<Point>
<coordinates>7.897240,46.564100</coordinates>
</Point>
</Placemark>
<Placemark id="pm10101">
<name><![CDATA[Blatten (Lötschen), Post]]></name>
<description><![CDATA[85 connections
]]></description>
<styleUrl>../style/style.kml#station_icon</styleUrl>
<Point>
<coordinates>7.819090,46.419500</coordinates>
</Point>
</Placemark>
<Placemark id="pm1805">
<name><![CDATA[Birg]]></name>
<description><![CDATA[76 connections
]]></description>
<styleUrl>../style/style.kml#station_icon</styleUrl>
<Point>
<coordinates>7.857800,46.561800</coordinates>
</Point>
</Placemark>
<Placemark id="pm7524">
<name><![CDATA[Stechelberg, Hotel]]></name>
<description><![CDATA[67 connections
]]></description>
<styleUrl>../style/style.kml#station_icon</styleUrl>
<Point>
<coordinates>7.902130,46.546000</coordinates>
</Point>
</Placemark>
<Placemark id="pm169">
<name><![CDATA[Stechelberg]]></name>
<description><![CDATA[66 connections
]]></description>
<styleUrl>../style/style.kml#station_icon</styleUrl>
<Point>
<coordinates>7.901720,46.555100</coordinates>
</Point>
</Placemark>
<Placemark id="pm4204">
<name><![CDATA[Blatten (Lötschen), Langglets.]]></name>
<description><![CDATA[66 connections
]]></description>
<styleUrl>../style/style.kml#station_icon</styleUrl>
<Point>
<coordinates>7.855540,46.433200</coordinates>
</Point>
</Placemark>
</Document>
</kml>
