<?xml version="1.0" encoding="UTF-8"?>
<!-- KML Regionator 303:340M -->
<kml xmlns="http://earth.google.com/kml/2.1">
<Document>
<name>942 02301200</name>
<Region>
<Lod>
<minLodPixels>256</minLodPixels>
<maxLodPixels>-1</maxLodPixels>
</Lod>
<LatLonAltBox>
<north>46.23046875</north>
<south>46.1865234375</south>
<east>7.4267578125</east>
<west>7.3828125</west>
</LatLonAltBox>
</Region>
<Placemark id="pm1672">
<name><![CDATA[Sion, Les Fontaines]]></name>
<description><![CDATA[42 connections
]]></description>
<styleUrl>../style/style.kml#station_icon</styleUrl>
<Point>
<coordinates>7.389570,46.222800</coordinates>
</Point>
</Placemark>
<Placemark id="pm2386">
<name><![CDATA[Nax, La Crettaz]]></name>
<description><![CDATA[40 connections
]]></description>
<styleUrl>../style/style.kml#station_icon</styleUrl>
<Point>
<coordinates>7.424940,46.226500</coordinates>
</Point>
</Placemark>
<Placemark id="pm3943">
<name><![CDATA[Nax, Villettaz]]></name>
<description><![CDATA[34 connections
]]></description>
<styleUrl>../style/style.kml#station_icon</styleUrl>
<Point>
<coordinates>7.422880,46.219100</coordinates>
</Point>
</Placemark>
<Placemark id="pm7948">
<name><![CDATA[Nax, Erbioz]]></name>
<description><![CDATA[34 connections
]]></description>
<styleUrl>../style/style.kml#station_icon</styleUrl>
<Point>
<coordinates>7.417460,46.218600</coordinates>
</Point>
</Placemark>
<Placemark id="pm5901">
<name><![CDATA[Nax, Creux-de-Nax]]></name>
<description><![CDATA[34 connections
]]></description>
<styleUrl>../style/style.kml#station_icon</styleUrl>
<Point>
<coordinates>7.413990,46.224300</coordinates>
</Point>
</Placemark>
<Placemark id="pm420">
<name><![CDATA[Bramois, poste]]></name>
<description><![CDATA[34 connections
]]></description>
<styleUrl>../style/style.kml#station_icon</styleUrl>
<Point>
<coordinates>7.403380,46.230000</coordinates>
</Point>
</Placemark>
<Placemark id="pm6068">
<name><![CDATA[Sion, Petit-Champsec]]></name>
<description><![CDATA[34 connections
]]></description>
<styleUrl>../style/style.kml#station_icon</styleUrl>
<Point>
<coordinates>7.394330,46.227000</coordinates>
</Point>
</Placemark>
<Placemark id="pm9708">
<name><![CDATA[Les Mayens-de-S., Bon Accueil]]></name>
<description><![CDATA[32 connections
]]></description>
<styleUrl>../style/style.kml#station_icon</styleUrl>
<Point>
<coordinates>7.390710,46.198100</coordinates>
</Point>
</Placemark>
</Document>
</kml>
