<?xml version="1.0" encoding="UTF-8"?>
<!-- KML Regionator 303:340M -->
<kml xmlns="http://earth.google.com/kml/2.1">
<Document>
<name>1054 0300030</name>
<Region>
<Lod>
<minLodPixels>256</minLodPixels>
<maxLodPixels>-1</maxLodPixels>
</Lod>
<LatLonAltBox>
<north>47.63671875</north>
<south>47.548828125</south>
<east>8.701171875</east>
<west>8.61328125</west>
</LatLonAltBox>
</Region>
<NetworkLink>
<name>03000301</name>
<Region>
<Lod>
<minLodPixels>256</minLodPixels>
<maxLodPixels>-1</maxLodPixels>
</Lod>
<LatLonAltBox>
<north>47.63671875</north>
<south>47.5927734375</south>
<east>8.701171875</east>
<west>8.6572265625</west>
</LatLonAltBox>
</Region>
<Link>
<href>1055.kml</href>
<viewRefreshMode>onRegion</viewRefreshMode>
<viewFormat/>
</Link>
</NetworkLink>
<NetworkLink>
<name>03000302</name>
<Region>
<Lod>
<minLodPixels>256</minLodPixels>
<maxLodPixels>-1</maxLodPixels>
</Lod>
<LatLonAltBox>
<north>47.5927734375</north>
<south>47.548828125</south>
<east>8.6572265625</east>
<west>8.61328125</west>
</LatLonAltBox>
</Region>
<Link>
<href>1056.kml</href>
<viewRefreshMode>onRegion</viewRefreshMode>
<viewFormat/>
</Link>
</NetworkLink>
<NetworkLink>
<name>03000303</name>
<Region>
<Lod>
<minLodPixels>256</minLodPixels>
<maxLodPixels>-1</maxLodPixels>
</Lod>
<LatLonAltBox>
<north>47.5927734375</north>
<south>47.548828125</south>
<east>8.701171875</east>
<west>8.6572265625</west>
</LatLonAltBox>
</Region>
<Link>
<href>1057.kml</href>
<viewRefreshMode>onRegion</viewRefreshMode>
<viewFormat/>
</Link>
</NetworkLink>
<Placemark id="pm148">
<name><![CDATA[Andelfingen]]></name>
<description><![CDATA[152 connections
]]></description>
<Point>
<coordinates>8.677970,47.593800</coordinates>
</Point>
</Placemark>
<Placemark id="pm1948">
<name><![CDATA[Henggart]]></name>
<description><![CDATA[144 connections
]]></description>
<Point>
<coordinates>8.685050,47.564300</coordinates>
</Point>
</Placemark>
<Placemark id="pm14741">
<name><![CDATA[Marthalen]]></name>
<description><![CDATA[144 connections
]]></description>
<Point>
<coordinates>8.652940,47.635100</coordinates>
</Point>
</Placemark>
<Placemark id="pm4485">
<name><![CDATA[Dorf bei Andelfingen, Post]]></name>
<description><![CDATA[142 connections
]]></description>
<Point>
<coordinates>8.648690,47.572600</coordinates>
</Point>
</Placemark>
<Placemark id="pm12579">
<name><![CDATA[Volken, Post]]></name>
<description><![CDATA[142 connections
]]></description>
<Point>
<coordinates>8.624430,47.574100</coordinates>
</Point>
</Placemark>
<Placemark id="pm2931">
<name><![CDATA[Marthalen, Bahnhof]]></name>
<description><![CDATA[118 connections
]]></description>
<Point>
<coordinates>8.653490,47.635000</coordinates>
</Point>
</Placemark>
<Placemark id="pm5791">
<name><![CDATA[Henggart, Bahnhof]]></name>
<description><![CDATA[111 connections
]]></description>
<Point>
<coordinates>8.685110,47.563900</coordinates>
</Point>
</Placemark>
<Placemark id="pm6659">
<name><![CDATA[Buch a. Irchel, Unterbuch]]></name>
<description><![CDATA[94 connections
]]></description>
<Point>
<coordinates>8.618750,47.550100</coordinates>
</Point>
</Placemark>
<Placemark id="pm13041">
<name><![CDATA[Buch a. Irchel, Wiler]]></name>
<description><![CDATA[94 connections
]]></description>
<Point>
<coordinates>8.613740,47.557200</coordinates>
</Point>
</Placemark>
<Placemark id="pm1623">
<name><![CDATA[Marthalen, Dorf]]></name>
<description><![CDATA[92 connections
]]></description>
<Point>
<coordinates>8.650540,47.627300</coordinates>
</Point>
</Placemark>
<Placemark id="pm818">
<name><![CDATA[Buch a. Irchel, Sägerei]]></name>
<description><![CDATA[90 connections
]]></description>
<Point>
<coordinates>8.632730,47.551800</coordinates>
</Point>
</Placemark>
<Placemark id="pm7083">
<name><![CDATA[Buch a. Irchel, Desibach]]></name>
<description><![CDATA[88 connections
]]></description>
<Point>
<coordinates>8.643930,47.552000</coordinates>
</Point>
</Placemark>
<Placemark id="pm8231">
<name><![CDATA[Hünikon]]></name>
<description><![CDATA[86 connections
]]></description>
<Point>
<coordinates>8.667580,47.552200</coordinates>
</Point>
</Placemark>
<Placemark id="pm8960">
<name><![CDATA[Neftenbach, Vontobel]]></name>
<description><![CDATA[86 connections
]]></description>
<Point>
<coordinates>8.656780,47.553000</coordinates>
</Point>
</Placemark>
<Placemark id="pm4741">
<name><![CDATA[Humlikon, Flaachtalstrasse]]></name>
<description><![CDATA[72 connections
]]></description>
<Point>
<coordinates>8.668420,47.573700</coordinates>
</Point>
</Placemark>
<Placemark id="pm2263">
<name><![CDATA[Humlikon, Im Gern]]></name>
<description><![CDATA[70 connections
]]></description>
<Point>
<coordinates>8.672710,47.576200</coordinates>
</Point>
</Placemark>
</Document>
</kml>
