<?xml version="1.0" encoding="UTF-8"?>
<!-- KML Regionator 303:340M -->
<kml xmlns="http://earth.google.com/kml/2.1">
<Document>
<name>1063 0300032</name>
<Region>
<Lod>
<minLodPixels>256</minLodPixels>
<maxLodPixels>-1</maxLodPixels>
</Lod>
<LatLonAltBox>
<north>47.548828125</north>
<south>47.4609375</south>
<east>8.701171875</east>
<west>8.61328125</west>
</LatLonAltBox>
</Region>
<Placemark id="pm13282">
<name><![CDATA[Neftenbach, Tössallmend]]></name>
<description><![CDATA[150 connections
]]></description>
<Point>
<coordinates>8.657790,47.519600</coordinates>
</Point>
</Placemark>
<Placemark id="pm9340">
<name><![CDATA[Hettlingen]]></name>
<description><![CDATA[144 connections
]]></description>
<Point>
<coordinates>8.694810,47.545500</coordinates>
</Point>
</Placemark>
<Placemark id="pm5532">
<name><![CDATA[Pfungen-Neftenbach, Bahnhof]]></name>
<description><![CDATA[118 connections
]]></description>
<Point>
<coordinates>8.647080,47.515900</coordinates>
</Point>
</Placemark>
<Placemark id="pm6308">
<name><![CDATA[Winterthur Wülflingen]]></name>
<description><![CDATA[102 connections
]]></description>
<Point>
<coordinates>8.680900,47.506400</coordinates>
</Point>
</Placemark>
<Placemark id="pm1000">
<name><![CDATA[Pfungen-Neftenbach]]></name>
<description><![CDATA[102 connections
]]></description>
<Point>
<coordinates>8.646610,47.516000</coordinates>
</Point>
</Placemark>
<Placemark id="pm605">
<name><![CDATA[Winterthur, Langwiesen]]></name>
<description><![CDATA[96 connections
]]></description>
<Point>
<coordinates>8.685360,47.513700</coordinates>
</Point>
</Placemark>
<Placemark id="pm7310">
<name><![CDATA[Buch a. Irchel, Post]]></name>
<description><![CDATA[92 connections
]]></description>
<Point>
<coordinates>8.622070,47.547700</coordinates>
</Point>
</Placemark>
<Placemark id="pm6773">
<name><![CDATA[Aesch b. Neftenbach]]></name>
<description><![CDATA[86 connections
]]></description>
<Point>
<coordinates>8.681230,47.541900</coordinates>
</Point>
</Placemark>
<Placemark id="pm9695">
<name><![CDATA[Riet b. Neftenbach]]></name>
<description><![CDATA[80 connections
]]></description>
<Point>
<coordinates>8.686350,47.536400</coordinates>
</Point>
</Placemark>
<Placemark id="pm7277">
<name><![CDATA[Dättlikon]]></name>
<description><![CDATA[59 connections
]]></description>
<Point>
<coordinates>8.622920,47.525100</coordinates>
</Point>
</Placemark>
<Placemark id="pm3925">
<name><![CDATA[Neftenbach, Herrgass]]></name>
<description><![CDATA[8 connections
]]></description>
<Point>
<coordinates>8.659250,47.525000</coordinates>
</Point>
</Placemark>
<Placemark id="pm8417">
<name><![CDATA[Hettlingen, Bahnhof]]></name>
<description><![CDATA[6 connections
]]></description>
<Point>
<coordinates>8.694590,47.545100</coordinates>
</Point>
</Placemark>
</Document>
</kml>
