<?xml version="1.0" encoding="UTF-8"?>
<!-- KML Regionator 303:340M -->
<kml xmlns="http://earth.google.com/kml/2.1">
<Document>
<name>1107 03001313</name>
<Region>
<Lod>
<minLodPixels>256</minLodPixels>
<maxLodPixels>-1</maxLodPixels>
</Lod>
<LatLonAltBox>
<north>47.5927734375</north>
<south>47.548828125</south>
<east>9.140625</east>
<west>9.0966796875</west>
</LatLonAltBox>
</Region>
<Placemark id="pm6333">
<name><![CDATA[Weinfelden, Schlossgasse]]></name>
<description><![CDATA[52 connections
]]></description>
<Point>
<coordinates>9.106570,47.570500</coordinates>
</Point>
</Placemark>
<Placemark id="pm4536">
<name><![CDATA[Rothenhausen, Post]]></name>
<description><![CDATA[39 connections
]]></description>
<Point>
<coordinates>9.102240,47.549200</coordinates>
</Point>
</Placemark>
<Placemark id="pm3515">
<name><![CDATA[Weinfelden, Thurland]]></name>
<description><![CDATA[24 connections
]]></description>
<Point>
<coordinates>9.105530,47.558600</coordinates>
</Point>
</Placemark>
<Placemark id="pm13695">
<name><![CDATA[Weinfelden, Walkestrasse]]></name>
<description><![CDATA[24 connections
]]></description>
<Point>
<coordinates>9.099760,47.565200</coordinates>
</Point>
</Placemark>
<Placemark id="pm2711">
<name><![CDATA[Weinfelden, Humana]]></name>
<description><![CDATA[22 connections
]]></description>
<Point>
<coordinates>9.114980,47.567400</coordinates>
</Point>
</Placemark>
<Placemark id="pm7706">
<name><![CDATA[Weinfelden, Sonnenplatz]]></name>
<description><![CDATA[22 connections
]]></description>
<Point>
<coordinates>9.113780,47.567500</coordinates>
</Point>
</Placemark>
<Placemark id="pm963">
<name><![CDATA[Weinfelden, Felsenstrasse]]></name>
<description><![CDATA[22 connections
]]></description>
<Point>
<coordinates>9.110380,47.565100</coordinates>
</Point>
</Placemark>
<Placemark id="pm2633">
<name><![CDATA[Weinfelden, Aeuli]]></name>
<description><![CDATA[20 connections
]]></description>
<Point>
<coordinates>9.122370,47.565800</coordinates>
</Point>
</Placemark>
<Placemark id="pm10644">
<name><![CDATA[Weinfelden, Pflegeheim]]></name>
<description><![CDATA[18 connections
]]></description>
<Point>
<coordinates>9.119640,47.563600</coordinates>
</Point>
</Placemark>
<Placemark id="pm11012">
<name><![CDATA[Weinfelden, Friedheim]]></name>
<description><![CDATA[16 connections
]]></description>
<Point>
<coordinates>9.133620,47.564300</coordinates>
</Point>
</Placemark>
</Document>
</kml>
