<?xml version="1.0" encoding="UTF-8"?>
<!-- KML Regionator 303:340M -->
<kml xmlns="http://earth.google.com/kml/2.1">
<Document>
<name>1108 0300132</name>
<Region>
<Lod>
<minLodPixels>256</minLodPixels>
<maxLodPixels>-1</maxLodPixels>
</Lod>
<LatLonAltBox>
<north>47.548828125</north>
<south>47.4609375</south>
<east>9.052734375</east>
<west>8.96484375</west>
</LatLonAltBox>
</Region>
<NetworkLink>
<name>03001320</name>
<Region>
<Lod>
<minLodPixels>256</minLodPixels>
<maxLodPixels>-1</maxLodPixels>
</Lod>
<LatLonAltBox>
<north>47.548828125</north>
<south>47.5048828125</south>
<east>9.0087890625</east>
<west>8.96484375</west>
</LatLonAltBox>
</Region>
<Link>
<href>1109.kml</href>
<viewRefreshMode>onRegion</viewRefreshMode>
<viewFormat/>
</Link>
</NetworkLink>
<NetworkLink>
<name>03001321</name>
<Region>
<Lod>
<minLodPixels>256</minLodPixels>
<maxLodPixels>-1</maxLodPixels>
</Lod>
<LatLonAltBox>
<north>47.548828125</north>
<south>47.5048828125</south>
<east>9.052734375</east>
<west>9.0087890625</west>
</LatLonAltBox>
</Region>
<Link>
<href>1110.kml</href>
<viewRefreshMode>onRegion</viewRefreshMode>
<viewFormat/>
</Link>
</NetworkLink>
<NetworkLink>
<name>03001323</name>
<Region>
<Lod>
<minLodPixels>256</minLodPixels>
<maxLodPixels>-1</maxLodPixels>
</Lod>
<LatLonAltBox>
<north>47.5048828125</north>
<south>47.4609375</south>
<east>9.052734375</east>
<west>9.0087890625</west>
</LatLonAltBox>
</Region>
<Link>
<href>1111.kml</href>
<viewRefreshMode>onRegion</viewRefreshMode>
<viewFormat/>
</Link>
</NetworkLink>
<Placemark id="pm10892">
<name><![CDATA[Eschlikon TG, altes Schulhaus]]></name>
<description><![CDATA[130 connections
]]></description>
<Point>
<coordinates>8.970590,47.464400</coordinates>
</Point>
</Placemark>
<Placemark id="pm5596">
<name><![CDATA[Wil SG, Rose]]></name>
<description><![CDATA[122 connections
]]></description>
<Point>
<coordinates>9.046900,47.465700</coordinates>
</Point>
</Placemark>
<Placemark id="pm10450">
<name><![CDATA[Wil SG, Schwanen]]></name>
<description><![CDATA[122 connections
]]></description>
<Point>
<coordinates>9.043230,47.465000</coordinates>
</Point>
</Placemark>
<Placemark id="pm11087">
<name><![CDATA[Wil SG, Bleiche]]></name>
<description><![CDATA[100 connections
]]></description>
<Point>
<coordinates>9.045580,47.465900</coordinates>
</Point>
</Placemark>
<Placemark id="pm254">
<name><![CDATA[Bronschhofen]]></name>
<description><![CDATA[84 connections
]]></description>
<Point>
<coordinates>9.034660,47.475500</coordinates>
</Point>
</Placemark>
<Placemark id="pm13814">
<name><![CDATA[Tobel-Affeltrangen]]></name>
<description><![CDATA[84 connections
]]></description>
<Point>
<coordinates>9.033680,47.521300</coordinates>
</Point>
</Placemark>
<Placemark id="pm3285">
<name><![CDATA[Bronschhofen AMP]]></name>
<description><![CDATA[84 connections
]]></description>
<Point>
<coordinates>9.030900,47.481300</coordinates>
</Point>
</Placemark>
<Placemark id="pm14940">
<name><![CDATA[T채gerschen]]></name>
<description><![CDATA[84 connections
]]></description>
<Point>
<coordinates>9.024780,47.509400</coordinates>
</Point>
</Placemark>
<Placemark id="pm3588">
<name><![CDATA[Bettwiesen]]></name>
<description><![CDATA[84 connections
]]></description>
<Point>
<coordinates>9.020760,47.498600</coordinates>
</Point>
</Placemark>
<Placemark id="pm7656">
<name><![CDATA[Strohwilen, Dorf]]></name>
<description><![CDATA[40 connections
]]></description>
<Point>
<coordinates>9.014370,47.543000</coordinates>
</Point>
</Placemark>
<Placemark id="pm14635">
<name><![CDATA[Affeltrangen, Post]]></name>
<description><![CDATA[36 connections
]]></description>
<Point>
<coordinates>9.031490,47.527000</coordinates>
</Point>
</Placemark>
<Placemark id="pm4891">
<name><![CDATA[Lommis, Krattenbach]]></name>
<description><![CDATA[36 connections
]]></description>
<Point>
<coordinates>8.998020,47.518000</coordinates>
</Point>
</Placemark>
<Placemark id="pm9674">
<name><![CDATA[Lommis, Post]]></name>
<description><![CDATA[36 connections
]]></description>
<Point>
<coordinates>8.993370,47.517700</coordinates>
</Point>
</Placemark>
<Placemark id="pm7120">
<name><![CDATA[Weingarten, Br체cke]]></name>
<description><![CDATA[36 connections
]]></description>
<Point>
<coordinates>8.986180,47.521600</coordinates>
</Point>
</Placemark>
<Placemark id="pm4984">
<name><![CDATA[Weingarten-Kalth채usern, Post]]></name>
<description><![CDATA[36 connections
]]></description>
<Point>
<coordinates>8.985270,47.524500</coordinates>
</Point>
</Placemark>
<Placemark id="pm5390">
<name><![CDATA[Kalth채usern, Dorf]]></name>
<description><![CDATA[36 connections
]]></description>
<Point>
<coordinates>8.975930,47.523100</coordinates>
</Point>
</Placemark>
</Document>
</kml>
