<?xml version="1.0" encoding="UTF-8"?>
<!-- KML Regionator 303:340M -->
<kml xmlns="http://earth.google.com/kml/2.1">
<Document>
<name>1143 0300211</name>
<Region>
<Lod>
<minLodPixels>256</minLodPixels>
<maxLodPixels>-1</maxLodPixels>
</Lod>
<LatLonAltBox>
<north>47.4609375</north>
<south>47.373046875</south>
<east>8.7890625</east>
<west>8.701171875</west>
</LatLonAltBox>
</Region>
<NetworkLink>
<name>03002110</name>
<Region>
<Lod>
<minLodPixels>256</minLodPixels>
<maxLodPixels>-1</maxLodPixels>
</Lod>
<LatLonAltBox>
<north>47.4609375</north>
<south>47.4169921875</south>
<east>8.7451171875</east>
<west>8.701171875</west>
</LatLonAltBox>
</Region>
<Link>
<href>1144.kml</href>
<viewRefreshMode>onRegion</viewRefreshMode>
<viewFormat/>
</Link>
</NetworkLink>
<NetworkLink>
<name>03002111</name>
<Region>
<Lod>
<minLodPixels>256</minLodPixels>
<maxLodPixels>-1</maxLodPixels>
</Lod>
<LatLonAltBox>
<north>47.4609375</north>
<south>47.4169921875</south>
<east>8.7890625</east>
<west>8.7451171875</west>
</LatLonAltBox>
</Region>
<Link>
<href>1145.kml</href>
<viewRefreshMode>onRegion</viewRefreshMode>
<viewFormat/>
</Link>
</NetworkLink>
<NetworkLink>
<name>03002112</name>
<Region>
<Lod>
<minLodPixels>256</minLodPixels>
<maxLodPixels>-1</maxLodPixels>
</Lod>
<LatLonAltBox>
<north>47.4169921875</north>
<south>47.373046875</south>
<east>8.7451171875</east>
<west>8.701171875</west>
</LatLonAltBox>
</Region>
<Link>
<href>1146.kml</href>
<viewRefreshMode>onRegion</viewRefreshMode>
<viewFormat/>
</Link>
</NetworkLink>
<NetworkLink>
<name>03002113</name>
<Region>
<Lod>
<minLodPixels>256</minLodPixels>
<maxLodPixels>-1</maxLodPixels>
</Lod>
<LatLonAltBox>
<north>47.4169921875</north>
<south>47.373046875</south>
<east>8.7890625</east>
<west>8.7451171875</west>
</LatLonAltBox>
</Region>
<Link>
<href>1147.kml</href>
<viewRefreshMode>onRegion</viewRefreshMode>
<viewFormat/>
</Link>
</NetworkLink>
<Placemark id="pm9307">
<name><![CDATA[Russikon, Post]]></name>
<description><![CDATA[244 connections
]]></description>
<Point>
<coordinates>8.775760,47.394600</coordinates>
</Point>
</Placemark>
<Placemark id="pm4585">
<name><![CDATA[Grafstal, Unterdorf]]></name>
<description><![CDATA[213 connections
]]></description>
<Point>
<coordinates>8.701250,47.445200</coordinates>
</Point>
</Placemark>
<Placemark id="pm14248">
<name><![CDATA[Gutenswil, Grossenacher]]></name>
<description><![CDATA[193 connections
]]></description>
<Point>
<coordinates>8.716840,47.382100</coordinates>
</Point>
</Placemark>
<Placemark id="pm14879">
<name><![CDATA[Russikon, Kirche]]></name>
<description><![CDATA[192 connections
]]></description>
<Point>
<coordinates>8.773140,47.396200</coordinates>
</Point>
</Placemark>
<Placemark id="pm10124">
<name><![CDATA[Russikon, Platte]]></name>
<description><![CDATA[192 connections
]]></description>
<Point>
<coordinates>8.770420,47.400000</coordinates>
</Point>
</Placemark>
<Placemark id="pm5196">
<name><![CDATA[Russikon, Stuketen]]></name>
<description><![CDATA[192 connections
]]></description>
<Point>
<coordinates>8.762850,47.404100</coordinates>
</Point>
</Placemark>
<Placemark id="pm14055">
<name><![CDATA[Russikon, Rumlikon]]></name>
<description><![CDATA[191 connections
]]></description>
<Point>
<coordinates>8.761540,47.409300</coordinates>
</Point>
</Placemark>
<Placemark id="pm2086">
<name><![CDATA[Kollbrunn]]></name>
<description><![CDATA[190 connections
]]></description>
<Point>
<coordinates>8.773990,47.458300</coordinates>
</Point>
</Placemark>
<Placemark id="pm3945">
<name><![CDATA[Kemptthal]]></name>
<description><![CDATA[158 connections
]]></description>
<Point>
<coordinates>8.705570,47.452800</coordinates>
</Point>
</Placemark>
<Placemark id="pm4470">
<name><![CDATA[Theilingen, Post]]></name>
<description><![CDATA[155 connections
]]></description>
<Point>
<coordinates>8.767950,47.422000</coordinates>
</Point>
</Placemark>
<Placemark id="pm10850">
<name><![CDATA[Fehraltorf]]></name>
<description><![CDATA[154 connections
]]></description>
<Point>
<coordinates>8.750260,47.385100</coordinates>
</Point>
</Placemark>
<Placemark id="pm4698">
<name><![CDATA[Illnau]]></name>
<description><![CDATA[154 connections
]]></description>
<Point>
<coordinates>8.722700,47.408800</coordinates>
</Point>
</Placemark>
<Placemark id="pm7250">
<name><![CDATA[Russikon, Thalgarten]]></name>
<description><![CDATA[146 connections
]]></description>
<Point>
<coordinates>8.778830,47.395600</coordinates>
</Point>
</Placemark>
<Placemark id="pm11560">
<name><![CDATA[Illnau, Bahnhof]]></name>
<description><![CDATA[125 connections
]]></description>
<Point>
<coordinates>8.722570,47.408900</coordinates>
</Point>
</Placemark>
<Placemark id="pm4047">
<name><![CDATA[Illnau, Horben]]></name>
<description><![CDATA[110 connections
]]></description>
<Point>
<coordinates>8.744540,47.412800</coordinates>
</Point>
</Placemark>
<Placemark id="pm1366">
<name><![CDATA[Fehraltorf, Bahnhof]]></name>
<description><![CDATA[108 connections
]]></description>
<Point>
<coordinates>8.749950,47.385500</coordinates>
</Point>
</Placemark>
</Document>
</kml>
