<?xml version="1.0" encoding="UTF-8"?>
<!-- KML Regionator 303:340M -->
<kml xmlns="http://earth.google.com/kml/2.1">
<Document>
<name>1146 03002112</name>
<Region>
<Lod>
<minLodPixels>256</minLodPixels>
<maxLodPixels>-1</maxLodPixels>
</Lod>
<LatLonAltBox>
<north>47.4169921875</north>
<south>47.373046875</south>
<east>8.7451171875</east>
<west>8.701171875</west>
</LatLonAltBox>
</Region>
<Placemark id="pm4245">
<name><![CDATA[Illnau, Kirche]]></name>
<description><![CDATA[78 connections
]]></description>
<Point>
<coordinates>8.717390,47.414600</coordinates>
</Point>
</Placemark>
<Placemark id="pm4293">
<name><![CDATA[Illnau, Löwen]]></name>
<description><![CDATA[74 connections
]]></description>
<Point>
<coordinates>8.717420,47.416300</coordinates>
</Point>
</Placemark>
<Placemark id="pm8835">
<name><![CDATA[Fehraltorf, Schützenhaus]]></name>
<description><![CDATA[68 connections
]]></description>
<Point>
<coordinates>8.744300,47.379800</coordinates>
</Point>
</Placemark>
<Placemark id="pm9450">
<name><![CDATA[Freudwil]]></name>
<description><![CDATA[68 connections
]]></description>
<Point>
<coordinates>8.734280,47.374800</coordinates>
</Point>
</Placemark>
<Placemark id="pm9282">
<name><![CDATA[Illnau, Gemeindehaus]]></name>
<description><![CDATA[32 connections
]]></description>
<Point>
<coordinates>8.719220,47.414900</coordinates>
</Point>
</Placemark>
<Placemark id="pm1910">
<name><![CDATA[Mesikon]]></name>
<description><![CDATA[24 connections
]]></description>
<Point>
<coordinates>8.744220,47.406600</coordinates>
</Point>
</Placemark>
<Placemark id="pm11227">
<name><![CDATA[Fehraltorf, Industrie]]></name>
<description><![CDATA[16 connections
]]></description>
<Point>
<coordinates>8.742630,47.391300</coordinates>
</Point>
</Placemark>
<Placemark id="pm2602">
<name><![CDATA[Fehraltorf, Schrännenbrunnen]]></name>
<description><![CDATA[12 connections
]]></description>
<Point>
<coordinates>8.736230,47.395300</coordinates>
</Point>
</Placemark>
</Document>
</kml>
