<?xml version="1.0" encoding="UTF-8"?>
<!-- KML Regionator 303:340M -->
<kml xmlns="http://earth.google.com/kml/2.1">
<Document>
<name>1231 0300302</name>
<Region>
<Lod>
<minLodPixels>256</minLodPixels>
<maxLodPixels>-1</maxLodPixels>
</Lod>
<LatLonAltBox>
<north>47.373046875</north>
<south>47.28515625</south>
<east>8.876953125</east>
<west>8.7890625</west>
</LatLonAltBox>
</Region>
<NetworkLink>
<name>03003020</name>
<Region>
<Lod>
<minLodPixels>256</minLodPixels>
<maxLodPixels>-1</maxLodPixels>
</Lod>
<LatLonAltBox>
<north>47.373046875</north>
<south>47.3291015625</south>
<east>8.8330078125</east>
<west>8.7890625</west>
</LatLonAltBox>
</Region>
<Link>
<href>1232.kml</href>
<viewRefreshMode>onRegion</viewRefreshMode>
<viewFormat/>
</Link>
</NetworkLink>
<NetworkLink>
<name>03003021</name>
<Region>
<Lod>
<minLodPixels>256</minLodPixels>
<maxLodPixels>-1</maxLodPixels>
</Lod>
<LatLonAltBox>
<north>47.373046875</north>
<south>47.3291015625</south>
<east>8.876953125</east>
<west>8.8330078125</west>
</LatLonAltBox>
</Region>
<Link>
<href>1233.kml</href>
<viewRefreshMode>onRegion</viewRefreshMode>
<viewFormat/>
</Link>
</NetworkLink>
<NetworkLink>
<name>03003022</name>
<Region>
<Lod>
<minLodPixels>256</minLodPixels>
<maxLodPixels>-1</maxLodPixels>
</Lod>
<LatLonAltBox>
<north>47.3291015625</north>
<south>47.28515625</south>
<east>8.8330078125</east>
<west>8.7890625</west>
</LatLonAltBox>
</Region>
<Link>
<href>1234.kml</href>
<viewRefreshMode>onRegion</viewRefreshMode>
<viewFormat/>
</Link>
</NetworkLink>
<NetworkLink>
<name>03003023</name>
<Region>
<Lod>
<minLodPixels>256</minLodPixels>
<maxLodPixels>-1</maxLodPixels>
</Lod>
<LatLonAltBox>
<north>47.3291015625</north>
<south>47.28515625</south>
<east>8.876953125</east>
<west>8.8330078125</west>
</LatLonAltBox>
</Region>
<Link>
<href>1235.kml</href>
<viewRefreshMode>onRegion</viewRefreshMode>
<viewFormat/>
</Link>
</NetworkLink>
<Placemark id="pm7040">
<name><![CDATA[Hinwil, Bahnhof]]></name>
<description><![CDATA[156 connections
]]></description>
<Point>
<coordinates>8.839630,47.300000</coordinates>
</Point>
</Placemark>
<Placemark id="pm579">
<name><![CDATA[Kempten]]></name>
<description><![CDATA[154 connections
]]></description>
<Point>
<coordinates>8.804700,47.332000</coordinates>
</Point>
</Placemark>
<Placemark id="pm13449">
<name><![CDATA[Hinwil, Gstalden]]></name>
<description><![CDATA[152 connections
]]></description>
<Point>
<coordinates>8.843760,47.300600</coordinates>
</Point>
</Placemark>
<Placemark id="pm14060">
<name><![CDATA[Hinwil, Dorf]]></name>
<description><![CDATA[140 connections
]]></description>
<Point>
<coordinates>8.842960,47.302500</coordinates>
</Point>
</Placemark>
<Placemark id="pm13237">
<name><![CDATA[Hinwil, Industriestrasse]]></name>
<description><![CDATA[140 connections
]]></description>
<Point>
<coordinates>8.828550,47.304100</coordinates>
</Point>
</Placemark>
<Placemark id="pm6313">
<name><![CDATA[Hinwil, Wässeristrasse]]></name>
<description><![CDATA[140 connections
]]></description>
<Point>
<coordinates>8.823600,47.304600</coordinates>
</Point>
</Placemark>
<Placemark id="pm650">
<name><![CDATA[Hinwil, Kreuzplatz]]></name>
<description><![CDATA[140 connections
]]></description>
<Point>
<coordinates>8.820030,47.304000</coordinates>
</Point>
</Placemark>
<Placemark id="pm10633">
<name><![CDATA[Hinwil, Brunnenbachstrasse]]></name>
<description><![CDATA[140 connections
]]></description>
<Point>
<coordinates>8.820000,47.305500</coordinates>
</Point>
</Placemark>
<Placemark id="pm7702">
<name><![CDATA[Wetzikon ZH, Stadion]]></name>
<description><![CDATA[140 connections
]]></description>
<Point>
<coordinates>8.799210,47.314300</coordinates>
</Point>
</Placemark>
<Placemark id="pm12330">
<name><![CDATA[Wetzikon ZH, Talstrasse]]></name>
<description><![CDATA[136 connections
]]></description>
<Point>
<coordinates>8.796060,47.326700</coordinates>
</Point>
</Placemark>
<Placemark id="pm9522">
<name><![CDATA[Wetzikon ZH, Buchgrindel]]></name>
<description><![CDATA[136 connections
]]></description>
<Point>
<coordinates>8.789690,47.328800</coordinates>
</Point>
</Placemark>
<Placemark id="pm10102">
<name><![CDATA[Bäretswil, Bärenplatz]]></name>
<description><![CDATA[132 connections
]]></description>
<Point>
<coordinates>8.856270,47.335500</coordinates>
</Point>
</Placemark>
<Placemark id="pm12374">
<name><![CDATA[Wetzikon ZH, Friedhof]]></name>
<description><![CDATA[132 connections
]]></description>
<Point>
<coordinates>8.809530,47.327300</coordinates>
</Point>
</Placemark>
<Placemark id="pm4039">
<name><![CDATA[Wetzikon ZH, Bachtelstrasse]]></name>
<description><![CDATA[132 connections
]]></description>
<Point>
<coordinates>8.807380,47.324900</coordinates>
</Point>
</Placemark>
<Placemark id="pm4987">
<name><![CDATA[Wetzikon ZH, Sonnenfeld]]></name>
<description><![CDATA[132 connections
]]></description>
<Point>
<coordinates>8.804510,47.327000</coordinates>
</Point>
</Placemark>
<Placemark id="pm12140">
<name><![CDATA[Wetzikon ZH, Spital]]></name>
<description><![CDATA[132 connections
]]></description>
<Point>
<coordinates>8.802210,47.322400</coordinates>
</Point>
</Placemark>
</Document>
</kml>
