<?xml version="1.0" encoding="UTF-8"?>
<!-- KML Regionator 303:340M -->
<kml xmlns="http://earth.google.com/kml/2.1">
<Document>
<name>1232 03003020</name>
<Region>
<Lod>
<minLodPixels>256</minLodPixels>
<maxLodPixels>-1</maxLodPixels>
</Lod>
<LatLonAltBox>
<north>47.373046875</north>
<south>47.3291015625</south>
<east>8.8330078125</east>
<west>8.7890625</west>
</LatLonAltBox>
</Region>
<Placemark id="pm7109">
<name><![CDATA[Pfäffikon ZH, Neuhof]]></name>
<description><![CDATA[130 connections
]]></description>
<Point>
<coordinates>8.795180,47.364500</coordinates>
</Point>
</Placemark>
<Placemark id="pm4134">
<name><![CDATA[Pfäffikon ZH, Irgenhausen]]></name>
<description><![CDATA[130 connections
]]></description>
<Point>
<coordinates>8.793070,47.361500</coordinates>
</Point>
</Placemark>
<Placemark id="pm6362">
<name><![CDATA[Hittnau, Sonne]]></name>
<description><![CDATA[104 connections
]]></description>
<Point>
<coordinates>8.823230,47.368800</coordinates>
</Point>
</Placemark>
<Placemark id="pm7009">
<name><![CDATA[Hittnau, Luppmen]]></name>
<description><![CDATA[100 connections
]]></description>
<Point>
<coordinates>8.830160,47.363600</coordinates>
</Point>
</Placemark>
<Placemark id="pm7157">
<name><![CDATA[Hittnau, Oberdorf]]></name>
<description><![CDATA[100 connections
]]></description>
<Point>
<coordinates>8.826610,47.366900</coordinates>
</Point>
</Placemark>
<Placemark id="pm12116">
<name><![CDATA[Hittnau, Oberhittnau]]></name>
<description><![CDATA[100 connections
]]></description>
<Point>
<coordinates>8.822850,47.360900</coordinates>
</Point>
</Placemark>
<Placemark id="pm14191">
<name><![CDATA[Hittnau, Furt]]></name>
<description><![CDATA[100 connections
]]></description>
<Point>
<coordinates>8.811170,47.360700</coordinates>
</Point>
</Placemark>
<Placemark id="pm1484">
<name><![CDATA[Pfäffikon ZH, Oberwil]]></name>
<description><![CDATA[100 connections
]]></description>
<Point>
<coordinates>8.798910,47.363700</coordinates>
</Point>
</Placemark>
</Document>
</kml>
