<?xml version="1.0" encoding="UTF-8"?>
<!-- KML Regionator 303:340M -->
<kml xmlns="http://earth.google.com/kml/2.1">
<Document>
<name>1253 03003130</name>
<Region>
<Lod>
<minLodPixels>256</minLodPixels>
<maxLodPixels>-1</maxLodPixels>
</Lod>
<LatLonAltBox>
<north>47.373046875</north>
<south>47.3291015625</south>
<east>9.0966796875</east>
<west>9.052734375</west>
</LatLonAltBox>
</Region>
<Placemark id="pm1122">
<name><![CDATA[Lichtensteig, Gurtberg]]></name>
<description><![CDATA[76 connections
]]></description>
<Point>
<coordinates>9.079190,47.329600</coordinates>
</Point>
</Placemark>
<Placemark id="pm9721">
<name><![CDATA[Oberhelfenschwil, Wigetshof]]></name>
<description><![CDATA[66 connections
]]></description>
<Point>
<coordinates>9.086970,47.345900</coordinates>
</Point>
</Placemark>
<Placemark id="pm9752">
<name><![CDATA[Dietfurt, Langensteig]]></name>
<description><![CDATA[64 connections
]]></description>
<Point>
<coordinates>9.083740,47.337600</coordinates>
</Point>
</Placemark>
<Placemark id="pm10991">
<name><![CDATA[Dietfurt, Bahnhof]]></name>
<description><![CDATA[64 connections
]]></description>
<Point>
<coordinates>9.078330,47.344700</coordinates>
</Point>
</Placemark>
<Placemark id="pm3538">
<name><![CDATA[Dietfurt, Restaurant Rössli]]></name>
<description><![CDATA[2 connections
]]></description>
<Point>
<coordinates>9.080960,47.344200</coordinates>
</Point>
</Placemark>
<Placemark id="pm12597">
<name><![CDATA[Dietfurt, Käserei]]></name>
<description><![CDATA[2 connections
]]></description>
<Point>
<coordinates>9.079660,47.345100</coordinates>
</Point>
</Placemark>
</Document>
</kml>
