<?xml version="1.0" encoding="UTF-8"?>
<!-- KML Regionator 303:340M -->
<kml xmlns="http://earth.google.com/kml/2.1">
<Document>
<name>1323 03010322</name>
<Region>
<Lod>
<minLodPixels>256</minLodPixels>
<maxLodPixels>-1</maxLodPixels>
</Lod>
<LatLonAltBox>
<north>47.5048828125</north>
<south>47.4609375</south>
<east>9.3603515625</east>
<west>9.31640625</west>
</LatLonAltBox>
</Region>
<Placemark id="pm245">
<name><![CDATA[Häggenschwil-Winden]]></name>
<description><![CDATA[134 connections
]]></description>
<Point>
<coordinates>9.358710,47.503900</coordinates>
</Point>
</Placemark>
<Placemark id="pm14706">
<name><![CDATA[Lömmenschwil, Sonnenberg]]></name>
<description><![CDATA[88 connections
]]></description>
<Point>
<coordinates>9.353180,47.497700</coordinates>
</Point>
</Placemark>
<Placemark id="pm10525">
<name><![CDATA[Lömmenschwil, Schöntal]]></name>
<description><![CDATA[88 connections
]]></description>
<Point>
<coordinates>9.353010,47.492700</coordinates>
</Point>
</Placemark>
<Placemark id="pm8904">
<name><![CDATA[Häggenschwil, Scheidweg]]></name>
<description><![CDATA[88 connections
]]></description>
<Point>
<coordinates>9.349070,47.493900</coordinates>
</Point>
</Placemark>
<Placemark id="pm3756">
<name><![CDATA[Häggenschwil, Täschlihus]]></name>
<description><![CDATA[88 connections
]]></description>
<Point>
<coordinates>9.344220,47.488400</coordinates>
</Point>
</Placemark>
<Placemark id="pm10645">
<name><![CDATA[Häggenschwil, Dorfplatz]]></name>
<description><![CDATA[88 connections
]]></description>
<Point>
<coordinates>9.343430,47.494000</coordinates>
</Point>
</Placemark>
<Placemark id="pm4884">
<name><![CDATA[Häggenschwil, Agen]]></name>
<description><![CDATA[88 connections
]]></description>
<Point>
<coordinates>9.337960,47.489600</coordinates>
</Point>
</Placemark>
<Placemark id="pm3039">
<name><![CDATA[Häggenschwil-Winden, Bahnhof]]></name>
<description><![CDATA[44 connections
]]></description>
<Point>
<coordinates>9.358720,47.503900</coordinates>
</Point>
</Placemark>
</Document>
</kml>
