<?xml version="1.0" encoding="UTF-8"?>
<!-- KML Regionator 303:340M -->
<kml xmlns="http://earth.google.com/kml/2.1">
<Document>
<name>141 0203300</name>
<Region>
<Lod>
<minLodPixels>256</minLodPixels>
<maxLodPixels>-1</maxLodPixels>
</Lod>
<LatLonAltBox>
<north>46.7578125</north>
<south>46.669921875</south>
<east>6.767578125</east>
<west>6.6796875</west>
</LatLonAltBox>
</Region>
<NetworkLink>
<name>02033000</name>
<Region>
<Lod>
<minLodPixels>256</minLodPixels>
<maxLodPixels>-1</maxLodPixels>
</Lod>
<LatLonAltBox>
<north>46.7578125</north>
<south>46.7138671875</south>
<east>6.7236328125</east>
<west>6.6796875</west>
</LatLonAltBox>
</Region>
<Link>
<href>142.kml</href>
<viewRefreshMode>onRegion</viewRefreshMode>
<viewFormat/>
</Link>
</NetworkLink>
<NetworkLink>
<name>02033001</name>
<Region>
<Lod>
<minLodPixels>256</minLodPixels>
<maxLodPixels>-1</maxLodPixels>
</Lod>
<LatLonAltBox>
<north>46.7578125</north>
<south>46.7138671875</south>
<east>6.767578125</east>
<west>6.7236328125</west>
</LatLonAltBox>
</Region>
<Link>
<href>143.kml</href>
<viewRefreshMode>onRegion</viewRefreshMode>
<viewFormat/>
</Link>
</NetworkLink>
<NetworkLink>
<name>02033002</name>
<Region>
<Lod>
<minLodPixels>256</minLodPixels>
<maxLodPixels>-1</maxLodPixels>
</Lod>
<LatLonAltBox>
<north>46.7138671875</north>
<south>46.669921875</south>
<east>6.7236328125</east>
<west>6.6796875</west>
</LatLonAltBox>
</Region>
<Link>
<href>144.kml</href>
<viewRefreshMode>onRegion</viewRefreshMode>
<viewFormat/>
</Link>
</NetworkLink>
<NetworkLink>
<name>02033003</name>
<Region>
<Lod>
<minLodPixels>256</minLodPixels>
<maxLodPixels>-1</maxLodPixels>
</Lod>
<LatLonAltBox>
<north>46.7138671875</north>
<south>46.669921875</south>
<east>6.767578125</east>
<west>6.7236328125</west>
</LatLonAltBox>
</Region>
<Link>
<href>145.kml</href>
<viewRefreshMode>onRegion</viewRefreshMode>
<viewFormat/>
</Link>
</NetworkLink>
<Placemark id="pm14822">
<name><![CDATA[St-Cierges, grande salle]]></name>
<description><![CDATA[68 connections
]]></description>
<Point>
<coordinates>6.735000,46.689600</coordinates>
</Point>
</Placemark>
<Placemark id="pm10616">
<name><![CDATA[Donneloye, croisée]]></name>
<description><![CDATA[66 connections
]]></description>
<Point>
<coordinates>6.714020,46.743000</coordinates>
</Point>
</Placemark>
<Placemark id="pm3155">
<name><![CDATA[Bercher]]></name>
<description><![CDATA[64 connections
]]></description>
<Point>
<coordinates>6.703370,46.692500</coordinates>
</Point>
</Placemark>
<Placemark id="pm6966">
<name><![CDATA[Thierrens, Prouty]]></name>
<description><![CDATA[62 connections
]]></description>
<Point>
<coordinates>6.751520,46.701600</coordinates>
</Point>
</Placemark>
<Placemark id="pm8303">
<name><![CDATA[Thierrens, La Rapaz]]></name>
<description><![CDATA[62 connections
]]></description>
<Point>
<coordinates>6.747950,46.699400</coordinates>
</Point>
</Placemark>
<Placemark id="pm12264">
<name><![CDATA[St-Cierges, Transformateur]]></name>
<description><![CDATA[62 connections
]]></description>
<Point>
<coordinates>6.735620,46.692100</coordinates>
</Point>
</Placemark>
<Placemark id="pm9431">
<name><![CDATA[Prahins, village]]></name>
<description><![CDATA[60 connections
]]></description>
<Point>
<coordinates>6.733770,46.733900</coordinates>
</Point>
</Placemark>
<Placemark id="pm13868">
<name><![CDATA[Donneloye, poste]]></name>
<description><![CDATA[60 connections
]]></description>
<Point>
<coordinates>6.717340,46.744800</coordinates>
</Point>
</Placemark>
<Placemark id="pm10487">
<name><![CDATA[Chanéaz, poste]]></name>
<description><![CDATA[54 connections
]]></description>
<Point>
<coordinates>6.742010,46.728800</coordinates>
</Point>
</Placemark>
<Placemark id="pm11280">
<name><![CDATA[Cronay, église]]></name>
<description><![CDATA[54 connections
]]></description>
<Point>
<coordinates>6.696750,46.757100</coordinates>
</Point>
</Placemark>
<Placemark id="pm4829">
<name><![CDATA[Cronay, poste]]></name>
<description><![CDATA[54 connections
]]></description>
<Point>
<coordinates>6.695870,46.754800</coordinates>
</Point>
</Placemark>
<Placemark id="pm9541">
<name><![CDATA[Thierrens, en Tombaz]]></name>
<description><![CDATA[52 connections
]]></description>
<Point>
<coordinates>6.752100,46.707500</coordinates>
</Point>
</Placemark>
<Placemark id="pm2889">
<name><![CDATA[Correvon, village]]></name>
<description><![CDATA[52 connections
]]></description>
<Point>
<coordinates>6.737280,46.715700</coordinates>
</Point>
</Placemark>
<Placemark id="pm10067">
<name><![CDATA[Chapelle-sur-Moudon, Mulles]]></name>
<description><![CDATA[44 connections
]]></description>
<Point>
<coordinates>6.738480,46.673200</coordinates>
</Point>
</Placemark>
<Placemark id="pm1642">
<name><![CDATA[St-Cierges, La Tondiaz]]></name>
<description><![CDATA[44 connections
]]></description>
<Point>
<coordinates>6.734730,46.685100</coordinates>
</Point>
</Placemark>
<Placemark id="pm12153">
<name><![CDATA[Rueyres VD, Le Dejors]]></name>
<description><![CDATA[44 connections
]]></description>
<Point>
<coordinates>6.696070,46.692600</coordinates>
</Point>
</Placemark>
</Document>
</kml>
