<?xml version="1.0" encoding="UTF-8"?>
<!-- KML Regionator 303:340M -->
<kml xmlns="http://earth.google.com/kml/2.1">
<Document>
<name>1419 03013222</name>
<Region>
<Lod>
<minLodPixels>256</minLodPixels>
<maxLodPixels>-1</maxLodPixels>
</Lod>
<LatLonAltBox>
<north>47.1533203125</north>
<south>47.109375</south>
<east>9.5361328125</east>
<west>9.4921875</west>
</LatLonAltBox>
</Region>
<Placemark id="pm14225">
<name><![CDATA[Weite, Plattis]]></name>
<description><![CDATA[90 connections
]]></description>
<Point>
<coordinates>9.499900,47.121500</coordinates>
</Point>
</Placemark>
<Placemark id="pm5283">
<name><![CDATA[Räfis, Schulhaus]]></name>
<description><![CDATA[90 connections
]]></description>
<Point>
<coordinates>9.495630,47.147700</coordinates>
</Point>
</Placemark>
<Placemark id="pm2768">
<name><![CDATA[Sevelen, Post]]></name>
<description><![CDATA[60 connections
]]></description>
<Point>
<coordinates>9.494020,47.122800</coordinates>
</Point>
</Placemark>
<Placemark id="pm13893">
<name><![CDATA[Sevelen, Bahnhof]]></name>
<description><![CDATA[60 connections
]]></description>
<Point>
<coordinates>9.493450,47.125200</coordinates>
</Point>
</Placemark>
<Placemark id="pm12107">
<name><![CDATA[Sevelen]]></name>
<description><![CDATA[58 connections
]]></description>
<Point>
<coordinates>9.493830,47.125400</coordinates>
</Point>
</Placemark>
<Placemark id="pm3636">
<name><![CDATA[Vaduz, Lettstrasse]]></name>
<description><![CDATA[50 connections
]]></description>
<Point>
<coordinates>9.520290,47.140800</coordinates>
</Point>
</Placemark>
<Placemark id="pm10680">
<name><![CDATA[Vaduz, Alte Rheinbrücke]]></name>
<description><![CDATA[50 connections
]]></description>
<Point>
<coordinates>9.517970,47.133300</coordinates>
</Point>
</Placemark>
<Placemark id="pm5443">
<name><![CDATA[Vaduz, Rheinpark Stadion]]></name>
<description><![CDATA[50 connections
]]></description>
<Point>
<coordinates>9.514020,47.138800</coordinates>
</Point>
</Placemark>
</Document>
</kml>
