<?xml version="1.0" encoding="UTF-8"?>
<!-- KML Regionator 303:340M -->
<kml xmlns="http://earth.google.com/kml/2.1">
<Document>
<name>1527 03030223</name>
<Region>
<Lod>
<minLodPixels>256</minLodPixels>
<maxLodPixels>-1</maxLodPixels>
</Lod>
<LatLonAltBox>
<north>46.8017578125</north>
<south>46.7578125</south>
<east>9.228515625</east>
<west>9.1845703125</west>
</LatLonAltBox>
</Region>
<Placemark id="pm1496">
<name><![CDATA[Castrisch, Schleps]]></name>
<description><![CDATA[50 connections
]]></description>
<Point>
<coordinates>9.225570,46.773500</coordinates>
</Point>
</Placemark>
<Placemark id="pm1183">
<name><![CDATA[Tegia alva]]></name>
<description><![CDATA[50 connections
]]></description>
<Point>
<coordinates>9.204310,46.760400</coordinates>
</Point>
</Placemark>
<Placemark id="pm6141">
<name><![CDATA[Sevgein, vitg]]></name>
<description><![CDATA[47 connections
]]></description>
<Point>
<coordinates>9.221870,46.764800</coordinates>
</Point>
</Placemark>
<Placemark id="pm10248">
<name><![CDATA[Sevgein, Curschetta]]></name>
<description><![CDATA[42 connections
]]></description>
<Point>
<coordinates>9.218000,46.762500</coordinates>
</Point>
</Placemark>
<Placemark id="pm12042">
<name><![CDATA[Ladir, Drascla]]></name>
<description><![CDATA[38 connections
]]></description>
<Point>
<coordinates>9.201550,46.788000</coordinates>
</Point>
</Placemark>
<Placemark id="pm6532">
<name><![CDATA[Ilanz, Albertushof]]></name>
<description><![CDATA[38 connections
]]></description>
<Point>
<coordinates>9.195560,46.776900</coordinates>
</Point>
</Placemark>
<Placemark id="pm9027">
<name><![CDATA[Ruschein, posta]]></name>
<description><![CDATA[38 connections
]]></description>
<Point>
<coordinates>9.192950,46.785300</coordinates>
</Point>
</Placemark>
<Placemark id="pm13599">
<name><![CDATA[Ruschein, Clis]]></name>
<description><![CDATA[38 connections
]]></description>
<Point>
<coordinates>9.190500,46.782600</coordinates>
</Point>
</Placemark>
<Placemark id="pm2295">
<name><![CDATA[Ruschein, Tischinas]]></name>
<description><![CDATA[38 connections
]]></description>
<Point>
<coordinates>9.189900,46.780100</coordinates>
</Point>
</Placemark>
<Placemark id="pm10679">
<name><![CDATA[Luven, Sut vitg]]></name>
<description><![CDATA[30 connections
]]></description>
<Point>
<coordinates>9.201320,46.760900</coordinates>
</Point>
</Placemark>
<Placemark id="pm9919">
<name><![CDATA[Ladir, vitg]]></name>
<description><![CDATA[19 connections
]]></description>
<Point>
<coordinates>9.202670,46.790000</coordinates>
</Point>
</Placemark>
<Placemark id="pm2187">
<name><![CDATA[Luven, posta]]></name>
<description><![CDATA[15 connections
]]></description>
<Point>
<coordinates>9.199210,46.760400</coordinates>
</Point>
</Placemark>
</Document>
</kml>
