<?xml version="1.0" encoding="UTF-8"?>
<!-- KML Regionator 303:340M -->
<kml xmlns="http://earth.google.com/kml/2.1">
<Document>
<name>1539 03030332</name>
<Region>
<Lod>
<minLodPixels>256</minLodPixels>
<maxLodPixels>-1</maxLodPixels>
</Lod>
<LatLonAltBox>
<north>46.8017578125</north>
<south>46.7578125</south>
<east>9.4482421875</east>
<west>9.404296875</west>
</LatLonAltBox>
</Region>
<Placemark id="pm5017">
<name><![CDATA[Feldis/Veulden, Nurlagn]]></name>
<description><![CDATA[46 connections
]]></description>
<Point>
<coordinates>9.435210,46.793700</coordinates>
</Point>
</Placemark>
<Placemark id="pm13066">
<name><![CDATA[Feldis/Veulden, Post]]></name>
<description><![CDATA[44 connections
]]></description>
<Point>
<coordinates>9.432850,46.793800</coordinates>
</Point>
</Placemark>
<Placemark id="pm7152">
<name><![CDATA[Scheid, Giudem vitg]]></name>
<description><![CDATA[40 connections
]]></description>
<Point>
<coordinates>9.447700,46.775500</coordinates>
</Point>
</Placemark>
<Placemark id="pm13087">
<name><![CDATA[Tumegl/Tomils, Abzw. Hof Moos]]></name>
<description><![CDATA[40 connections
]]></description>
<Point>
<coordinates>9.447370,46.761400</coordinates>
</Point>
</Placemark>
<Placemark id="pm5479">
<name><![CDATA[Feldis/Veulden]]></name>
<description><![CDATA[32 connections
]]></description>
<Point>
<coordinates>9.429820,46.795100</coordinates>
</Point>
</Placemark>
<Placemark id="pm9110">
<name><![CDATA[Feldis/Veulden, Schulhaus]]></name>
<description><![CDATA[20 connections
]]></description>
<Point>
<coordinates>9.427130,46.795100</coordinates>
</Point>
</Placemark>
<Placemark id="pm2980">
<name><![CDATA[Rothenbrunnen, Bahnhof]]></name>
<description><![CDATA[19 connections
]]></description>
<Point>
<coordinates>9.419580,46.767700</coordinates>
</Point>
</Placemark>
<Placemark id="pm8869">
<name><![CDATA[Rothenbrunnen, Abzw. Bahnhof]]></name>
<description><![CDATA[10 connections
]]></description>
<Point>
<coordinates>9.423500,46.767700</coordinates>
</Point>
</Placemark>
<Placemark id="pm978">
<name><![CDATA[Tumegl/Tomils, Dorf]]></name>
<description><![CDATA[3 connections
]]></description>
<Point>
<coordinates>9.440220,46.762800</coordinates>
</Point>
</Placemark>
</Document>
</kml>
