<?xml version="1.0" encoding="UTF-8"?>
<!-- KML Regionator 303:340M -->
<kml xmlns="http://earth.google.com/kml/2.1">
<Document>
<name>1606 0303302</name>
<Region>
<Lod>
<minLodPixels>256</minLodPixels>
<maxLodPixels>-1</maxLodPixels>
</Lod>
<LatLonAltBox>
<north>46.669921875</north>
<south>46.58203125</south>
<east>9.580078125</east>
<west>9.4921875</west>
</LatLonAltBox>
</Region>
<Placemark id="pm12205">
<name><![CDATA[Tiefencastel]]></name>
<description><![CDATA[84 connections
]]></description>
<Point>
<coordinates>9.572860,46.663900</coordinates>
</Point>
</Placemark>
<Placemark id="pm10885">
<name><![CDATA[Mon, Abzw.]]></name>
<description><![CDATA[48 connections
]]></description>
<Point>
<coordinates>9.562960,46.651100</coordinates>
</Point>
</Placemark>
<Placemark id="pm0">
<name><![CDATA[Salouf, posta]]></name>
<description><![CDATA[41 connections
]]></description>
<Point>
<coordinates>9.575630,46.624500</coordinates>
</Point>
</Placemark>
<Placemark id="pm13375">
<name><![CDATA[Parsonz]]></name>
<description><![CDATA[41 connections
]]></description>
<Point>
<coordinates>9.571470,46.610000</coordinates>
</Point>
</Placemark>
<Placemark id="pm13963">
<name><![CDATA[Stierva, posta]]></name>
<description><![CDATA[24 connections
]]></description>
<Point>
<coordinates>9.541550,46.663400</coordinates>
</Point>
</Placemark>
<Placemark id="pm7252">
<name><![CDATA[Salouf, Kirche]]></name>
<description><![CDATA[16 connections
]]></description>
<Point>
<coordinates>9.574800,46.628300</coordinates>
</Point>
</Placemark>
<Placemark id="pm5535">
<name><![CDATA[Salouf, Pulens]]></name>
<description><![CDATA[16 connections
]]></description>
<Point>
<coordinates>9.572340,46.632000</coordinates>
</Point>
</Placemark>
<Placemark id="pm7692">
<name><![CDATA[Salouf, Hof Del]]></name>
<description><![CDATA[16 connections
]]></description>
<Point>
<coordinates>9.571000,46.639400</coordinates>
</Point>
</Placemark>
<Placemark id="pm2048">
<name><![CDATA[Mon, posta]]></name>
<description><![CDATA[16 connections
]]></description>
<Point>
<coordinates>9.564200,46.649200</coordinates>
</Point>
</Placemark>
</Document>
</kml>
