<?xml version="1.0" encoding="UTF-8"?>
<!-- KML Regionator 303:340M -->
<kml xmlns="http://earth.google.com/kml/2.1">
<Document>
<name>1660 0320031</name>
<Region>
<Lod>
<minLodPixels>256</minLodPixels>
<maxLodPixels>-1</maxLodPixels>
</Lod>
<LatLonAltBox>
<north>46.23046875</north>
<south>46.142578125</south>
<east>8.7890625</east>
<west>8.701171875</west>
</LatLonAltBox>
</Region>
<Placemark id="pm9704">
<name><![CDATA[Losone, Posta]]></name>
<description><![CDATA[36 connections
]]></description>
<Point>
<coordinates>8.762500,46.165000</coordinates>
</Point>
</Placemark>
<Placemark id="pm950">
<name><![CDATA[Gruppaldo, cappella]]></name>
<description><![CDATA[36 connections
]]></description>
<Point>
<coordinates>8.742440,46.152100</coordinates>
</Point>
</Placemark>
<Placemark id="pm12421">
<name><![CDATA[Arcegno, Posta]]></name>
<description><![CDATA[36 connections
]]></description>
<Point>
<coordinates>8.742350,46.161800</coordinates>
</Point>
</Placemark>
<Placemark id="pm7581">
<name><![CDATA[Livurcio]]></name>
<description><![CDATA[36 connections
]]></description>
<Point>
<coordinates>8.732990,46.149300</coordinates>
</Point>
</Placemark>
<Placemark id="pm12592">
<name><![CDATA[Losone, Mercato Cattori]]></name>
<description><![CDATA[32 connections
]]></description>
<Point>
<coordinates>8.768660,46.165300</coordinates>
</Point>
</Placemark>
<Placemark id="pm11041">
<name><![CDATA[Losone, Arbigo]]></name>
<description><![CDATA[32 connections
]]></description>
<Point>
<coordinates>8.757770,46.170200</coordinates>
</Point>
</Placemark>
<Placemark id="pm2333">
<name><![CDATA[Losone, Zandone]]></name>
<description><![CDATA[32 connections
]]></description>
<Point>
<coordinates>8.733950,46.176100</coordinates>
</Point>
</Placemark>
<Placemark id="pm7775">
<name><![CDATA[Losone, Zandone Campeggio]]></name>
<description><![CDATA[32 connections
]]></description>
<Point>
<coordinates>8.731820,46.181700</coordinates>
</Point>
</Placemark>
<Placemark id="pm11833">
<name><![CDATA[Cavigliano, Bivio Onsernone]]></name>
<description><![CDATA[32 connections
]]></description>
<Point>
<coordinates>8.715860,46.191800</coordinates>
</Point>
</Placemark>
<Placemark id="pm8114">
<name><![CDATA[Golino, Posta]]></name>
<description><![CDATA[32 connections
]]></description>
<Point>
<coordinates>8.712990,46.179700</coordinates>
</Point>
</Placemark>
<Placemark id="pm48">
<name><![CDATA[Golino, Ponte]]></name>
<description><![CDATA[32 connections
]]></description>
<Point>
<coordinates>8.703890,46.178500</coordinates>
</Point>
</Placemark>
<Placemark id="pm7291">
<name><![CDATA[Intragna, Ponte]]></name>
<description><![CDATA[32 connections
]]></description>
<Point>
<coordinates>8.701350,46.180300</coordinates>
</Point>
</Placemark>
<Placemark id="pm7313">
<name><![CDATA[Ronco sopra Ascona, Posta]]></name>
<description><![CDATA[30 connections
]]></description>
<Point>
<coordinates>8.726390,46.144000</coordinates>
</Point>
</Placemark>
<Placemark id="pm13168">
<name><![CDATA[Cardada]]></name>
<description><![CDATA[22 connections
]]></description>
<Point>
<coordinates>8.781970,46.190700</coordinates>
</Point>
</Placemark>
</Document>
</kml>
