<?xml version="1.0" encoding="UTF-8"?>
<!-- KML Regionator 303:340M -->
<kml xmlns="http://earth.google.com/kml/2.1">
<Document>
<name>1671 0320110</name>
<Region>
<Lod>
<minLodPixels>256</minLodPixels>
<maxLodPixels>-1</maxLodPixels>
</Lod>
<LatLonAltBox>
<north>46.40625</north>
<south>46.318359375</south>
<east>9.052734375</east>
<west>8.96484375</west>
</LatLonAltBox>
</Region>
<Placemark id="pm9819">
<name><![CDATA[Biasca, Industrie]]></name>
<description><![CDATA[88 connections
]]></description>
<Point>
<coordinates>8.976630,46.342400</coordinates>
</Point>
</Placemark>
<Placemark id="pm4491">
<name><![CDATA[Biasca, Prada]]></name>
<description><![CDATA[88 connections
]]></description>
<Point>
<coordinates>8.974820,46.347400</coordinates>
</Point>
</Placemark>
<Placemark id="pm6636">
<name><![CDATA[Lodrino, Blono]]></name>
<description><![CDATA[88 connections
]]></description>
<Point>
<coordinates>8.969570,46.322700</coordinates>
</Point>
</Placemark>
<Placemark id="pm2008">
<name><![CDATA[Iragna, Ponte dei Ladri]]></name>
<description><![CDATA[87 connections
]]></description>
<Point>
<coordinates>8.969070,46.327900</coordinates>
</Point>
</Placemark>
<Placemark id="pm14238">
<name><![CDATA[Iragna, Buscerina]]></name>
<description><![CDATA[86 connections
]]></description>
<Point>
<coordinates>8.966310,46.333600</coordinates>
</Point>
</Placemark>
<Placemark id="pm13977">
<name><![CDATA[Brugaio]]></name>
<description><![CDATA[84 connections
]]></description>
<Point>
<coordinates>8.984580,46.393600</coordinates>
</Point>
</Placemark>
<Placemark id="pm8809">
<name><![CDATA[Malvaglia, Chiesa]]></name>
<description><![CDATA[84 connections
]]></description>
<Point>
<coordinates>8.982260,46.403500</coordinates>
</Point>
</Placemark>
<Placemark id="pm932">
<name><![CDATA[Loderio]]></name>
<description><![CDATA[84 connections
]]></description>
<Point>
<coordinates>8.972470,46.379400</coordinates>
</Point>
</Placemark>
<Placemark id="pm11610">
<name><![CDATA[Vallone]]></name>
<description><![CDATA[84 connections
]]></description>
<Point>
<coordinates>8.966940,46.367700</coordinates>
</Point>
</Placemark>
<Placemark id="pm423">
<name><![CDATA[Bodio, Stazione]]></name>
<description><![CDATA[78 connections
]]></description>
<Point>
<coordinates>8.984440,46.379500</coordinates>
</Point>
</Placemark>
<Placemark id="pm14863">
<name><![CDATA[Biasca, Monda del Turco]]></name>
<description><![CDATA[42 connections
]]></description>
<Point>
<coordinates>8.969830,46.354900</coordinates>
</Point>
</Placemark>
<Placemark id="pm7204">
<name><![CDATA[Iragna, Nord]]></name>
<description><![CDATA[42 connections
]]></description>
<Point>
<coordinates>8.967520,46.330600</coordinates>
</Point>
</Placemark>
<Placemark id="pm14444">
<name><![CDATA[Biasca, Parco Emma]]></name>
<description><![CDATA[34 connections
]]></description>
<Point>
<coordinates>8.972510,46.357800</coordinates>
</Point>
</Placemark>
<Placemark id="pm3053">
<name><![CDATA[Loderio, Grotto]]></name>
<description><![CDATA[32 connections
]]></description>
<Point>
<coordinates>8.972570,46.383000</coordinates>
</Point>
</Placemark>
<Placemark id="pm6079">
<name><![CDATA[Semione, Cantonetto]]></name>
<description><![CDATA[32 connections
]]></description>
<Point>
<coordinates>8.971880,46.404600</coordinates>
</Point>
</Placemark>
</Document>
</kml>
