<?xml version="1.0" encoding="UTF-8"?>
<!-- KML Regionator 303:340M -->
<kml xmlns="http://earth.google.com/kml/2.1">
<Document>
<name>1703 03201302</name>
<Region>
<Lod>
<minLodPixels>256</minLodPixels>
<maxLodPixels>-1</maxLodPixels>
</Lod>
<LatLonAltBox>
<north>46.1865234375</north>
<south>46.142578125</south>
<east>9.0087890625</east>
<west>8.96484375</west>
</LatLonAltBox>
</Region>
<Placemark id="pm4155">
<name><![CDATA[S. Antonino, Posta]]></name>
<description><![CDATA[54 connections
]]></description>
<Point>
<coordinates>8.977720,46.151800</coordinates>
</Point>
</Placemark>
<Placemark id="pm1210">
<name><![CDATA[Giubiasco, Ideal]]></name>
<description><![CDATA[28 connections
]]></description>
<Point>
<coordinates>9.008780,46.173700</coordinates>
</Point>
</Placemark>
<Placemark id="pm1413">
<name><![CDATA[S. Antonino, Paese]]></name>
<description><![CDATA[27 connections
]]></description>
<Point>
<coordinates>8.976450,46.152600</coordinates>
</Point>
</Placemark>
<Placemark id="pm1293">
<name><![CDATA[S. Antonino, Via Stazione]]></name>
<description><![CDATA[20 connections
]]></description>
<Point>
<coordinates>8.975310,46.158000</coordinates>
</Point>
</Placemark>
<Placemark id="pm10009">
<name><![CDATA[S. Antonino, Lati]]></name>
<description><![CDATA[20 connections
]]></description>
<Point>
<coordinates>8.972720,46.158000</coordinates>
</Point>
</Placemark>
<Placemark id="pm40">
<name><![CDATA[S. Antonino, Via Serrai]]></name>
<description><![CDATA[20 connections
]]></description>
<Point>
<coordinates>8.966840,46.156300</coordinates>
</Point>
</Placemark>
</Document>
</kml>
