<?xml version="1.0" encoding="UTF-8"?>
<!-- KML Regionator 303:340M -->
<kml xmlns="http://earth.google.com/kml/2.1">
<Document>
<name>204 0210132</name>
<Region>
<Lod>
<minLodPixels>256</minLodPixels>
<maxLodPixels>-1</maxLodPixels>
</Lod>
<LatLonAltBox>
<north>47.548828125</north>
<south>47.4609375</south>
<east>7.646484375</east>
<west>7.55859375</west>
</LatLonAltBox>
</Region>
<NetworkLink>
<name>02101320</name>
<Region>
<Lod>
<minLodPixels>256</minLodPixels>
<maxLodPixels>-1</maxLodPixels>
</Lod>
<LatLonAltBox>
<north>47.548828125</north>
<south>47.5048828125</south>
<east>7.6025390625</east>
<west>7.55859375</west>
</LatLonAltBox>
</Region>
<Link>
<href>205.kml</href>
<viewRefreshMode>onRegion</viewRefreshMode>
<viewFormat/>
</Link>
</NetworkLink>
<NetworkLink>
<name>02101321</name>
<Region>
<Lod>
<minLodPixels>256</minLodPixels>
<maxLodPixels>-1</maxLodPixels>
</Lod>
<LatLonAltBox>
<north>47.548828125</north>
<south>47.5048828125</south>
<east>7.646484375</east>
<west>7.6025390625</west>
</LatLonAltBox>
</Region>
<Link>
<href>206.kml</href>
<viewRefreshMode>onRegion</viewRefreshMode>
<viewFormat/>
</Link>
</NetworkLink>
<NetworkLink>
<name>02101322</name>
<Region>
<Lod>
<minLodPixels>256</minLodPixels>
<maxLodPixels>-1</maxLodPixels>
</Lod>
<LatLonAltBox>
<north>47.5048828125</north>
<south>47.4609375</south>
<east>7.6025390625</east>
<west>7.55859375</west>
</LatLonAltBox>
</Region>
<Link>
<href>207.kml</href>
<viewRefreshMode>onRegion</viewRefreshMode>
<viewFormat/>
</Link>
</NetworkLink>
<Placemark id="pm3966">
<name><![CDATA[Dornach, Museumsplatz]]></name>
<description><![CDATA[212 connections
]]></description>
<Point>
<coordinates>7.617070,47.478500</coordinates>
</Point>
</Placemark>
<Placemark id="pm15062">
<name><![CDATA[M체nchenstein]]></name>
<description><![CDATA[168 connections
]]></description>
<Point>
<coordinates>7.617600,47.513400</coordinates>
</Point>
</Placemark>
<Placemark id="pm13671">
<name><![CDATA[Dornach-Arlesheim]]></name>
<description><![CDATA[168 connections
]]></description>
<Point>
<coordinates>7.611120,47.488600</coordinates>
</Point>
</Placemark>
<Placemark id="pm6865">
<name><![CDATA[Basel Dreispitz]]></name>
<description><![CDATA[168 connections
]]></description>
<Point>
<coordinates>7.608950,47.537900</coordinates>
</Point>
</Placemark>
<Placemark id="pm12256">
<name><![CDATA[Aesch]]></name>
<description><![CDATA[168 connections
]]></description>
<Point>
<coordinates>7.603070,47.467800</coordinates>
</Point>
</Placemark>
<Placemark id="pm8084">
<name><![CDATA[M체nchenstein, Hofmatt]]></name>
<description><![CDATA[154 connections
]]></description>
<Point>
<coordinates>7.617870,47.519400</coordinates>
</Point>
</Placemark>
<Placemark id="pm2167">
<name><![CDATA[M체nchenstein Loogstr., Bus BLT]]></name>
<description><![CDATA[154 connections
]]></description>
<Point>
<coordinates>7.609910,47.522100</coordinates>
</Point>
</Placemark>
<Placemark id="pm14049">
<name><![CDATA[Muttenz, Fachhochschule]]></name>
<description><![CDATA[152 connections
]]></description>
<Point>
<coordinates>7.638210,47.534700</coordinates>
</Point>
</Placemark>
<Placemark id="pm8863">
<name><![CDATA[Dornach, Schiessstand]]></name>
<description><![CDATA[110 connections
]]></description>
<Point>
<coordinates>7.623030,47.475600</coordinates>
</Point>
</Placemark>
<Placemark id="pm11672">
<name><![CDATA[Dornach, Kirche]]></name>
<description><![CDATA[110 connections
]]></description>
<Point>
<coordinates>7.615420,47.480700</coordinates>
</Point>
</Placemark>
<Placemark id="pm13541">
<name><![CDATA[Dornach, Gw채ndweg]]></name>
<description><![CDATA[110 connections
]]></description>
<Point>
<coordinates>7.612120,47.485500</coordinates>
</Point>
</Placemark>
<Placemark id="pm2523">
<name><![CDATA[Dornach, Ober-Erli]]></name>
<description><![CDATA[102 connections
]]></description>
<Point>
<coordinates>7.623610,47.482900</coordinates>
</Point>
</Placemark>
<Placemark id="pm886">
<name><![CDATA[Dornach, Goetheanum]]></name>
<description><![CDATA[102 connections
]]></description>
<Point>
<coordinates>7.617840,47.484500</coordinates>
</Point>
</Placemark>
<Placemark id="pm10816">
<name><![CDATA[Dornach, Spital]]></name>
<description><![CDATA[102 connections
]]></description>
<Point>
<coordinates>7.613820,47.487900</coordinates>
</Point>
</Placemark>
<Placemark id="pm11243">
<name><![CDATA[Dornach, Apfelsee]]></name>
<description><![CDATA[102 connections
]]></description>
<Point>
<coordinates>7.609080,47.476700</coordinates>
</Point>
</Placemark>
<Placemark id="pm14967">
<name><![CDATA[Reinach BL Surbaum]]></name>
<description><![CDATA[84 connections
]]></description>
<Point>
<coordinates>7.602110,47.506300</coordinates>
</Point>
</Placemark>
</Document>
</kml>
