<?xml version="1.0" encoding="UTF-8"?>
<!-- KML Regionator 303:340M -->
<kml xmlns="http://earth.google.com/kml/2.1">
<Document>
<name>300 021033</name>
<Region>
<Lod>
<minLodPixels>256</minLodPixels>
<maxLodPixels>-1</maxLodPixels>
</Lod>
<LatLonAltBox>
<north>47.28515625</north>
<south>47.109375</south>
<east>7.734375</east>
<west>7.55859375</west>
</LatLonAltBox>
</Region>
<NetworkLink>
<name>0210330</name>
<Region>
<Lod>
<minLodPixels>256</minLodPixels>
<maxLodPixels>-1</maxLodPixels>
</Lod>
<LatLonAltBox>
<north>47.28515625</north>
<south>47.197265625</south>
<east>7.646484375</east>
<west>7.55859375</west>
</LatLonAltBox>
</Region>
<Link>
<href>301.kml</href>
<viewRefreshMode>onRegion</viewRefreshMode>
<viewFormat/>
</Link>
</NetworkLink>
<NetworkLink>
<name>0210331</name>
<Region>
<Lod>
<minLodPixels>256</minLodPixels>
<maxLodPixels>-1</maxLodPixels>
</Lod>
<LatLonAltBox>
<north>47.28515625</north>
<south>47.197265625</south>
<east>7.734375</east>
<west>7.646484375</west>
</LatLonAltBox>
</Region>
<Link>
<href>305.kml</href>
<viewRefreshMode>onRegion</viewRefreshMode>
<viewFormat/>
</Link>
</NetworkLink>
<NetworkLink>
<name>0210332</name>
<Region>
<Lod>
<minLodPixels>256</minLodPixels>
<maxLodPixels>-1</maxLodPixels>
</Lod>
<LatLonAltBox>
<north>47.197265625</north>
<south>47.109375</south>
<east>7.646484375</east>
<west>7.55859375</west>
</LatLonAltBox>
</Region>
<Link>
<href>306.kml</href>
<viewRefreshMode>onRegion</viewRefreshMode>
<viewFormat/>
</Link>
</NetworkLink>
<NetworkLink>
<name>0210333</name>
<Region>
<Lod>
<minLodPixels>256</minLodPixels>
<maxLodPixels>-1</maxLodPixels>
</Lod>
<LatLonAltBox>
<north>47.197265625</north>
<south>47.109375</south>
<east>7.734375</east>
<west>7.646484375</west>
</LatLonAltBox>
</Region>
<Link>
<href>309.kml</href>
<viewRefreshMode>onRegion</viewRefreshMode>
<viewFormat/>
</Link>
</NetworkLink>
<Placemark id="pm3735">
<name><![CDATA[Derendingen, Pestalozziplatz]]></name>
<description><![CDATA[290 connections
]]></description>
<Point>
<coordinates>7.585110,47.194800</coordinates>
</Point>
</Placemark>
<Placemark id="pm10882">
<name><![CDATA[Oensingen]]></name>
<description><![CDATA[274 connections
]]></description>
<Point>
<coordinates>7.709860,47.285000</coordinates>
</Point>
</Placemark>
<Placemark id="pm10631">
<name><![CDATA[Niederbipp]]></name>
<description><![CDATA[270 connections
]]></description>
<Point>
<coordinates>7.694820,47.270400</coordinates>
</Point>
</Placemark>
<Placemark id="pm3939">
<name><![CDATA[Zuchwil, Unterfeld]]></name>
<description><![CDATA[266 connections
]]></description>
<Point>
<coordinates>7.562710,47.210100</coordinates>
</Point>
</Placemark>
<Placemark id="pm2657">
<name><![CDATA[Röthenbach b. H., Rest. Post]]></name>
<description><![CDATA[218 connections
]]></description>
<Point>
<coordinates>7.682800,47.203600</coordinates>
</Point>
</Placemark>
<Placemark id="pm3701">
<name><![CDATA[Inkwil, Dorf]]></name>
<description><![CDATA[215 connections
]]></description>
<Point>
<coordinates>7.672220,47.199100</coordinates>
</Point>
</Placemark>
<Placemark id="pm8057">
<name><![CDATA[Bolken, Dorf]]></name>
<description><![CDATA[212 connections
]]></description>
<Point>
<coordinates>7.662960,47.193700</coordinates>
</Point>
</Placemark>
<Placemark id="pm6648">
<name><![CDATA[Hüniken]]></name>
<description><![CDATA[210 connections
]]></description>
<Point>
<coordinates>7.637860,47.184800</coordinates>
</Point>
</Placemark>
<Placemark id="pm6808">
<name><![CDATA[Horriwil, Post]]></name>
<description><![CDATA[210 connections
]]></description>
<Point>
<coordinates>7.620700,47.182100</coordinates>
</Point>
</Placemark>
<Placemark id="pm1531">
<name><![CDATA[Aeschi SO, Kirche]]></name>
<description><![CDATA[207 connections
]]></description>
<Point>
<coordinates>7.660270,47.180200</coordinates>
</Point>
</Placemark>
<Placemark id="pm12362">
<name><![CDATA[Niederönz, Post]]></name>
<description><![CDATA[174 connections
]]></description>
<Point>
<coordinates>7.691950,47.184700</coordinates>
</Point>
</Placemark>
<Placemark id="pm1869">
<name><![CDATA[Biberist, Bleichenbergstrasse]]></name>
<description><![CDATA[168 connections
]]></description>
<Point>
<coordinates>7.558710,47.192100</coordinates>
</Point>
</Placemark>
<Placemark id="pm4170">
<name><![CDATA[Herzogenbuchsee]]></name>
<description><![CDATA[150 connections
]]></description>
<Point>
<coordinates>7.700950,47.188100</coordinates>
</Point>
</Placemark>
<Placemark id="pm2349">
<name><![CDATA[Aeschi SO, Dorf]]></name>
<description><![CDATA[149 connections
]]></description>
<Point>
<coordinates>7.664230,47.180200</coordinates>
</Point>
</Placemark>
<Placemark id="pm8068">
<name><![CDATA[Recherswil, Freiheit]]></name>
<description><![CDATA[145 connections
]]></description>
<Point>
<coordinates>7.592920,47.157000</coordinates>
</Point>
</Placemark>
<Placemark id="pm12278">
<name><![CDATA[Wangen an der Aare]]></name>
<description><![CDATA[142 connections
]]></description>
<Point>
<coordinates>7.656230,47.232000</coordinates>
</Point>
</Placemark>
</Document>
</kml>
