<?xml version="1.0" encoding="UTF-8"?>
<!-- KML Regionator 303:340M -->
<kml xmlns="http://earth.google.com/kml/2.1">
<Document>
<name>377 021121</name>
<Region>
<Lod>
<minLodPixels>256</minLodPixels>
<maxLodPixels>-1</maxLodPixels>
</Lod>
<LatLonAltBox>
<north>47.4609375</north>
<south>47.28515625</south>
<east>8.0859375</east>
<west>7.91015625</west>
</LatLonAltBox>
</Region>
<NetworkLink>
<name>0211210</name>
<Region>
<Lod>
<minLodPixels>256</minLodPixels>
<maxLodPixels>-1</maxLodPixels>
</Lod>
<LatLonAltBox>
<north>47.4609375</north>
<south>47.373046875</south>
<east>7.998046875</east>
<west>7.91015625</west>
</LatLonAltBox>
</Region>
<Link>
<href>378.kml</href>
<viewRefreshMode>onRegion</viewRefreshMode>
<viewFormat/>
</Link>
</NetworkLink>
<NetworkLink>
<name>0211211</name>
<Region>
<Lod>
<minLodPixels>256</minLodPixels>
<maxLodPixels>-1</maxLodPixels>
</Lod>
<LatLonAltBox>
<north>47.4609375</north>
<south>47.373046875</south>
<east>8.0859375</east>
<west>7.998046875</west>
</LatLonAltBox>
</Region>
<Link>
<href>380.kml</href>
<viewRefreshMode>onRegion</viewRefreshMode>
<viewFormat/>
</Link>
</NetworkLink>
<NetworkLink>
<name>0211212</name>
<Region>
<Lod>
<minLodPixels>256</minLodPixels>
<maxLodPixels>-1</maxLodPixels>
</Lod>
<LatLonAltBox>
<north>47.373046875</north>
<south>47.28515625</south>
<east>7.998046875</east>
<west>7.91015625</west>
</LatLonAltBox>
</Region>
<Link>
<href>382.kml</href>
<viewRefreshMode>onRegion</viewRefreshMode>
<viewFormat/>
</Link>
</NetworkLink>
<NetworkLink>
<name>0211213</name>
<Region>
<Lod>
<minLodPixels>256</minLodPixels>
<maxLodPixels>-1</maxLodPixels>
</Lod>
<LatLonAltBox>
<north>47.373046875</north>
<south>47.28515625</south>
<east>8.0859375</east>
<west>7.998046875</west>
</LatLonAltBox>
</Region>
<Link>
<href>389.kml</href>
<viewRefreshMode>onRegion</viewRefreshMode>
<viewFormat/>
</Link>
</NetworkLink>
<Placemark id="pm14576">
<name><![CDATA[Niedererlinsbach, Dorfplatz]]></name>
<description><![CDATA[274 connections
]]></description>
<Point>
<coordinates>8.008220,47.396700</coordinates>
</Point>
</Placemark>
<Placemark id="pm14212">
<name><![CDATA[Küttigen, Stock]]></name>
<description><![CDATA[266 connections
]]></description>
<Point>
<coordinates>8.050080,47.408700</coordinates>
</Point>
</Placemark>
<Placemark id="pm6989">
<name><![CDATA[Küttigen, Post]]></name>
<description><![CDATA[266 connections
]]></description>
<Point>
<coordinates>8.047810,47.413400</coordinates>
</Point>
</Placemark>
<Placemark id="pm10672">
<name><![CDATA[Küttigen, Kreuz]]></name>
<description><![CDATA[266 connections
]]></description>
<Point>
<coordinates>8.047190,47.416800</coordinates>
</Point>
</Placemark>
<Placemark id="pm9565">
<name><![CDATA[Küttigen, Hinterrain]]></name>
<description><![CDATA[266 connections
]]></description>
<Point>
<coordinates>8.046730,47.405500</coordinates>
</Point>
</Placemark>
<Placemark id="pm9748">
<name><![CDATA[Aarau, Aarepark]]></name>
<description><![CDATA[266 connections
]]></description>
<Point>
<coordinates>8.041240,47.396500</coordinates>
</Point>
</Placemark>
<Placemark id="pm7663">
<name><![CDATA[Niedergösgen, Jurastrasse]]></name>
<description><![CDATA[246 connections
]]></description>
<Point>
<coordinates>7.994720,47.372500</coordinates>
</Point>
</Placemark>
<Placemark id="pm9968">
<name><![CDATA[Suhr Schweizerhof]]></name>
<description><![CDATA[236 connections
]]></description>
<Point>
<coordinates>8.075070,47.379800</coordinates>
</Point>
</Placemark>
<Placemark id="pm8929">
<name><![CDATA[Obermuhen]]></name>
<description><![CDATA[236 connections
]]></description>
<Point>
<coordinates>8.055620,47.328900</coordinates>
</Point>
</Placemark>
<Placemark id="pm3206">
<name><![CDATA[Mittelmuhen]]></name>
<description><![CDATA[236 connections
]]></description>
<Point>
<coordinates>8.055370,47.333600</coordinates>
</Point>
</Placemark>
<Placemark id="pm7501">
<name><![CDATA[Muhen]]></name>
<description><![CDATA[236 connections
]]></description>
<Point>
<coordinates>8.053610,47.339500</coordinates>
</Point>
</Placemark>
<Placemark id="pm3837">
<name><![CDATA[Hirschthal]]></name>
<description><![CDATA[236 connections
]]></description>
<Point>
<coordinates>8.052820,47.319900</coordinates>
</Point>
</Placemark>
<Placemark id="pm729">
<name><![CDATA[Muhen Nord]]></name>
<description><![CDATA[236 connections
]]></description>
<Point>
<coordinates>8.052630,47.343600</coordinates>
</Point>
</Placemark>
<Placemark id="pm7571">
<name><![CDATA[Schöftland Nordweg]]></name>
<description><![CDATA[236 connections
]]></description>
<Point>
<coordinates>8.051220,47.311100</coordinates>
</Point>
</Placemark>
<Placemark id="pm11320">
<name><![CDATA[Oberentfelden Engelplatz]]></name>
<description><![CDATA[236 connections
]]></description>
<Point>
<coordinates>8.046620,47.356200</coordinates>
</Point>
</Placemark>
<Placemark id="pm687">
<name><![CDATA[Oberentfelden Uerkenbrücke]]></name>
<description><![CDATA[236 connections
]]></description>
<Point>
<coordinates>8.045670,47.361100</coordinates>
</Point>
</Placemark>
</Document>
</kml>
