<?xml version="1.0" encoding="UTF-8"?>
<!-- KML Regionator 303:340M -->
<kml xmlns="http://earth.google.com/kml/2.1">
<Document>
<name>401 0211222</name>
<Region>
<Lod>
<minLodPixels>256</minLodPixels>
<maxLodPixels>-1</maxLodPixels>
</Lod>
<LatLonAltBox>
<north>47.197265625</north>
<south>47.109375</south>
<east>7.822265625</east>
<west>7.734375</west>
</LatLonAltBox>
</Region>
<Placemark id="pm5190">
<name><![CDATA[Rohrbach]]></name>
<description><![CDATA[108 connections
]]></description>
<Point>
<coordinates>7.813830,47.137100</coordinates>
</Point>
</Placemark>
<Placemark id="pm13122">
<name><![CDATA[Madiswil]]></name>
<description><![CDATA[108 connections
]]></description>
<Point>
<coordinates>7.795650,47.166700</coordinates>
</Point>
</Placemark>
<Placemark id="pm6463">
<name><![CDATA[Gutenburg]]></name>
<description><![CDATA[108 connections
]]></description>
<Point>
<coordinates>7.793270,47.181600</coordinates>
</Point>
</Placemark>
<Placemark id="pm15115">
<name><![CDATA[Kleindietwil]]></name>
<description><![CDATA[108 connections
]]></description>
<Point>
<coordinates>7.791740,47.145000</coordinates>
</Point>
</Placemark>
<Placemark id="pm4992">
<name><![CDATA[Lindenholz]]></name>
<description><![CDATA[108 connections
]]></description>
<Point>
<coordinates>7.790530,47.154600</coordinates>
</Point>
</Placemark>
<Placemark id="pm9972">
<name><![CDATA[Lotzwil]]></name>
<description><![CDATA[108 connections
]]></description>
<Point>
<coordinates>7.788390,47.189500</coordinates>
</Point>
</Placemark>
<Placemark id="pm2703">
<name><![CDATA[Bleienbach, Post]]></name>
<description><![CDATA[54 connections
]]></description>
<Point>
<coordinates>7.752640,47.184500</coordinates>
</Point>
</Placemark>
<Placemark id="pm2537">
<name><![CDATA[Ursenbach, Post]]></name>
<description><![CDATA[24 connections
]]></description>
<Point>
<coordinates>7.772130,47.135900</coordinates>
</Point>
</Placemark>
<Placemark id="pm7107">
<name><![CDATA[Kleindietwil, Post]]></name>
<description><![CDATA[12 connections
]]></description>
<Point>
<coordinates>7.790650,47.145700</coordinates>
</Point>
</Placemark>
<Placemark id="pm13711">
<name><![CDATA[Walterswil BE, Dorf]]></name>
<description><![CDATA[12 connections
]]></description>
<Point>
<coordinates>7.777250,47.111600</coordinates>
</Point>
</Placemark>
</Document>
</kml>
