<?xml version="1.0" encoding="UTF-8"?>
<!-- KML Regionator 303:340M -->
<kml xmlns="http://earth.google.com/kml/2.1">
<Document>
<name>461 0211313</name>
<Region>
<Lod>
<minLodPixels>256</minLodPixels>
<maxLodPixels>-1</maxLodPixels>
</Lod>
<LatLonAltBox>
<north>47.373046875</north>
<south>47.28515625</south>
<east>8.4375</east>
<west>8.349609375</west>
</LatLonAltBox>
</Region>
<NetworkLink>
<name>02113130</name>
<Region>
<Lod>
<minLodPixels>256</minLodPixels>
<maxLodPixels>-1</maxLodPixels>
</Lod>
<LatLonAltBox>
<north>47.373046875</north>
<south>47.3291015625</south>
<east>8.3935546875</east>
<west>8.349609375</west>
</LatLonAltBox>
</Region>
<Link>
<href>462.kml</href>
<viewRefreshMode>onRegion</viewRefreshMode>
<viewFormat/>
</Link>
</NetworkLink>
<NetworkLink>
<name>02113131</name>
<Region>
<Lod>
<minLodPixels>256</minLodPixels>
<maxLodPixels>-1</maxLodPixels>
</Lod>
<LatLonAltBox>
<north>47.373046875</north>
<south>47.3291015625</south>
<east>8.4375</east>
<west>8.3935546875</west>
</LatLonAltBox>
</Region>
<Link>
<href>464.kml</href>
<viewRefreshMode>onRegion</viewRefreshMode>
<viewFormat/>
</Link>
</NetworkLink>
<NetworkLink>
<name>02113132</name>
<Region>
<Lod>
<minLodPixels>256</minLodPixels>
<maxLodPixels>-1</maxLodPixels>
</Lod>
<LatLonAltBox>
<north>47.3291015625</north>
<south>47.28515625</south>
<east>8.3935546875</east>
<west>8.349609375</west>
</LatLonAltBox>
</Region>
<Link>
<href>465.kml</href>
<viewRefreshMode>onRegion</viewRefreshMode>
<viewFormat/>
</Link>
</NetworkLink>
<NetworkLink>
<name>02113133</name>
<Region>
<Lod>
<minLodPixels>256</minLodPixels>
<maxLodPixels>-1</maxLodPixels>
</Lod>
<LatLonAltBox>
<north>47.3291015625</north>
<south>47.28515625</south>
<east>8.4375</east>
<west>8.3935546875</west>
</LatLonAltBox>
</Region>
<Link>
<href>466.kml</href>
<viewRefreshMode>onRegion</viewRefreshMode>
<viewFormat/>
</Link>
</NetworkLink>
<Placemark id="pm6972">
<name><![CDATA[Arni AG, Stockacker]]></name>
<description><![CDATA[292 connections
]]></description>
<Point>
<coordinates>8.424400,47.320200</coordinates>
</Point>
</Placemark>
<Placemark id="pm8517">
<name><![CDATA[Jonen, Käppeli]]></name>
<description><![CDATA[264 connections
]]></description>
<Point>
<coordinates>8.393940,47.300000</coordinates>
</Point>
</Placemark>
<Placemark id="pm98">
<name><![CDATA[Widen, Imbismatt]]></name>
<description><![CDATA[256 connections
]]></description>
<Point>
<coordinates>8.356510,47.372500</coordinates>
</Point>
</Placemark>
<Placemark id="pm9071">
<name><![CDATA[Bremgarten AG, Bibenlos]]></name>
<description><![CDATA[256 connections
]]></description>
<Point>
<coordinates>8.349900,47.353600</coordinates>
</Point>
</Placemark>
<Placemark id="pm2328">
<name><![CDATA[Rottenschwil, Abzw.]]></name>
<description><![CDATA[255 connections
]]></description>
<Point>
<coordinates>8.357720,47.308100</coordinates>
</Point>
</Placemark>
<Placemark id="pm3390">
<name><![CDATA[Widen, Dorf]]></name>
<description><![CDATA[238 connections
]]></description>
<Point>
<coordinates>8.363380,47.367400</coordinates>
</Point>
</Placemark>
<Placemark id="pm9512">
<name><![CDATA[Oberlunkhofen, Kellerämterst.]]></name>
<description><![CDATA[234 connections
]]></description>
<Point>
<coordinates>8.387270,47.314900</coordinates>
</Point>
</Placemark>
<Placemark id="pm4708">
<name><![CDATA[Rottenschwil, Rebberg]]></name>
<description><![CDATA[234 connections
]]></description>
<Point>
<coordinates>8.360080,47.310800</coordinates>
</Point>
</Placemark>
<Placemark id="pm466">
<name><![CDATA[Oberlunkhofen, Dorfplatz]]></name>
<description><![CDATA[228 connections
]]></description>
<Point>
<coordinates>8.390470,47.311400</coordinates>
</Point>
</Placemark>
<Placemark id="pm11425">
<name><![CDATA[Berikon, Mattenhof]]></name>
<description><![CDATA[226 connections
]]></description>
<Point>
<coordinates>8.380500,47.343900</coordinates>
</Point>
</Placemark>
<Placemark id="pm10560">
<name><![CDATA[Berikon, Staldenkreuzung]]></name>
<description><![CDATA[226 connections
]]></description>
<Point>
<coordinates>8.376270,47.347800</coordinates>
</Point>
</Placemark>
<Placemark id="pm302">
<name><![CDATA[Berikon, Post]]></name>
<description><![CDATA[226 connections
]]></description>
<Point>
<coordinates>8.371690,47.350700</coordinates>
</Point>
</Placemark>
<Placemark id="pm14140">
<name><![CDATA[Berikon, Kreisschule]]></name>
<description><![CDATA[225 connections
]]></description>
<Point>
<coordinates>8.366480,47.355700</coordinates>
</Point>
</Placemark>
<Placemark id="pm2780">
<name><![CDATA[Berikon-Widen, Bahnhof]]></name>
<description><![CDATA[222 connections
]]></description>
<Point>
<coordinates>8.367250,47.361600</coordinates>
</Point>
</Placemark>
<Placemark id="pm9663">
<name><![CDATA[Jonen, Post]]></name>
<description><![CDATA[221 connections
]]></description>
<Point>
<coordinates>8.395760,47.295800</coordinates>
</Point>
</Placemark>
<Placemark id="pm7363">
<name><![CDATA[Oberlunkhofen, Post]]></name>
<description><![CDATA[212 connections
]]></description>
<Point>
<coordinates>8.388890,47.313000</coordinates>
</Point>
</Placemark>
</Document>
</kml>
