<?xml version="1.0" encoding="UTF-8"?>
<!-- KML Regionator 303:340M -->
<kml xmlns="http://earth.google.com/kml/2.1">
<Document>
<name>49 0203033</name>
<Region>
<Lod>
<minLodPixels>256</minLodPixels>
<maxLodPixels>-1</maxLodPixels>
</Lod>
<LatLonAltBox>
<north>46.845703125</north>
<south>46.7578125</south>
<east>6.6796875</east>
<west>6.591796875</west>
</LatLonAltBox>
</Region>
<NetworkLink>
<name>02030330</name>
<Region>
<Lod>
<minLodPixels>256</minLodPixels>
<maxLodPixels>-1</maxLodPixels>
</Lod>
<LatLonAltBox>
<north>46.845703125</north>
<south>46.8017578125</south>
<east>6.6357421875</east>
<west>6.591796875</west>
</LatLonAltBox>
</Region>
<Link>
<href>50.kml</href>
<viewRefreshMode>onRegion</viewRefreshMode>
<viewFormat/>
</Link>
</NetworkLink>
<NetworkLink>
<name>02030331</name>
<Region>
<Lod>
<minLodPixels>256</minLodPixels>
<maxLodPixels>-1</maxLodPixels>
</Lod>
<LatLonAltBox>
<north>46.845703125</north>
<south>46.8017578125</south>
<east>6.6796875</east>
<west>6.6357421875</west>
</LatLonAltBox>
</Region>
<Link>
<href>51.kml</href>
<viewRefreshMode>onRegion</viewRefreshMode>
<viewFormat/>
</Link>
</NetworkLink>
<NetworkLink>
<name>02030332</name>
<Region>
<Lod>
<minLodPixels>256</minLodPixels>
<maxLodPixels>-1</maxLodPixels>
</Lod>
<LatLonAltBox>
<north>46.8017578125</north>
<south>46.7578125</south>
<east>6.6357421875</east>
<west>6.591796875</west>
</LatLonAltBox>
</Region>
<Link>
<href>52.kml</href>
<viewRefreshMode>onRegion</viewRefreshMode>
<viewFormat/>
</Link>
</NetworkLink>
<NetworkLink>
<name>02030333</name>
<Region>
<Lod>
<minLodPixels>256</minLodPixels>
<maxLodPixels>-1</maxLodPixels>
</Lod>
<LatLonAltBox>
<north>46.8017578125</north>
<south>46.7578125</south>
<east>6.6796875</east>
<west>6.6357421875</west>
</LatLonAltBox>
</Region>
<Link>
<href>53.kml</href>
<viewRefreshMode>onRegion</viewRefreshMode>
<viewFormat/>
</Link>
</NetworkLink>
<Placemark id="pm13949">
<name><![CDATA[Treycovagnes, village]]></name>
<description><![CDATA[90 connections
]]></description>
<Point>
<coordinates>6.608860,46.773800</coordinates>
</Point>
</Placemark>
<Placemark id="pm13685">
<name><![CDATA[Yverdon-Champ Pittet]]></name>
<description><![CDATA[88 connections
]]></description>
<Point>
<coordinates>6.662320,46.782100</coordinates>
</Point>
</Placemark>
<Placemark id="pm5871">
<name><![CDATA[Yverdon William Barbey]]></name>
<description><![CDATA[76 connections
]]></description>
<Point>
<coordinates>6.631630,46.788800</coordinates>
</Point>
</Placemark>
<Placemark id="pm7679">
<name><![CDATA[La Brinaz]]></name>
<description><![CDATA[76 connections
]]></description>
<Point>
<coordinates>6.620060,46.794500</coordinates>
</Point>
</Placemark>
<Placemark id="pm10321">
<name><![CDATA[Valeyres-sous-Montagny]]></name>
<description><![CDATA[76 connections
]]></description>
<Point>
<coordinates>6.611360,46.796900</coordinates>
</Point>
</Placemark>
<Placemark id="pm3406">
<name><![CDATA[Pomy, poste]]></name>
<description><![CDATA[64 connections
]]></description>
<Point>
<coordinates>6.667000,46.759800</coordinates>
</Point>
</Placemark>
<Placemark id="pm5541">
<name><![CDATA[Châtelard (Treycovagnes)]]></name>
<description><![CDATA[58 connections
]]></description>
<Point>
<coordinates>6.616320,46.778100</coordinates>
</Point>
</Placemark>
<Placemark id="pm14545">
<name><![CDATA[Pomy, La Cure]]></name>
<description><![CDATA[52 connections
]]></description>
<Point>
<coordinates>6.669610,46.760000</coordinates>
</Point>
</Placemark>
<Placemark id="pm1538">
<name><![CDATA[Pomy, croisée de Sermuz]]></name>
<description><![CDATA[48 connections
]]></description>
<Point>
<coordinates>6.654420,46.760600</coordinates>
</Point>
</Placemark>
<Placemark id="pm11376">
<name><![CDATA[Grandson, croisée de Fiez]]></name>
<description><![CDATA[46 connections
]]></description>
<Point>
<coordinates>6.652120,46.815200</coordinates>
</Point>
</Placemark>
<Placemark id="pm10134">
<name><![CDATA[Grandson, Péroset]]></name>
<description><![CDATA[46 connections
]]></description>
<Point>
<coordinates>6.627460,46.820900</coordinates>
</Point>
</Placemark>
<Placemark id="pm9051">
<name><![CDATA[Fiez, poste]]></name>
<description><![CDATA[46 connections
]]></description>
<Point>
<coordinates>6.623440,46.827200</coordinates>
</Point>
</Placemark>
<Placemark id="pm13798">
<name><![CDATA[Fontaines-sur-Grandson,Patthey]]></name>
<description><![CDATA[46 connections
]]></description>
<Point>
<coordinates>6.621550,46.831000</coordinates>
</Point>
</Placemark>
<Placemark id="pm7542">
<name><![CDATA[Fontaines-sur-Grandson,collège]]></name>
<description><![CDATA[46 connections
]]></description>
<Point>
<coordinates>6.619110,46.835900</coordinates>
</Point>
</Placemark>
<Placemark id="pm13527">
<name><![CDATA[Grandson, Borné Nau]]></name>
<description><![CDATA[44 connections
]]></description>
<Point>
<coordinates>6.645960,46.811200</coordinates>
</Point>
</Placemark>
<Placemark id="pm283">
<name><![CDATA[Chamblon, village]]></name>
<description><![CDATA[29 connections
]]></description>
<Point>
<coordinates>6.605850,46.778000</coordinates>
</Point>
</Placemark>
</Document>
</kml>
