<?xml version="1.0" encoding="UTF-8"?>
<!-- KML Regionator 303:340M -->
<kml xmlns="http://earth.google.com/kml/2.1">
<Document>
<name>499 0212000</name>
<Region>
<Lod>
<minLodPixels>256</minLodPixels>
<maxLodPixels>-1</maxLodPixels>
</Lod>
<LatLonAltBox>
<north>47.109375</north>
<south>47.021484375</south>
<east>7.119140625</east>
<west>7.03125</west>
</LatLonAltBox>
</Region>
<NetworkLink>
<name>02120000</name>
<Region>
<Lod>
<minLodPixels>256</minLodPixels>
<maxLodPixels>-1</maxLodPixels>
</Lod>
<LatLonAltBox>
<north>47.109375</north>
<south>47.0654296875</south>
<east>7.0751953125</east>
<west>7.03125</west>
</LatLonAltBox>
</Region>
<Link>
<href>500.kml</href>
<viewRefreshMode>onRegion</viewRefreshMode>
<viewFormat/>
</Link>
</NetworkLink>
<NetworkLink>
<name>02120001</name>
<Region>
<Lod>
<minLodPixels>256</minLodPixels>
<maxLodPixels>-1</maxLodPixels>
</Lod>
<LatLonAltBox>
<north>47.109375</north>
<south>47.0654296875</south>
<east>7.119140625</east>
<west>7.0751953125</west>
</LatLonAltBox>
</Region>
<Link>
<href>501.kml</href>
<viewRefreshMode>onRegion</viewRefreshMode>
<viewFormat/>
</Link>
</NetworkLink>
<NetworkLink>
<name>02120002</name>
<Region>
<Lod>
<minLodPixels>256</minLodPixels>
<maxLodPixels>-1</maxLodPixels>
</Lod>
<LatLonAltBox>
<north>47.0654296875</north>
<south>47.021484375</south>
<east>7.0751953125</east>
<west>7.03125</west>
</LatLonAltBox>
</Region>
<Link>
<href>502.kml</href>
<viewRefreshMode>onRegion</viewRefreshMode>
<viewFormat/>
</Link>
</NetworkLink>
<NetworkLink>
<name>02120003</name>
<Region>
<Lod>
<minLodPixels>256</minLodPixels>
<maxLodPixels>-1</maxLodPixels>
</Lod>
<LatLonAltBox>
<north>47.0654296875</north>
<south>47.021484375</south>
<east>7.119140625</east>
<west>7.0751953125</west>
</LatLonAltBox>
</Region>
<Link>
<href>503.kml</href>
<viewRefreshMode>onRegion</viewRefreshMode>
<viewFormat/>
</Link>
</NetworkLink>
<Placemark id="pm4443">
<name><![CDATA[Mullen, Dorf]]></name>
<description><![CDATA[114 connections
]]></description>
<Point>
<coordinates>7.087380,47.030600</coordinates>
</Point>
</Placemark>
<Placemark id="pm7896">
<name><![CDATA[Tschugg, Post]]></name>
<description><![CDATA[114 connections
]]></description>
<Point>
<coordinates>7.076900,47.025200</coordinates>
</Point>
</Placemark>
<Placemark id="pm8710">
<name><![CDATA[Tschugg, Matte]]></name>
<description><![CDATA[114 connections
]]></description>
<Point>
<coordinates>7.072970,47.022500</coordinates>
</Point>
</Placemark>
<Placemark id="pm6895">
<name><![CDATA[Tschugg, Klinik]]></name>
<description><![CDATA[100 connections
]]></description>
<Point>
<coordinates>7.076820,47.036000</coordinates>
</Point>
</Placemark>
<Placemark id="pm3383">
<name><![CDATA[Vinelz, Flachsern]]></name>
<description><![CDATA[94 connections
]]></description>
<Point>
<coordinates>7.107130,47.028900</coordinates>
</Point>
</Placemark>
<Placemark id="pm3698">
<name><![CDATA[Erlach, Gostel]]></name>
<description><![CDATA[88 connections
]]></description>
<Point>
<coordinates>7.095220,47.038700</coordinates>
</Point>
</Placemark>
<Placemark id="pm11021">
<name><![CDATA[Lignières, bureau communal]]></name>
<description><![CDATA[88 connections
]]></description>
<Point>
<coordinates>7.064520,47.082900</coordinates>
</Point>
</Placemark>
<Placemark id="pm8990">
<name><![CDATA[Erlach, unter den Halden]]></name>
<description><![CDATA[82 connections
]]></description>
<Point>
<coordinates>7.091240,47.044100</coordinates>
</Point>
</Placemark>
<Placemark id="pm5927">
<name><![CDATA[St. Johannsen]]></name>
<description><![CDATA[80 connections
]]></description>
<Point>
<coordinates>7.070940,47.042500</coordinates>
</Point>
</Placemark>
<Placemark id="pm14852">
<name><![CDATA[Le Landeron, Vieille-Ville]]></name>
<description><![CDATA[80 connections
]]></description>
<Point>
<coordinates>7.061580,47.052100</coordinates>
</Point>
</Placemark>
<Placemark id="pm5654">
<name><![CDATA[Le Landeron, gare]]></name>
<description><![CDATA[74 connections
]]></description>
<Point>
<coordinates>7.066480,47.056400</coordinates>
</Point>
</Placemark>
<Placemark id="pm8342">
<name><![CDATA[Gals, Bethlehem]]></name>
<description><![CDATA[73 connections
]]></description>
<Point>
<coordinates>7.040080,47.022400</coordinates>
</Point>
</Placemark>
<Placemark id="pm3289">
<name><![CDATA[La Neuveville BSG]]></name>
<description><![CDATA[68 connections
]]></description>
<Point>
<coordinates>7.093580,47.061400</coordinates>
</Point>
</Placemark>
<Placemark id="pm5755">
<name><![CDATA[Lignières, cimetière]]></name>
<description><![CDATA[65 connections
]]></description>
<Point>
<coordinates>7.065000,47.080500</coordinates>
</Point>
</Placemark>
<Placemark id="pm15033">
<name><![CDATA[Nods, La Ruine]]></name>
<description><![CDATA[56 connections
]]></description>
<Point>
<coordinates>7.063330,47.103400</coordinates>
</Point>
</Placemark>
<Placemark id="pm8590">
<name><![CDATA[Prêles, Louvain]]></name>
<description><![CDATA[52 connections
]]></description>
<Point>
<coordinates>7.115990,47.086900</coordinates>
</Point>
</Placemark>
</Document>
</kml>
