<?xml version="1.0" encoding="UTF-8"?>
<!-- KML Regionator 303:340M -->
<kml xmlns="http://earth.google.com/kml/2.1">
<Document>
<name>541 02120210</name>
<Region>
<Lod>
<minLodPixels>256</minLodPixels>
<maxLodPixels>-1</maxLodPixels>
</Lod>
<LatLonAltBox>
<north>46.93359375</north>
<south>46.8896484375</south>
<east>7.1630859375</east>
<west>7.119140625</west>
</LatLonAltBox>
</Region>
<Placemark id="pm12019">
<name><![CDATA[Jeuss, Schulhaus]]></name>
<description><![CDATA[40 connections
]]></description>
<Point>
<coordinates>7.161710,46.904000</coordinates>
</Point>
</Placemark>
<Placemark id="pm8556">
<name><![CDATA[Cressier FR, bif.]]></name>
<description><![CDATA[40 connections
]]></description>
<Point>
<coordinates>7.151680,46.901000</coordinates>
</Point>
</Placemark>
<Placemark id="pm7671">
<name><![CDATA[Salvenach, Schulhaus]]></name>
<description><![CDATA[40 connections
]]></description>
<Point>
<coordinates>7.148540,46.912900</coordinates>
</Point>
</Placemark>
<Placemark id="pm5787">
<name><![CDATA[Münchenwiler, Bären]]></name>
<description><![CDATA[30 connections
]]></description>
<Point>
<coordinates>7.124910,46.912900</coordinates>
</Point>
</Placemark>
<Placemark id="pm7486">
<name><![CDATA[Altavilla]]></name>
<description><![CDATA[20 connections
]]></description>
<Point>
<coordinates>7.152370,46.932700</coordinates>
</Point>
</Placemark>
</Document>
</kml>
