<?xml version="1.0" encoding="UTF-8"?>
<!-- KML Regionator 303:340M -->
<kml xmlns="http://earth.google.com/kml/2.1">
<Document>
<name>587 02121030</name>
<Region>
<Lod>
<minLodPixels>256</minLodPixels>
<maxLodPixels>-1</maxLodPixels>
</Lod>
<LatLonAltBox>
<north>47.021484375</north>
<south>46.9775390625</south>
<east>7.5146484375</east>
<west>7.470703125</west>
</LatLonAltBox>
</Region>
<NetworkLink>
<name>021210300</name>
<Region>
<Lod>
<minLodPixels>256</minLodPixels>
<maxLodPixels>-1</maxLodPixels>
</Lod>
<LatLonAltBox>
<north>47.021484375</north>
<south>46.99951171875</south>
<east>7.49267578125</east>
<west>7.470703125</west>
</LatLonAltBox>
</Region>
<Link>
<href>588.kml</href>
<viewRefreshMode>onRegion</viewRefreshMode>
<viewFormat/>
</Link>
</NetworkLink>
<NetworkLink>
<name>021210301</name>
<Region>
<Lod>
<minLodPixels>256</minLodPixels>
<maxLodPixels>-1</maxLodPixels>
</Lod>
<LatLonAltBox>
<north>47.021484375</north>
<south>46.99951171875</south>
<east>7.5146484375</east>
<west>7.49267578125</west>
</LatLonAltBox>
</Region>
<Link>
<href>589.kml</href>
<viewRefreshMode>onRegion</viewRefreshMode>
<viewFormat/>
</Link>
</NetworkLink>
<Placemark id="pm7302">
<name><![CDATA[Schönbühl Shoppyland]]></name>
<description><![CDATA[254 connections
]]></description>
<Point>
<coordinates>7.493630,47.018600</coordinates>
</Point>
</Placemark>
<Placemark id="pm3332">
<name><![CDATA[Bolligen, Lutertal]]></name>
<description><![CDATA[222 connections
]]></description>
<Point>
<coordinates>7.493030,46.977900</coordinates>
</Point>
</Placemark>
<Placemark id="pm2632">
<name><![CDATA[Bolligen, Lutertal Nord]]></name>
<description><![CDATA[222 connections
]]></description>
<Point>
<coordinates>7.491130,46.979400</coordinates>
</Point>
</Placemark>
<Placemark id="pm4580">
<name><![CDATA[Bolligen, Rüttelerweg]]></name>
<description><![CDATA[210 connections
]]></description>
<Point>
<coordinates>7.505290,46.982500</coordinates>
</Point>
</Placemark>
<Placemark id="pm1703">
<name><![CDATA[Habstetten, Linde]]></name>
<description><![CDATA[210 connections
]]></description>
<Point>
<coordinates>7.503530,46.984500</coordinates>
</Point>
</Placemark>
<Placemark id="pm11386">
<name><![CDATA[Habstetten, Rössli]]></name>
<description><![CDATA[210 connections
]]></description>
<Point>
<coordinates>7.498650,46.984800</coordinates>
</Point>
</Placemark>
<Placemark id="pm2011">
<name><![CDATA[Schönbühl RBS, Bahnhof]]></name>
<description><![CDATA[186 connections
]]></description>
<Point>
<coordinates>7.497820,47.019400</coordinates>
</Point>
</Placemark>
<Placemark id="pm11353">
<name><![CDATA[Ittigen, Brunnenhof]]></name>
<description><![CDATA[186 connections
]]></description>
<Point>
<coordinates>7.486650,46.978900</coordinates>
</Point>
</Placemark>
<Placemark id="pm1268">
<name><![CDATA[Ittigen, Zulligerstrasse]]></name>
<description><![CDATA[186 connections
]]></description>
<Point>
<coordinates>7.483860,46.979700</coordinates>
</Point>
</Placemark>
<Placemark id="pm981">
<name><![CDATA[Ittigen, Zulligerstrasse West]]></name>
<description><![CDATA[186 connections
]]></description>
<Point>
<coordinates>7.480320,46.981900</coordinates>
</Point>
</Placemark>
<Placemark id="pm5577">
<name><![CDATA[Ittigen, Ittigenstrasse]]></name>
<description><![CDATA[172 connections
]]></description>
<Point>
<coordinates>7.488660,46.978400</coordinates>
</Point>
</Placemark>
<Placemark id="pm9839">
<name><![CDATA[Bolligen, Chrottengässli]]></name>
<description><![CDATA[159 connections
]]></description>
<Point>
<coordinates>7.501640,46.978000</coordinates>
</Point>
</Placemark>
<Placemark id="pm1174">
<name><![CDATA[Bolligen, Reckholtern]]></name>
<description><![CDATA[156 connections
]]></description>
<Point>
<coordinates>7.498190,46.980700</coordinates>
</Point>
</Placemark>
<Placemark id="pm716">
<name><![CDATA[Ittigen, Krankenheim]]></name>
<description><![CDATA[152 connections
]]></description>
<Point>
<coordinates>7.489680,46.979200</coordinates>
</Point>
</Placemark>
<Placemark id="pm13023">
<name><![CDATA[Schönbühl SBB]]></name>
<description><![CDATA[88 connections
]]></description>
<Point>
<coordinates>7.498930,47.018900</coordinates>
</Point>
</Placemark>
<Placemark id="pm15067">
<name><![CDATA[Bolligen, Stockeren]]></name>
<description><![CDATA[56 connections
]]></description>
<Point>
<coordinates>7.507650,46.986100</coordinates>
</Point>
</Placemark>
</Document>
</kml>
