<?xml version="1.0" encoding="UTF-8"?>
<!-- KML Regionator 303:340M -->
<kml xmlns="http://earth.google.com/kml/2.1">
<Document>
<name>612 0212120</name>
<Region>
<Lod>
<minLodPixels>256</minLodPixels>
<maxLodPixels>-1</maxLodPixels>
</Lod>
<LatLonAltBox>
<north>46.93359375</north>
<south>46.845703125</south>
<east>7.470703125</east>
<west>7.3828125</west>
</LatLonAltBox>
</Region>
<NetworkLink>
<name>02121200</name>
<Region>
<Lod>
<minLodPixels>256</minLodPixels>
<maxLodPixels>-1</maxLodPixels>
</Lod>
<LatLonAltBox>
<north>46.93359375</north>
<south>46.8896484375</south>
<east>7.4267578125</east>
<west>7.3828125</west>
</LatLonAltBox>
</Region>
<Link>
<href>613.kml</href>
<viewRefreshMode>onRegion</viewRefreshMode>
<viewFormat/>
</Link>
</NetworkLink>
<NetworkLink>
<name>02121201</name>
<Region>
<Lod>
<minLodPixels>256</minLodPixels>
<maxLodPixels>-1</maxLodPixels>
</Lod>
<LatLonAltBox>
<north>46.93359375</north>
<south>46.8896484375</south>
<east>7.470703125</east>
<west>7.4267578125</west>
</LatLonAltBox>
</Region>
<Link>
<href>614.kml</href>
<viewRefreshMode>onRegion</viewRefreshMode>
<viewFormat/>
</Link>
</NetworkLink>
<NetworkLink>
<name>02121202</name>
<Region>
<Lod>
<minLodPixels>256</minLodPixels>
<maxLodPixels>-1</maxLodPixels>
</Lod>
<LatLonAltBox>
<north>46.8896484375</north>
<south>46.845703125</south>
<east>7.4267578125</east>
<west>7.3828125</west>
</LatLonAltBox>
</Region>
<Link>
<href>615.kml</href>
<viewRefreshMode>onRegion</viewRefreshMode>
<viewFormat/>
</Link>
</NetworkLink>
<NetworkLink>
<name>02121203</name>
<Region>
<Lod>
<minLodPixels>256</minLodPixels>
<maxLodPixels>-1</maxLodPixels>
</Lod>
<LatLonAltBox>
<north>46.8896484375</north>
<south>46.845703125</south>
<east>7.470703125</east>
<west>7.4267578125</west>
</LatLonAltBox>
</Region>
<Link>
<href>616.kml</href>
<viewRefreshMode>onRegion</viewRefreshMode>
<viewFormat/>
</Link>
</NetworkLink>
<Placemark id="pm12599">
<name><![CDATA[Oberscherli, Leimen]]></name>
<description><![CDATA[204 connections
]]></description>
<Point>
<coordinates>7.421580,46.876400</coordinates>
</Point>
</Placemark>
<Placemark id="pm4562">
<name><![CDATA[Niederscherli, Bahnhof]]></name>
<description><![CDATA[174 connections
]]></description>
<Point>
<coordinates>7.388410,46.886400</coordinates>
</Point>
</Placemark>
<Placemark id="pm1404">
<name><![CDATA[Köniz]]></name>
<description><![CDATA[148 connections
]]></description>
<Point>
<coordinates>7.415160,46.924900</coordinates>
</Point>
</Placemark>
<Placemark id="pm3743">
<name><![CDATA[Niederscherli]]></name>
<description><![CDATA[144 connections
]]></description>
<Point>
<coordinates>7.388230,46.886500</coordinates>
</Point>
</Placemark>
<Placemark id="pm5509">
<name><![CDATA[Gasel]]></name>
<description><![CDATA[142 connections
]]></description>
<Point>
<coordinates>7.400700,46.900900</coordinates>
</Point>
</Placemark>
<Placemark id="pm5200">
<name><![CDATA[Niedermuhlern, Käserei]]></name>
<description><![CDATA[140 connections
]]></description>
<Point>
<coordinates>7.464870,46.861100</coordinates>
</Point>
</Placemark>
<Placemark id="pm4766">
<name><![CDATA[Liebefeld]]></name>
<description><![CDATA[140 connections
]]></description>
<Point>
<coordinates>7.419200,46.930300</coordinates>
</Point>
</Placemark>
<Placemark id="pm9523">
<name><![CDATA[Moos]]></name>
<description><![CDATA[140 connections
]]></description>
<Point>
<coordinates>7.401190,46.910000</coordinates>
</Point>
</Placemark>
<Placemark id="pm9534">
<name><![CDATA[Niedermuhlern, Post]]></name>
<description><![CDATA[128 connections
]]></description>
<Point>
<coordinates>7.466180,46.858400</coordinates>
</Point>
</Placemark>
<Placemark id="pm3947">
<name><![CDATA[Scherliau]]></name>
<description><![CDATA[128 connections
]]></description>
<Point>
<coordinates>7.424210,46.878200</coordinates>
</Point>
</Placemark>
<Placemark id="pm11017">
<name><![CDATA[Kehrsatz, Rössli]]></name>
<description><![CDATA[116 connections
]]></description>
<Point>
<coordinates>7.467870,46.915300</coordinates>
</Point>
</Placemark>
<Placemark id="pm1243">
<name><![CDATA[Wabern, Kleinwabern]]></name>
<description><![CDATA[116 connections
]]></description>
<Point>
<coordinates>7.459640,46.922300</coordinates>
</Point>
</Placemark>
<Placemark id="pm47">
<name><![CDATA[Englisberg, Neuhaus]]></name>
<description><![CDATA[102 connections
]]></description>
<Point>
<coordinates>7.470160,46.895100</coordinates>
</Point>
</Placemark>
<Placemark id="pm2040">
<name><![CDATA[Zimmerwald, Budelkehr]]></name>
<description><![CDATA[102 connections
]]></description>
<Point>
<coordinates>7.470120,46.872800</coordinates>
</Point>
</Placemark>
<Placemark id="pm12618">
<name><![CDATA[Kehrsatz, Tannacker]]></name>
<description><![CDATA[102 connections
]]></description>
<Point>
<coordinates>7.469660,46.904100</coordinates>
</Point>
</Placemark>
<Placemark id="pm230">
<name><![CDATA[Englisberg, Dorf]]></name>
<description><![CDATA[102 connections
]]></description>
<Point>
<coordinates>7.468820,46.897100</coordinates>
</Point>
</Placemark>
</Document>
</kml>
