<?xml version="1.0" encoding="UTF-8"?>
<!-- KML Regionator 303:340M -->
<kml xmlns="http://earth.google.com/kml/2.1">
<Document>
<name>626 02121223</name>
<Region>
<Lod>
<minLodPixels>256</minLodPixels>
<maxLodPixels>-1</maxLodPixels>
</Lod>
<LatLonAltBox>
<north>46.8017578125</north>
<south>46.7578125</south>
<east>7.470703125</east>
<west>7.4267578125</west>
</LatLonAltBox>
</Region>
<Placemark id="pm9476">
<name><![CDATA[Rüti b. R'berg, Neuhaus]]></name>
<description><![CDATA[8 connections
]]></description>
<Point>
<coordinates>7.455660,46.782900</coordinates>
</Point>
</Placemark>
<Placemark id="pm3013">
<name><![CDATA[Rüti b. R'berg, Brügghüsi]]></name>
<description><![CDATA[8 connections
]]></description>
<Point>
<coordinates>7.450290,46.781100</coordinates>
</Point>
</Placemark>
<Placemark id="pm12993">
<name><![CDATA[Rüti b. R'berg, Dürrbach]]></name>
<description><![CDATA[8 connections
]]></description>
<Point>
<coordinates>7.443870,46.778400</coordinates>
</Point>
</Placemark>
<Placemark id="pm6076">
<name><![CDATA[Gurnigel, Bad]]></name>
<description><![CDATA[8 connections
]]></description>
<Point>
<coordinates>7.442560,46.761300</coordinates>
</Point>
</Placemark>
<Placemark id="pm10593">
<name><![CDATA[Rüti b. R'berg, Laas]]></name>
<description><![CDATA[8 connections
]]></description>
<Point>
<coordinates>7.438640,46.773000</coordinates>
</Point>
</Placemark>
</Document>
</kml>
