<?xml version="1.0" encoding="UTF-8"?>
<!-- KML Regionator 303:340M -->
<kml xmlns="http://earth.google.com/kml/2.1">
<Document>
<name>703 02130</name>
<Region>
<Lod>
<minLodPixels>256</minLodPixels>
<maxLodPixels>-1</maxLodPixels>
</Lod>
<LatLonAltBox>
<north>47.109375</north>
<south>46.7578125</south>
<east>8.0859375</east>
<west>7.734375</west>
</LatLonAltBox>
</Region>
<NetworkLink>
<name>021300</name>
<Region>
<Lod>
<minLodPixels>256</minLodPixels>
<maxLodPixels>-1</maxLodPixels>
</Lod>
<LatLonAltBox>
<north>47.109375</north>
<south>46.93359375</south>
<east>7.91015625</east>
<west>7.734375</west>
</LatLonAltBox>
</Region>
<Link>
<href>704.kml</href>
<viewRefreshMode>onRegion</viewRefreshMode>
<viewFormat/>
</Link>
</NetworkLink>
<NetworkLink>
<name>021301</name>
<Region>
<Lod>
<minLodPixels>256</minLodPixels>
<maxLodPixels>-1</maxLodPixels>
</Lod>
<LatLonAltBox>
<north>47.109375</north>
<south>46.93359375</south>
<east>8.0859375</east>
<west>7.91015625</west>
</LatLonAltBox>
</Region>
<Link>
<href>711.kml</href>
<viewRefreshMode>onRegion</viewRefreshMode>
<viewFormat/>
</Link>
</NetworkLink>
<NetworkLink>
<name>021302</name>
<Region>
<Lod>
<minLodPixels>256</minLodPixels>
<maxLodPixels>-1</maxLodPixels>
</Lod>
<LatLonAltBox>
<north>46.93359375</north>
<south>46.7578125</south>
<east>7.91015625</east>
<west>7.734375</west>
</LatLonAltBox>
</Region>
<Link>
<href>723.kml</href>
<viewRefreshMode>onRegion</viewRefreshMode>
<viewFormat/>
</Link>
</NetworkLink>
<NetworkLink>
<name>021303</name>
<Region>
<Lod>
<minLodPixels>256</minLodPixels>
<maxLodPixels>-1</maxLodPixels>
</Lod>
<LatLonAltBox>
<north>46.93359375</north>
<south>46.7578125</south>
<east>8.0859375</east>
<west>7.91015625</west>
</LatLonAltBox>
</Region>
<Link>
<href>728.kml</href>
<viewRefreshMode>onRegion</viewRefreshMode>
<viewFormat/>
</Link>
</NetworkLink>
<Placemark id="pm15001">
<name><![CDATA[Langnau i.E., Bahnhof]]></name>
<description><![CDATA[245 connections
]]></description>
<Point>
<coordinates>7.784830,46.939000</coordinates>
</Point>
</Placemark>
<Placemark id="pm12386">
<name><![CDATA[Wolhusen]]></name>
<description><![CDATA[200 connections
]]></description>
<Point>
<coordinates>8.079750,47.055500</coordinates>
</Point>
</Placemark>
<Placemark id="pm14862">
<name><![CDATA[Langnau]]></name>
<description><![CDATA[184 connections
]]></description>
<Point>
<coordinates>7.784190,46.939200</coordinates>
</Point>
</Placemark>
<Placemark id="pm12487">
<name><![CDATA[Bärau, Dorf]]></name>
<description><![CDATA[177 connections
]]></description>
<Point>
<coordinates>7.811110,46.941300</coordinates>
</Point>
</Placemark>
<Placemark id="pm552">
<name><![CDATA[Entlebuch]]></name>
<description><![CDATA[148 connections
]]></description>
<Point>
<coordinates>8.062350,46.993700</coordinates>
</Point>
</Placemark>
<Placemark id="pm10202">
<name><![CDATA[Schüpfheim]]></name>
<description><![CDATA[148 connections
]]></description>
<Point>
<coordinates>8.015140,46.950600</coordinates>
</Point>
</Placemark>
<Placemark id="pm7787">
<name><![CDATA[Escholzmatt]]></name>
<description><![CDATA[148 connections
]]></description>
<Point>
<coordinates>7.936360,46.915300</coordinates>
</Point>
</Placemark>
<Placemark id="pm4935">
<name><![CDATA[Schüpbach, Dorf]]></name>
<description><![CDATA[142 connections
]]></description>
<Point>
<coordinates>7.734730,46.927800</coordinates>
</Point>
</Placemark>
<Placemark id="pm7454">
<name><![CDATA[Emmenmatt]]></name>
<description><![CDATA[140 connections
]]></description>
<Point>
<coordinates>7.747290,46.948100</coordinates>
</Point>
</Placemark>
<Placemark id="pm3314">
<name><![CDATA[Oberschwanden]]></name>
<description><![CDATA[132 connections
]]></description>
<Point>
<coordinates>8.063650,46.758400</coordinates>
</Point>
</Placemark>
<Placemark id="pm14800">
<name><![CDATA[Unterschwanden]]></name>
<description><![CDATA[132 connections
]]></description>
<Point>
<coordinates>8.055810,46.759400</coordinates>
</Point>
</Placemark>
<Placemark id="pm2515">
<name><![CDATA[Willisau, Breiten]]></name>
<description><![CDATA[132 connections
]]></description>
<Point>
<coordinates>7.963620,47.105700</coordinates>
</Point>
</Placemark>
<Placemark id="pm10536">
<name><![CDATA[Willisau, Feldmatt-Kapelle]]></name>
<description><![CDATA[132 connections
]]></description>
<Point>
<coordinates>7.962930,47.101900</coordinates>
</Point>
</Placemark>
<Placemark id="pm8845">
<name><![CDATA[Hergiswil LU, Neuhaus]]></name>
<description><![CDATA[132 connections
]]></description>
<Point>
<coordinates>7.962170,47.092000</coordinates>
</Point>
</Placemark>
<Placemark id="pm14918">
<name><![CDATA[Hergiswil LU, Untere Schmiede]]></name>
<description><![CDATA[132 connections
]]></description>
<Point>
<coordinates>7.959830,47.088000</coordinates>
</Point>
</Placemark>
<Placemark id="pm7079">
<name><![CDATA[Wolhusen, Bahnhof]]></name>
<description><![CDATA[131 connections
]]></description>
<Point>
<coordinates>8.079090,47.055700</coordinates>
</Point>
</Placemark>
</Document>
</kml>
