<?xml version="1.0" encoding="UTF-8"?>
<!-- KML Regionator 303:340M -->
<kml xmlns="http://earth.google.com/kml/2.1">
<Document>
<name>728 021303</name>
<Region>
<Lod>
<minLodPixels>256</minLodPixels>
<maxLodPixels>-1</maxLodPixels>
</Lod>
<LatLonAltBox>
<north>46.93359375</north>
<south>46.7578125</south>
<east>8.0859375</east>
<west>7.91015625</west>
</LatLonAltBox>
</Region>
<NetworkLink>
<name>0213030</name>
<Region>
<Lod>
<minLodPixels>256</minLodPixels>
<maxLodPixels>-1</maxLodPixels>
</Lod>
<LatLonAltBox>
<north>46.93359375</north>
<south>46.845703125</south>
<east>7.998046875</east>
<west>7.91015625</west>
</LatLonAltBox>
</Region>
<Link>
<href>729.kml</href>
<viewRefreshMode>onRegion</viewRefreshMode>
<viewFormat/>
</Link>
</NetworkLink>
<NetworkLink>
<name>0213031</name>
<Region>
<Lod>
<minLodPixels>256</minLodPixels>
<maxLodPixels>-1</maxLodPixels>
</Lod>
<LatLonAltBox>
<north>46.93359375</north>
<south>46.845703125</south>
<east>8.0859375</east>
<west>7.998046875</west>
</LatLonAltBox>
</Region>
<Link>
<href>730.kml</href>
<viewRefreshMode>onRegion</viewRefreshMode>
<viewFormat/>
</Link>
</NetworkLink>
<NetworkLink>
<name>0213032</name>
<Region>
<Lod>
<minLodPixels>256</minLodPixels>
<maxLodPixels>-1</maxLodPixels>
</Lod>
<LatLonAltBox>
<north>46.845703125</north>
<south>46.7578125</south>
<east>7.998046875</east>
<west>7.91015625</west>
</LatLonAltBox>
</Region>
<Link>
<href>731.kml</href>
<viewRefreshMode>onRegion</viewRefreshMode>
<viewFormat/>
</Link>
</NetworkLink>
<NetworkLink>
<name>0213033</name>
<Region>
<Lod>
<minLodPixels>256</minLodPixels>
<maxLodPixels>-1</maxLodPixels>
</Lod>
<LatLonAltBox>
<north>46.845703125</north>
<south>46.7578125</south>
<east>8.0859375</east>
<west>7.998046875</west>
</LatLonAltBox>
</Region>
<Link>
<href>732.kml</href>
<viewRefreshMode>onRegion</viewRefreshMode>
<viewFormat/>
</Link>
</NetworkLink>
<Placemark id="pm2971">
<name><![CDATA[Escholzmatt, Riedgasse]]></name>
<description><![CDATA[96 connections
]]></description>
<Point>
<coordinates>7.930840,46.906800</coordinates>
</Point>
</Placemark>
<Placemark id="pm8804">
<name><![CDATA[Wiggen, Unterbach]]></name>
<description><![CDATA[96 connections
]]></description>
<Point>
<coordinates>7.921920,46.900600</coordinates>
</Point>
</Placemark>
<Placemark id="pm12065">
<name><![CDATA[Wiggen, Hilfernstrasse]]></name>
<description><![CDATA[96 connections
]]></description>
<Point>
<coordinates>7.914870,46.882600</coordinates>
</Point>
</Placemark>
<Placemark id="pm7928">
<name><![CDATA[Marbach LU, Schächli]]></name>
<description><![CDATA[96 connections
]]></description>
<Point>
<coordinates>7.912550,46.879300</coordinates>
</Point>
</Placemark>
<Placemark id="pm5488">
<name><![CDATA[Wiggen, Wittenmoos]]></name>
<description><![CDATA[96 connections
]]></description>
<Point>
<coordinates>7.912030,46.887700</coordinates>
</Point>
</Placemark>
<Placemark id="pm12450">
<name><![CDATA[Marbach LU, Neugaden]]></name>
<description><![CDATA[96 connections
]]></description>
<Point>
<coordinates>7.910190,46.872700</coordinates>
</Point>
</Placemark>
<Placemark id="pm8900">
<name><![CDATA[Marbach LU, Käserei Schufelbü.]]></name>
<description><![CDATA[96 connections
]]></description>
<Point>
<coordinates>7.910170,46.869800</coordinates>
</Point>
</Placemark>
<Placemark id="pm8466">
<name><![CDATA[Hofstetten b. Brienz, Schried]]></name>
<description><![CDATA[76 connections
]]></description>
<Point>
<coordinates>8.072900,46.765800</coordinates>
</Point>
</Placemark>
<Placemark id="pm15003">
<name><![CDATA[Sörenberg, Schulhaus]]></name>
<description><![CDATA[72 connections
]]></description>
<Point>
<coordinates>8.029680,46.823800</coordinates>
</Point>
</Placemark>
<Placemark id="pm14809">
<name><![CDATA[Sörenberg, Camping]]></name>
<description><![CDATA[72 connections
]]></description>
<Point>
<coordinates>8.025440,46.825700</coordinates>
</Point>
</Placemark>
<Placemark id="pm10581">
<name><![CDATA[Sörenberg, Ochsenweid]]></name>
<description><![CDATA[72 connections
]]></description>
<Point>
<coordinates>8.022820,46.825500</coordinates>
</Point>
</Placemark>
<Placemark id="pm12187">
<name><![CDATA[Flühli LU, Golfplatz]]></name>
<description><![CDATA[72 connections
]]></description>
<Point>
<coordinates>8.018020,46.867300</coordinates>
</Point>
</Placemark>
<Placemark id="pm12791">
<name><![CDATA[Flühli LU, Hüttlenen]]></name>
<description><![CDATA[72 connections
]]></description>
<Point>
<coordinates>8.017140,46.876500</coordinates>
</Point>
</Placemark>
<Placemark id="pm12403">
<name><![CDATA[Flühli LU, Torbach]]></name>
<description><![CDATA[72 connections
]]></description>
<Point>
<coordinates>8.016520,46.879500</coordinates>
</Point>
</Placemark>
<Placemark id="pm5727">
<name><![CDATA[Flühli LU, Hochwald]]></name>
<description><![CDATA[72 connections
]]></description>
<Point>
<coordinates>8.016430,46.871400</coordinates>
</Point>
</Placemark>
<Placemark id="pm10431">
<name><![CDATA[Sörenberg, Skilift Rischli]]></name>
<description><![CDATA[72 connections
]]></description>
<Point>
<coordinates>8.016310,46.829500</coordinates>
</Point>
</Placemark>
</Document>
</kml>
