<?xml version="1.0" encoding="UTF-8"?>
<!-- KML Regionator 303:340M -->
<kml xmlns="http://earth.google.com/kml/2.1">
<Document>
<name>73 0203120</name>
<Region>
<Lod>
<minLodPixels>256</minLodPixels>
<maxLodPixels>-1</maxLodPixels>
</Lod>
<LatLonAltBox>
<north>46.93359375</north>
<south>46.845703125</south>
<east>6.767578125</east>
<west>6.6796875</west>
</LatLonAltBox>
</Region>
<NetworkLink>
<name>02031201</name>
<Region>
<Lod>
<minLodPixels>256</minLodPixels>
<maxLodPixels>-1</maxLodPixels>
</Lod>
<LatLonAltBox>
<north>46.93359375</north>
<south>46.8896484375</south>
<east>6.767578125</east>
<west>6.7236328125</west>
</LatLonAltBox>
</Region>
<Link>
<href>74.kml</href>
<viewRefreshMode>onRegion</viewRefreshMode>
<viewFormat/>
</Link>
</NetworkLink>
<NetworkLink>
<name>02031202</name>
<Region>
<Lod>
<minLodPixels>256</minLodPixels>
<maxLodPixels>-1</maxLodPixels>
</Lod>
<LatLonAltBox>
<north>46.8896484375</north>
<south>46.845703125</south>
<east>6.7236328125</east>
<west>6.6796875</west>
</LatLonAltBox>
</Region>
<Link>
<href>75.kml</href>
<viewRefreshMode>onRegion</viewRefreshMode>
<viewFormat/>
</Link>
</NetworkLink>
<NetworkLink>
<name>02031203</name>
<Region>
<Lod>
<minLodPixels>256</minLodPixels>
<maxLodPixels>-1</maxLodPixels>
</Lod>
<LatLonAltBox>
<north>46.8896484375</north>
<south>46.845703125</south>
<east>6.767578125</east>
<west>6.7236328125</west>
</LatLonAltBox>
</Region>
<Link>
<href>76.kml</href>
<viewRefreshMode>onRegion</viewRefreshMode>
<viewFormat/>
</Link>
</NetworkLink>
<Placemark id="pm13694">
<name><![CDATA[Montalchez, La Comballaz]]></name>
<description><![CDATA[47 connections
]]></description>
<Point>
<coordinates>6.746390,46.897700</coordinates>
</Point>
</Placemark>
<Placemark id="pm10655">
<name><![CDATA[Fresens, village]]></name>
<description><![CDATA[42 connections
]]></description>
<Point>
<coordinates>6.747690,46.888300</coordinates>
</Point>
</Placemark>
<Placemark id="pm8442">
<name><![CDATA[Fresens-Montalchez, poste]]></name>
<description><![CDATA[42 connections
]]></description>
<Point>
<coordinates>6.745980,46.888700</coordinates>
</Point>
</Placemark>
<Placemark id="pm3962">
<name><![CDATA[Sauges-près-Saint-Aubin]]></name>
<description><![CDATA[40 connections
]]></description>
<Point>
<coordinates>6.763710,46.887700</coordinates>
</Point>
</Placemark>
<Placemark id="pm8825">
<name><![CDATA[Vaumarcus, bas du village]]></name>
<description><![CDATA[40 connections
]]></description>
<Point>
<coordinates>6.757460,46.878400</coordinates>
</Point>
</Placemark>
<Placemark id="pm10556">
<name><![CDATA[Vaumarcus, haut du village]]></name>
<description><![CDATA[40 connections
]]></description>
<Point>
<coordinates>6.753550,46.876600</coordinates>
</Point>
</Placemark>
<Placemark id="pm213">
<name><![CDATA[Fresens, bas du village]]></name>
<description><![CDATA[40 connections
]]></description>
<Point>
<coordinates>6.743910,46.886000</coordinates>
</Point>
</Placemark>
<Placemark id="pm1448">
<name><![CDATA[Vernéaz, croisée]]></name>
<description><![CDATA[40 connections
]]></description>
<Point>
<coordinates>6.739450,46.875800</coordinates>
</Point>
</Placemark>
<Placemark id="pm8905">
<name><![CDATA[Montalchez, centre du village]]></name>
<description><![CDATA[30 connections
]]></description>
<Point>
<coordinates>6.745080,46.897300</coordinates>
</Point>
</Placemark>
<Placemark id="pm7188">
<name><![CDATA[Provence, anc. poste]]></name>
<description><![CDATA[28 connections
]]></description>
<Point>
<coordinates>6.728420,46.891800</coordinates>
</Point>
</Placemark>
<Placemark id="pm4294">
<name><![CDATA[Provence, village]]></name>
<description><![CDATA[28 connections
]]></description>
<Point>
<coordinates>6.726400,46.891100</coordinates>
</Point>
</Placemark>
<Placemark id="pm8336">
<name><![CDATA[Provence, poste]]></name>
<description><![CDATA[28 connections
]]></description>
<Point>
<coordinates>6.724060,46.889100</coordinates>
</Point>
</Placemark>
<Placemark id="pm9330">
<name><![CDATA[Concise, Platet-Christine]]></name>
<description><![CDATA[26 connections
]]></description>
<Point>
<coordinates>6.730730,46.870600</coordinates>
</Point>
</Placemark>
<Placemark id="pm9024">
<name><![CDATA[Concise, Prise-Gaulaz]]></name>
<description><![CDATA[26 connections
]]></description>
<Point>
<coordinates>6.729140,46.862500</coordinates>
</Point>
</Placemark>
<Placemark id="pm2256">
<name><![CDATA[Concise, Les Biolles]]></name>
<description><![CDATA[26 connections
]]></description>
<Point>
<coordinates>6.727680,46.873300</coordinates>
</Point>
</Placemark>
<Placemark id="pm10369">
<name><![CDATA[Mutrux, anc. poste]]></name>
<description><![CDATA[26 connections
]]></description>
<Point>
<coordinates>6.725980,46.883100</coordinates>
</Point>
</Placemark>
</Document>
</kml>
