<?xml version="1.0" encoding="UTF-8"?>
<!-- KML Regionator 303:340M -->
<kml xmlns="http://earth.google.com/kml/2.1">
<Document>
<name>78 0203122</name>
<Region>
<Lod>
<minLodPixels>256</minLodPixels>
<maxLodPixels>-1</maxLodPixels>
</Lod>
<LatLonAltBox>
<north>46.845703125</north>
<south>46.7578125</south>
<east>6.767578125</east>
<west>6.6796875</west>
</LatLonAltBox>
</Region>
<Placemark id="pm8506">
<name><![CDATA[Molondin, village]]></name>
<description><![CDATA[34 connections
]]></description>
<Point>
<coordinates>6.749220,46.768600</coordinates>
</Point>
</Placemark>
<Placemark id="pm14305">
<name><![CDATA[Rovray, village]]></name>
<description><![CDATA[28 connections
]]></description>
<Point>
<coordinates>6.763540,46.785600</coordinates>
</Point>
</Placemark>
<Placemark id="pm8109">
<name><![CDATA[Yvonand, Sur Priales]]></name>
<description><![CDATA[28 connections
]]></description>
<Point>
<coordinates>6.754580,46.795400</coordinates>
</Point>
</Placemark>
<Placemark id="pm7349">
<name><![CDATA[Yvonand, dessus-du-village]]></name>
<description><![CDATA[28 connections
]]></description>
<Point>
<coordinates>6.749880,46.794300</coordinates>
</Point>
</Placemark>
<Placemark id="pm3090">
<name><![CDATA[Yvonand, poste/gare]]></name>
<description><![CDATA[20 connections
]]></description>
<Point>
<coordinates>6.746330,46.800300</coordinates>
</Point>
</Placemark>
<Placemark id="pm730">
<name><![CDATA[Onnens VD, La Fontaine]]></name>
<description><![CDATA[20 connections
]]></description>
<Point>
<coordinates>6.687220,46.840000</coordinates>
</Point>
</Placemark>
<Placemark id="pm6511">
<name><![CDATA[La Mauguettaz, croisée]]></name>
<description><![CDATA[14 connections
]]></description>
<Point>
<coordinates>6.719400,46.781500</coordinates>
</Point>
</Placemark>
<Placemark id="pm7162">
<name><![CDATA[Cuarny, La Grande-Moille]]></name>
<description><![CDATA[14 connections
]]></description>
<Point>
<coordinates>6.706910,46.780500</coordinates>
</Point>
</Placemark>
<Placemark id="pm13633">
<name><![CDATA[Villars-Epeney, Fontaine]]></name>
<description><![CDATA[14 connections
]]></description>
<Point>
<coordinates>6.696810,46.781600</coordinates>
</Point>
</Placemark>
<Placemark id="pm11498">
<name><![CDATA[Villars-Epeney, Clar Chaney]]></name>
<description><![CDATA[14 connections
]]></description>
<Point>
<coordinates>6.694140,46.785200</coordinates>
</Point>
</Placemark>
<Placemark id="pm6994">
<name><![CDATA[Cuarny, église]]></name>
<description><![CDATA[8 connections
]]></description>
<Point>
<coordinates>6.687480,46.769400</coordinates>
</Point>
</Placemark>
<Placemark id="pm11391">
<name><![CDATA[Chêne-Pâquier, La Cure]]></name>
<description><![CDATA[6 connections
]]></description>
<Point>
<coordinates>6.763730,46.770700</coordinates>
</Point>
</Placemark>
</Document>
</kml>
