<?xml version="1.0" encoding="UTF-8"?>
<!-- KML Regionator 303:340M -->
<kml xmlns="http://earth.google.com/kml/2.1">
<Document>
<name>915 0230032</name>
<Region>
<Lod>
<minLodPixels>256</minLodPixels>
<maxLodPixels>-1</maxLodPixels>
</Lod>
<LatLonAltBox>
<north>46.142578125</north>
<south>46.0546875</south>
<east>7.294921875</east>
<west>7.20703125</west>
</LatLonAltBox>
</Region>
<NetworkLink>
<name>02300320</name>
<Region>
<Lod>
<minLodPixels>256</minLodPixels>
<maxLodPixels>-1</maxLodPixels>
</Lod>
<LatLonAltBox>
<north>46.142578125</north>
<south>46.0986328125</south>
<east>7.2509765625</east>
<west>7.20703125</west>
</LatLonAltBox>
</Region>
<Link>
<href>916.kml</href>
<viewRefreshMode>onRegion</viewRefreshMode>
<viewFormat/>
</Link>
</NetworkLink>
<NetworkLink>
<name>02300322</name>
<Region>
<Lod>
<minLodPixels>256</minLodPixels>
<maxLodPixels>-1</maxLodPixels>
</Lod>
<LatLonAltBox>
<north>46.0986328125</north>
<south>46.0546875</south>
<east>7.2509765625</east>
<west>7.20703125</west>
</LatLonAltBox>
</Region>
<Link>
<href>917.kml</href>
<viewRefreshMode>onRegion</viewRefreshMode>
<viewFormat/>
</Link>
</NetworkLink>
<Placemark id="pm941">
<name><![CDATA[Verbier, fromagerie]]></name>
<description><![CDATA[70 connections
]]></description>
<Point>
<coordinates>7.218060,46.094900</coordinates>
</Point>
</Placemark>
<Placemark id="pm2164">
<name><![CDATA[Verbier, Crettaz Cô]]></name>
<description><![CDATA[70 connections
]]></description>
<Point>
<coordinates>7.216910,46.098000</coordinates>
</Point>
</Placemark>
<Placemark id="pm11138">
<name><![CDATA[Le Châble VS, gare]]></name>
<description><![CDATA[70 connections
]]></description>
<Point>
<coordinates>7.215220,46.077900</coordinates>
</Point>
</Placemark>
<Placemark id="pm2613">
<name><![CDATA[Verbier, Pra Michau]]></name>
<description><![CDATA[58 connections
]]></description>
<Point>
<coordinates>7.224890,46.097300</coordinates>
</Point>
</Placemark>
<Placemark id="pm3611">
<name><![CDATA[Médières]]></name>
<description><![CDATA[58 connections
]]></description>
<Point>
<coordinates>7.222180,46.090700</coordinates>
</Point>
</Placemark>
<Placemark id="pm4869">
<name><![CDATA[Fontenelle]]></name>
<description><![CDATA[58 connections
]]></description>
<Point>
<coordinates>7.217000,46.086200</coordinates>
</Point>
</Placemark>
<Placemark id="pm1115">
<name><![CDATA[Le Châble VS, Le Tarpin]]></name>
<description><![CDATA[58 connections
]]></description>
<Point>
<coordinates>7.214970,46.089500</coordinates>
</Point>
</Placemark>
<Placemark id="pm13879">
<name><![CDATA[Le Châble VS,Fontenelle-Dessou]]></name>
<description><![CDATA[58 connections
]]></description>
<Point>
<coordinates>7.214710,46.087000</coordinates>
</Point>
</Placemark>
<Placemark id="pm12816">
<name><![CDATA[Cotterg]]></name>
<description><![CDATA[58 connections
]]></description>
<Point>
<coordinates>7.208710,46.085500</coordinates>
</Point>
</Placemark>
<Placemark id="pm11684">
<name><![CDATA[Lourtier, Les Epeneys]]></name>
<description><![CDATA[46 connections
]]></description>
<Point>
<coordinates>7.259660,46.054800</coordinates>
</Point>
</Placemark>
<Placemark id="pm12131">
<name><![CDATA[Versegères, Fregnoley]]></name>
<description><![CDATA[46 connections
]]></description>
<Point>
<coordinates>7.252580,46.055600</coordinates>
</Point>
</Placemark>
<Placemark id="pm6122">
<name><![CDATA[Champsec]]></name>
<description><![CDATA[46 connections
]]></description>
<Point>
<coordinates>7.243980,46.057000</coordinates>
</Point>
</Placemark>
<Placemark id="pm13323">
<name><![CDATA[Versegères, La Montoz]]></name>
<description><![CDATA[46 connections
]]></description>
<Point>
<coordinates>7.240930,46.059400</coordinates>
</Point>
</Placemark>
<Placemark id="pm11247">
<name><![CDATA[Versegères, village]]></name>
<description><![CDATA[46 connections
]]></description>
<Point>
<coordinates>7.237250,46.063400</coordinates>
</Point>
</Placemark>
<Placemark id="pm6643">
<name><![CDATA[Versegères, Les Matteys]]></name>
<description><![CDATA[46 connections
]]></description>
<Point>
<coordinates>7.232860,46.066400</coordinates>
</Point>
</Placemark>
<Placemark id="pm6952">
<name><![CDATA[Versegères, Le Liappey]]></name>
<description><![CDATA[46 connections
]]></description>
<Point>
<coordinates>7.229080,46.068800</coordinates>
</Point>
</Placemark>
</Document>
</kml>
