<?xml version="1.0" encoding="UTF-8"?>
<!-- KML Regionator 303:340M -->
<kml xmlns="http://earth.google.com/kml/2.1">
<Document>
<name>919 02301</name>
<Region>
<Lod>
<minLodPixels>256</minLodPixels>
<maxLodPixels>-1</maxLodPixels>
</Lod>
<LatLonAltBox>
<north>46.40625</north>
<south>46.0546875</south>
<east>7.734375</east>
<west>7.3828125</west>
</LatLonAltBox>
</Region>
<NetworkLink>
<name>023010</name>
<Region>
<Lod>
<minLodPixels>256</minLodPixels>
<maxLodPixels>-1</maxLodPixels>
</Lod>
<LatLonAltBox>
<north>46.40625</north>
<south>46.23046875</south>
<east>7.55859375</east>
<west>7.3828125</west>
</LatLonAltBox>
</Region>
<Link>
<href>920.kml</href>
<viewRefreshMode>onRegion</viewRefreshMode>
<viewFormat/>
</Link>
</NetworkLink>
<NetworkLink>
<name>023011</name>
<Region>
<Lod>
<minLodPixels>256</minLodPixels>
<maxLodPixels>-1</maxLodPixels>
</Lod>
<LatLonAltBox>
<north>46.40625</north>
<south>46.23046875</south>
<east>7.734375</east>
<west>7.55859375</west>
</LatLonAltBox>
</Region>
<Link>
<href>935.kml</href>
<viewRefreshMode>onRegion</viewRefreshMode>
<viewFormat/>
</Link>
</NetworkLink>
<NetworkLink>
<name>023012</name>
<Region>
<Lod>
<minLodPixels>256</minLodPixels>
<maxLodPixels>-1</maxLodPixels>
</Lod>
<LatLonAltBox>
<north>46.23046875</north>
<south>46.0546875</south>
<east>7.55859375</east>
<west>7.3828125</west>
</LatLonAltBox>
</Region>
<Link>
<href>940.kml</href>
<viewRefreshMode>onRegion</viewRefreshMode>
<viewFormat/>
</Link>
</NetworkLink>
<NetworkLink>
<name>023013</name>
<Region>
<Lod>
<minLodPixels>256</minLodPixels>
<maxLodPixels>-1</maxLodPixels>
</Lod>
<LatLonAltBox>
<north>46.23046875</north>
<south>46.0546875</south>
<east>7.734375</east>
<west>7.55859375</west>
</LatLonAltBox>
</Region>
<Link>
<href>950.kml</href>
<viewRefreshMode>onRegion</viewRefreshMode>
<viewFormat/>
</Link>
</NetworkLink>
<Placemark id="pm3203">
<name><![CDATA[Sierre/Siders, gare CFF]]></name>
<description><![CDATA[148 connections
]]></description>
<Point>
<coordinates>7.532070,46.291700</coordinates>
</Point>
</Placemark>
<Placemark id="pm50">
<name><![CDATA[Niedergampel,Zivilschutzanlage]]></name>
<description><![CDATA[128 connections
]]></description>
<Point>
<coordinates>7.712550,46.311100</coordinates>
</Point>
</Placemark>
<Placemark id="pm2023">
<name><![CDATA[Obergetwing, Rottenbrücke]]></name>
<description><![CDATA[128 connections
]]></description>
<Point>
<coordinates>7.698270,46.311200</coordinates>
</Point>
</Placemark>
<Placemark id="pm10871">
<name><![CDATA[Agarn, Dorf]]></name>
<description><![CDATA[128 connections
]]></description>
<Point>
<coordinates>7.663160,46.296900</coordinates>
</Point>
</Placemark>
<Placemark id="pm14946">
<name><![CDATA[Botyre]]></name>
<description><![CDATA[127 connections
]]></description>
<Point>
<coordinates>7.406140,46.276600</coordinates>
</Point>
</Placemark>
<Placemark id="pm938">
<name><![CDATA[Chalais, téléphérique]]></name>
<description><![CDATA[119 connections
]]></description>
<Point>
<coordinates>7.511520,46.268300</coordinates>
</Point>
</Placemark>
<Placemark id="pm10695">
<name><![CDATA[Ayent, Blignoud]]></name>
<description><![CDATA[116 connections
]]></description>
<Point>
<coordinates>7.403000,46.275000</coordinates>
</Point>
</Placemark>
<Placemark id="pm8163">
<name><![CDATA[Ayent, bif. Signèse]]></name>
<description><![CDATA[116 connections
]]></description>
<Point>
<coordinates>7.400400,46.268800</coordinates>
</Point>
</Placemark>
<Placemark id="pm8206">
<name><![CDATA[Les Combes-sur-Sion]]></name>
<description><![CDATA[116 connections
]]></description>
<Point>
<coordinates>7.385910,46.255800</coordinates>
</Point>
</Placemark>
<Placemark id="pm1197">
<name><![CDATA[Grimisuat, anc. poste]]></name>
<description><![CDATA[116 connections
]]></description>
<Point>
<coordinates>7.383650,46.259600</coordinates>
</Point>
</Placemark>
<Placemark id="pm6350">
<name><![CDATA[Corin-de-la-Crête, village]]></name>
<description><![CDATA[114 connections
]]></description>
<Point>
<coordinates>7.504810,46.285400</coordinates>
</Point>
</Placemark>
<Placemark id="pm6299">
<name><![CDATA[Ollon VS, bif.]]></name>
<description><![CDATA[114 connections
]]></description>
<Point>
<coordinates>7.489230,46.278200</coordinates>
</Point>
</Placemark>
<Placemark id="pm12727">
<name><![CDATA[Montana, village]]></name>
<description><![CDATA[114 connections
]]></description>
<Point>
<coordinates>7.486660,46.296200</coordinates>
</Point>
</Placemark>
<Placemark id="pm4602">
<name><![CDATA[Montana, Maison Général Guisan]]></name>
<description><![CDATA[114 connections
]]></description>
<Point>
<coordinates>7.485360,46.298000</coordinates>
</Point>
</Placemark>
<Placemark id="pm12979">
<name><![CDATA[Chermignon, Dessus]]></name>
<description><![CDATA[114 connections
]]></description>
<Point>
<coordinates>7.474970,46.288100</coordinates>
</Point>
</Placemark>
<Placemark id="pm8936">
<name><![CDATA[Chermignon, Dessous]]></name>
<description><![CDATA[114 connections
]]></description>
<Point>
<coordinates>7.474970,46.281800</coordinates>
</Point>
</Placemark>
</Document>
</kml>
