<?xml version="1.0" encoding="UTF-8"?>
<!-- KML Regionator 303:340M -->
<kml xmlns="http://earth.google.com/kml/2.1">
<Document>
<name>925 02301021</name>
<Region>
<Lod>
<minLodPixels>256</minLodPixels>
<maxLodPixels>-1</maxLodPixels>
</Lod>
<LatLonAltBox>
<north>46.318359375</north>
<south>46.2744140625</south>
<east>7.470703125</east>
<west>7.4267578125</west>
</LatLonAltBox>
</Region>
<NetworkLink>
<name>023010210</name>
<Region>
<Lod>
<minLodPixels>256</minLodPixels>
<maxLodPixels>-1</maxLodPixels>
</Lod>
<LatLonAltBox>
<north>46.318359375</north>
<south>46.29638671875</south>
<east>7.44873046875</east>
<west>7.4267578125</west>
</LatLonAltBox>
</Region>
<Link>
<href>926.kml</href>
<viewRefreshMode>onRegion</viewRefreshMode>
<viewFormat/>
</Link>
</NetworkLink>
<Placemark id="pm14718">
<name><![CDATA[Crans-s.-S., Grand-Place]]></name>
<description><![CDATA[54 connections
]]></description>
<Point>
<coordinates>7.468490,46.304300</coordinates>
</Point>
</Placemark>
<Placemark id="pm11083">
<name><![CDATA[Crans-s.-S., Pas-de-l'Ours]]></name>
<description><![CDATA[52 connections
]]></description>
<Point>
<coordinates>7.459820,46.307600</coordinates>
</Point>
</Placemark>
<Placemark id="pm6356">
<name><![CDATA[Crans-s.-S., Zier-Régent]]></name>
<description><![CDATA[52 connections
]]></description>
<Point>
<coordinates>7.456930,46.306100</coordinates>
</Point>
</Placemark>
<Placemark id="pm10938">
<name><![CDATA[Crans-s.-S., Essampilles]]></name>
<description><![CDATA[52 connections
]]></description>
<Point>
<coordinates>7.453500,46.305500</coordinates>
</Point>
</Placemark>
<Placemark id="pm2262">
<name><![CDATA[Lens, La Trionnaz]]></name>
<description><![CDATA[52 connections
]]></description>
<Point>
<coordinates>7.453160,46.288800</coordinates>
</Point>
</Placemark>
<Placemark id="pm11977">
<name><![CDATA[Crans-s.-S., Pierre-Parc]]></name>
<description><![CDATA[52 connections
]]></description>
<Point>
<coordinates>7.449920,46.297600</coordinates>
</Point>
</Placemark>
<Placemark id="pm6630">
<name><![CDATA[Crans-s.-S., La Delége]]></name>
<description><![CDATA[52 connections
]]></description>
<Point>
<coordinates>7.449400,46.294900</coordinates>
</Point>
</Placemark>
<Placemark id="pm13349">
<name><![CDATA[Lens, Les Rosiers]]></name>
<description><![CDATA[52 connections
]]></description>
<Point>
<coordinates>7.447550,46.285300</coordinates>
</Point>
</Placemark>
<Placemark id="pm7154">
<name><![CDATA[Lens, Lyron-Biollaz]]></name>
<description><![CDATA[50 connections
]]></description>
<Point>
<coordinates>7.442590,46.281400</coordinates>
</Point>
</Placemark>
<Placemark id="pm10788">
<name><![CDATA[Icogne, poste]]></name>
<description><![CDATA[49 connections
]]></description>
<Point>
<coordinates>7.439320,46.290900</coordinates>
</Point>
</Placemark>
<Placemark id="pm3967">
<name><![CDATA[Icogne, Prasserin]]></name>
<description><![CDATA[48 connections
]]></description>
<Point>
<coordinates>7.435570,46.290400</coordinates>
</Point>
</Placemark>
<Placemark id="pm5832">
<name><![CDATA[Lens, La Croix]]></name>
<description><![CDATA[40 connections
]]></description>
<Point>
<coordinates>7.449020,46.280900</coordinates>
</Point>
</Placemark>
<Placemark id="pm13848">
<name><![CDATA[Lens, Le Bouille]]></name>
<description><![CDATA[34 connections
]]></description>
<Point>
<coordinates>7.452700,46.279500</coordinates>
</Point>
</Placemark>
<Placemark id="pm1596">
<name><![CDATA[Crans-s.-S., poste]]></name>
<description><![CDATA[29 connections
]]></description>
<Point>
<coordinates>7.466620,46.307200</coordinates>
</Point>
</Placemark>
<Placemark id="pm12391">
<name><![CDATA[Crans-s.-S., téléfériques]]></name>
<description><![CDATA[18 connections
]]></description>
<Point>
<coordinates>7.465900,46.307900</coordinates>
</Point>
</Placemark>
<Placemark id="pm233">
<name><![CDATA[Ayent, Le Samarin-Eheley]]></name>
<description><![CDATA[10 connections
]]></description>
<Point>
<coordinates>7.434420,46.316200</coordinates>
</Point>
</Placemark>
</Document>
</kml>
